[
  {
    "name": "Dr. Elma Ramesh Kumar- General Physician In Telangana",
    "address": "Yashoda E N T Clinic Badepally, Jedcharla, Gandhi Chowk, Telangana",
    "phone": "Dr. Elma Ramesh Kumar- General Physician In Telangana",
    "hours": null,
    "imageUrl": "https://www.bing.com/maps/geoplat/REST/v1/Imagery/Map/RoadVibrant?ms=92,112&key=AnTcaqBi2ypp0xI-OZNi4W_ik2KhjgpqioTAtXLC8GzkMBQRMlyxvxyTnd5b73im&c=en-US&ur=in&da=n&logo=n&fmt=png&od=1&shading=hill&pp=19.670946,78.530617;dfp"
  },
  {
    "name": "Dr. Am Reddy",
    "address": "11-78, Club Area, Adilabad, Telangana",
    "phone": "Dr. Am Reddy",
    "hours": "Closed · Opens 10:30",
    "imageUrl": "https://www.bing.com/maps/geoplat/REST/v1/Imagery/Map/RoadVibrant?ms=92,112&key=AnTcaqBi2ypp0xI-OZNi4W_ik2KhjgpqioTAtXLC8GzkMBQRMlyxvxyTnd5b73im&c=en-US&ur=in&da=n&logo=n&fmt=png&od=1&shading=hill&pp=19.6581,78.53231;dfp"
  },
  {
    "name": "Dr Bvk life care clinic",
    "address": "6-24/8, Gandhi Nagar, Kalwakurthy, Telangana",
    "phone": "Dr Bvk life care clinic",
    "hours": null,
    "imageUrl": "https://www.bing.com/maps/geoplat/REST/v1/Imagery/Map/RoadVibrant?ms=92,112&key=AnTcaqBi2ypp0xI-OZNi4W_ik2KhjgpqioTAtXLC8GzkMBQRMlyxvxyTnd5b73im&c=en-US&ur=in&da=n&logo=n&fmt=png&od=1&shading=hill&pp=19.674931,78.531891;dfp"
  },
  {
    "name": "Kallem Bhooma Reddy Multispeciality Hospital",
    "address": "D.No: 6\\7\\85\\8\\10, 1 St, Bhukthapur, Adilabad, Telangana 504001",
    "phone": "Kallem Bhooma Reddy Multispeciality Hospital",
    "hours": "Closed · Opens 10:00",
    "imageUrl": "https://www.bing.com/th?id=OLC.fhpqRfYCSRNMEQ480x360&w=92&h=134&c=8&rs=1&qlt=80&cdv=1&pid=Local"
  },
  {
    "name": "Sai Ram Clinic",
    "address": "Rgim Road, Chaitanyapuri, Adilabad, Telangana 504001",
    "phone": "Sai Ram Clinic",
    "hours": null,
    "imageUrl": "https://www.bing.com/maps/geoplat/REST/v1/Imagery/Map/RoadVibrant?ms=92,112&key=AnTcaqBi2ypp0xI-OZNi4W_ik2KhjgpqioTAtXLC8GzkMBQRMlyxvxyTnd5b73im&c=en-US&ur=in&da=n&logo=n&fmt=png&od=1&shading=hill&pp=19.656921,78.524376;dfp"
  },
  {
    "name": "Dr. P.G.Mallesh",
    "address": "11-78, Club Area, Adilabad, Telangana",
    "phone": "Dr. P.G.Mallesh",
    "hours": "Closed · Opens 11:00",
    "imageUrl": "https://www.bing.com/maps/geoplat/REST/v1/Imagery/Map/RoadVibrant?ms=92,112&key=AnTcaqBi2ypp0xI-OZNi4W_ik2KhjgpqioTAtXLC8GzkMBQRMlyxvxyTnd5b73im&c=en-US&ur=in&da=n&logo=n&fmt=png&od=1&shading=hill&pp=19.6581,78.53231;dfp"
  },
  {
    "name": "Balaji Hospital",
    "address": "Mg9h+f9w, Adilabad, Nh-44, Ichoda Main Road, Vidya Nagar, Telangana 504001",
    "phone": "Balaji Hospital",
    "hours": null,
    "imageUrl": "https://www.bing.com/maps/geoplat/REST/v1/Imagery/Map/RoadVibrant?ms=92,112&key=AnTcaqBi2ypp0xI-OZNi4W_ik2KhjgpqioTAtXLC8GzkMBQRMlyxvxyTnd5b73im&c=en-US&ur=in&da=n&logo=n&fmt=png&od=1&shading=hill&pp=19.668659,78.528458;dfp"
  },
  {
    "name": "Balaji Clinic",
    "address": "Dasanapur Road, Adilabad, Telangana 504001",
    "phone": "Balaji Clinic",
    "hours": null,
    "imageUrl": "https://www.bing.com/maps/geoplat/REST/v1/Imagery/Map/RoadVibrant?ms=92,112&key=AnTcaqBi2ypp0xI-OZNi4W_ik2KhjgpqioTAtXLC8GzkMBQRMlyxvxyTnd5b73im&c=en-US&ur=in&da=n&logo=n&fmt=png&od=1&shading=hill&pp=19.655928,78.525261;dfp"
  },
  {
    "name": "Ramesh Hero and TVS Clinic",
    "address": "Nh44 Ichoda Main Road, Adilabad, Telangana 504001",
    "phone": "Ramesh Hero and TVS Clinic",
    "hours": null,
    "imageUrl": "https://www.bing.com/maps/geoplat/REST/v1/Imagery/Map/RoadVibrant?ms=92,112&key=AnTcaqBi2ypp0xI-OZNi4W_ik2KhjgpqioTAtXLC8GzkMBQRMlyxvxyTnd5b73im&c=en-US&ur=in&da=n&logo=n&fmt=png&od=1&shading=hill&pp=19.669178,78.528229;dfp"
  },
  {
    "name": "Dr. Shilpa Akkera- Obstetrician & Gynaecologist",
    "address": "Nakshatra Hospital, Opp Tanishq Hotel, Bhaktapur, Adilabad, Telangana 504001",
    "phone": "Dr. Shilpa Akkera- Obstetrician & Gynaecologist",
    "hours": "Closed · Opens 11:00",
    "imageUrl": "https://www.bing.com/maps/geoplat/REST/v1/Imagery/Map/RoadVibrant?ms=92,134&key=AnTcaqBi2ypp0xI-OZNi4W_ik2KhjgpqioTAtXLC8GzkMBQRMlyxvxyTnd5b73im&c=en-US&ur=in&da=n&logo=n&fmt=png&od=1&shading=hill&pp=19.673351,78.529556;dfp"
  },
  {
    "name": "Sri Sai Clinic",
    "address": "1/141, Nh7 Road, Sitaragondhi, Adilabad, Telangana 504308",
    "phone": "Sri Sai Clinic",
    "hours": null,
    "imageUrl": "https://www.bing.com/maps/geoplat/REST/v1/Imagery/Map/RoadVibrant?ms=92,112&key=AnTcaqBi2ypp0xI-OZNi4W_ik2KhjgpqioTAtXLC8GzkMBQRMlyxvxyTnd5b73im&c=en-US&ur=in&da=n&logo=n&fmt=png&od=1&shading=hill&pp=19.656851,78.531433;dfp"
  },
  {
    "name": "Dr. Shilpa Akkera- Obstetrician & Gynaecologist In Adilabad",
    "address": "Nakshatra Hospital, opp. Tanishq Hotel, Bhaktapur, Adilabad(U), Telangana",
    "phone": "Dr. Shilpa Akkera- Obstetrician & Gynaecologist In Adilabad",
    "hours": null,
    "imageUrl": "https://www.bing.com/maps/geoplat/REST/v1/Imagery/Map/RoadVibrant?ms=92,112&key=AnTcaqBi2ypp0xI-OZNi4W_ik2KhjgpqioTAtXLC8GzkMBQRMlyxvxyTnd5b73im&c=en-US&ur=in&da=n&logo=n&fmt=png&od=1&shading=hill&pp=19.657845,78.523468;dfp"
  },
  {
    "name": "Ganapathi Diagnostic Centre Hospital",
    "address": "Cinema Hall Road, Darsgah E Islami Urdhu Medium School, Buktapur, Adilabad, Telangana 504001",
    "phone": "Ganapathi Diagnostic Centre Hospital",
    "hours": null,
    "imageUrl": "https://www.bing.com/maps/geoplat/REST/v1/Imagery/Map/RoadVibrant?ms=92,112&key=AnTcaqBi2ypp0xI-OZNi4W_ik2KhjgpqioTAtXLC8GzkMBQRMlyxvxyTnd5b73im&c=en-US&ur=in&da=n&logo=n&fmt=png&od=1&shading=hill&pp=19.672085,78.532616;dfp"
  },
  {
    "name": "Sri Vigneswara Orthopaedic Hospital",
    "address": "Buktapur Street, Buktapur, Adilabad, Telangana 504001",
    "phone": "Sri Vigneswara Orthopaedic Hospital",
    "hours": null,
    "imageUrl": "https://www.bing.com/maps/geoplat/REST/v1/Imagery/Map/RoadVibrant?ms=92,112&key=AnTcaqBi2ypp0xI-OZNi4W_ik2KhjgpqioTAtXLC8GzkMBQRMlyxvxyTnd5b73im&c=en-US&ur=in&da=n&logo=n&fmt=png&od=1&shading=hill&pp=19.675344,78.532318;dfp"
  },
  {
    "name": "Srinivasa Piles Clinic and Releaf Center",
    "address": "Netaji Chowck, Adilabad, Telangana 504001",
    "phone": "Srinivasa Piles Clinic and Releaf Center",
    "hours": null,
    "imageUrl": "https://www.bing.com/maps/geoplat/REST/v1/Imagery/Map/RoadVibrant?ms=92,112&key=AnTcaqBi2ypp0xI-OZNi4W_ik2KhjgpqioTAtXLC8GzkMBQRMlyxvxyTnd5b73im&c=en-US&ur=in&da=n&logo=n&fmt=png&od=1&shading=hill&pp=19.679434,78.537109;dfp"
  },
  {
    "name": "Dr. Sunil Gitte Mds",
    "address": "Plot Number 3-2-21, Station Road, Shivaji Chowk, Adilabad, Telangana",
    "phone": "Dr. Sunil Gitte Mds",
    "hours": "Closed · Opens 10:00",
    "imageUrl": "https://th.bing.com/th?id=OLC.crSHJ8jDYSEzuA480x360&w=92&h=112&c=8&rs=1&qlt=80&cdv=1&pid=Local"
  },
  {
    "name": "Siri Skin & Ent Hospital",
    "address": "Tngo’s Road, Ponnar, Ravindra Nagar Colony, Adilabad(U), Telangana",
    "phone": "Siri Skin & Ent Hospital",
    "hours": null,
    "imageUrl": "https://www.bing.com/maps/geoplat/REST/v1/Imagery/Map/RoadVibrant?ms=92,112&key=AnTcaqBi2ypp0xI-OZNi4W_ik2KhjgpqioTAtXLC8GzkMBQRMlyxvxyTnd5b73im&c=en-US&ur=in&da=n&logo=n&fmt=png&od=1&shading=hill&pp=19.666426,78.532669;dfp"
  },
  {
    "name": "Adilabad Diagnostic Center",
    "address": "Dwarka Nagar Road, Adilabad, Telangana 504001",
    "phone": "Adilabad Diagnostic Center",
    "hours": null,
    "imageUrl": "https://www.bing.com/maps/geoplat/REST/v1/Imagery/Map/RoadVibrant?ms=92,112&key=AnTcaqBi2ypp0xI-OZNi4W_ik2KhjgpqioTAtXLC8GzkMBQRMlyxvxyTnd5b73im&c=en-US&ur=in&da=n&logo=n&fmt=png&od=1&shading=hill&pp=19.669149,78.532684;dfp"
  },
  {
    "name": "Dr. Elma Ramesh Kumar- General Physician In Telangana",
    "address": "Yashoda E N T Clinic Badepally, Jedcharla, Gandhi Chowk, Telangana",
    "phone": "Dr. Elma Ramesh Kumar- General Physician In Telangana",
    "hours": null,
    "imageUrl": "https://www.bing.com/maps/geoplat/REST/v1/Imagery/Map/RoadVibrant?ms=92,112&key=AnTcaqBi2ypp0xI-OZNi4W_ik2KhjgpqioTAtXLC8GzkMBQRMlyxvxyTnd5b73im&c=en-US&ur=in&da=n&logo=n&fmt=png&od=1&shading=hill&pp=19.670946,78.530617;dfp"
  },
  {
    "name": "Dr. Am Reddy",
    "address": "11-78, Club Area, Adilabad, Telangana",
    "phone": "Dr. Am Reddy",
    "hours": "Closed · Opens 10:30",
    "imageUrl": "https://www.bing.com/maps/geoplat/REST/v1/Imagery/Map/RoadVibrant?ms=92,112&key=AnTcaqBi2ypp0xI-OZNi4W_ik2KhjgpqioTAtXLC8GzkMBQRMlyxvxyTnd5b73im&c=en-US&ur=in&da=n&logo=n&fmt=png&od=1&shading=hill&pp=19.6581,78.53231;dfp"
  }
]