[
  {
    "name": "Dr.Aniket Kurhade",
    "address": "Near, Saideep Hospital Viraj Estate, DSP Chowk Rd, Tarakpur, Ahmednagar, Maharashtra",
    "phone": "Dr.Aniket Kurhade",
    "hours": null,
    "imageUrl": "https://www.bing.com/th?id=OLC.PsRjncC%2bDQD9mw480x360&w=92&h=112&c=8&rs=1&qlt=80&cdv=1&pid=Local"
  },
  {
    "name": "Dr.kashid Hospital",
    "address": "Opposite Hotel Oberoi, Near Lokmat Bhavan, Ahmednagar, Maharashtra 414001",
    "phone": "Dr.kashid Hospital",
    "hours": null,
    "imageUrl": "https://www.bing.com/th?id=OLC.tiMeoy0cgE4pDQ480x360&w=92&h=112&c=8&rs=1&qlt=80&cdv=1&pid=Local"
  },
  {
    "name": "Shri Kamala Ayurved Hospital | Dr. Mahesh Mulay | Dr. Anshu Mulay | Panchakarma Clinic",
    "address": "Dena Bank Society Balikashram Road, Ahmednagar, Maharashtra 414001",
    "phone": "Shri Kamala Ayurved Hospital | Dr. Mahesh Mulay | Dr. Anshu Mulay | Panchakarma Clinic",
    "hours": null,
    "imageUrl": "https://www.bing.com/th?id=OLC.vkOt%2fg1IbqFMhw480x360&w=92&h=112&c=8&rs=1&qlt=80&cdv=1&pid=Local"
  },
  {
    "name": "Dr. Laxmi Rao",
    "address": "Shop No. 2, Swastik Apartment, Renavikar Nagar, Ahmednagar, Maharashtra",
    "phone": "Dr. Laxmi Rao",
    "hours": "Closed Â· Opens 10:00",
    "imageUrl": "https://www.bing.com/maps/geoplat/REST/v1/Imagery/Map/RoadVibrant?ms=92,134&key=AnTcaqBi2ypp0xI-OZNi4W_ik2KhjgpqioTAtXLC8GzkMBQRMlyxvxyTnd5b73im&c=en-US&ur=in&da=n&logo=n&fmt=png&od=1&shading=hill&pp=19.12417,74.739929;dfp"
  },
  {
    "name": "Dr Amit Harishchandra Karade",
    "address": "Balikashram Road, Ahmednagar, Maharashtra 414001",
    "phone": "Dr Amit Harishchandra Karade",
    "hours": null,
    "imageUrl": "https://www.bing.com/th?id=OLC.JareU%2fn0r30ZPg480x360&w=92&h=112&c=8&rs=1&qlt=80&cdv=1&pid=Local"
  },
  {
    "name": "Dr T K Nagdev Clinic",
    "address": "Tamhi Chowk, Ahmadnagar, Maharashtra 414001",
    "phone": "Dr T K Nagdev Clinic",
    "hours": null,
    "imageUrl": "https://www.bing.com/maps/geoplat/REST/v1/Imagery/Map/RoadVibrant?ms=92,112&key=AnTcaqBi2ypp0xI-OZNi4W_ik2KhjgpqioTAtXLC8GzkMBQRMlyxvxyTnd5b73im&c=en-US&ur=in&da=n&logo=n&fmt=png&od=1&shading=hill&pp=19.093992,74.737938;dfp"
  },
  {
    "name": "Dr Shaikh Shahbaaz Clinic",
    "address": "Near Jakat Naka, Jamkhed Road, Ahmednagar, Maharashtra 414001",
    "phone": "Dr Shaikh Shahbaaz Clinic",
    "hours": null,
    "imageUrl": "https://www.bing.com/maps/geoplat/REST/v1/Imagery/Map/RoadVibrant?ms=92,112&key=AnTcaqBi2ypp0xI-OZNi4W_ik2KhjgpqioTAtXLC8GzkMBQRMlyxvxyTnd5b73im&c=en-US&ur=in&da=n&logo=n&fmt=png&od=1&shading=hill&pp=19.084249,74.760544;dfp"
  },
  {
    "name": "Dr Firodiya Clinic",
    "address": "Chitale Road, Ahmadnagar, Maharashtra 414001",
    "phone": "Dr Firodiya Clinic",
    "hours": null,
    "imageUrl": "https://www.bing.com/maps/geoplat/REST/v1/Imagery/Map/RoadVibrant?ms=92,112&key=AnTcaqBi2ypp0xI-OZNi4W_ik2KhjgpqioTAtXLC8GzkMBQRMlyxvxyTnd5b73im&c=en-US&ur=in&da=n&logo=n&fmt=png&od=1&shading=hill&pp=19.096226,74.732758;dfp"
  },
  {
    "name": "Safa Clinic",
    "address": "Mukundnagar, Ahmednagar, Maharashtra 414001",
    "phone": "Safa Clinic",
    "hours": null,
    "imageUrl": "https://www.bing.com/maps/geoplat/REST/v1/Imagery/Map/RoadVibrant?ms=92,112&key=AnTcaqBi2ypp0xI-OZNi4W_ik2KhjgpqioTAtXLC8GzkMBQRMlyxvxyTnd5b73im&c=en-US&ur=in&da=n&logo=n&fmt=png&od=1&shading=hill&pp=19.110338,74.754158;dfp"
  },
  {
    "name": "Dr Gadakh Patil Hospital",
    "address": "328/1/2/3/21 Dr Gadakh Patil Hospital 21 Nagar Manmad Road, Rahuri, Ahmednagar, Maharashtra 413705",
    "phone": "Dr Gadakh Patil Hospital",
    "hours": null,
    "imageUrl": "https://th.bing.com/th?id=OLC.KRx%2bBugFiYCd1A480x360&w=92&h=112&c=8&rs=1&qlt=80&cdv=1&pid=Local"
  },
  {
    "name": "Dr Pradhrya Clinic",
    "address": "Sudak Mala, Ahmadnagar, Maharashtra 414001",
    "phone": "Dr Pradhrya Clinic",
    "hours": null,
    "imageUrl": "https://www.bing.com/maps/geoplat/REST/v1/Imagery/Map/RoadVibrant?ms=92,112&key=AnTcaqBi2ypp0xI-OZNi4W_ik2KhjgpqioTAtXLC8GzkMBQRMlyxvxyTnd5b73im&c=en-US&ur=in&da=n&logo=n&fmt=png&od=1&shading=hill&pp=19.107225,74.73027;dfp"
  },
  {
    "name": "Dr. Adhav Gajanan K",
    "address": "Burudjon Road, Ahmednagar, Ahmednagar 414001",
    "phone": "Dr. Adhav Gajanan K",
    "hours": null,
    "imageUrl": "https://www.bing.com/maps/geoplat/REST/v1/Imagery/Map/RoadVibrant?ms=92,112&key=AnTcaqBi2ypp0xI-OZNi4W_ik2KhjgpqioTAtXLC8GzkMBQRMlyxvxyTnd5b73im&c=en-US&ur=in&da=n&logo=n&fmt=png&od=1&shading=hill&pp=19.125227,74.748764;dfp"
  },
  {
    "name": "Firodiya Clinic and Ayurved Center",
    "address": "Firodiya Ayurved Center, Station Rd, Near Anand Rishi Hospital, Ahmednagar, Maharashtra",
    "phone": "Firodiya Clinic and Ayurved Center",
    "hours": null,
    "imageUrl": "https://th.bing.com/th?id=OLC.7WB5KH%2fxM5vKBA480x360&w=92&h=112&c=8&rs=1&qlt=80&cdv=1&pid=Local"
  },
  {
    "name": "Dr Sudha Kankaria - The First Proto Originator of Save Girl Child Mission in India",
    "address": "Manik Chowk, Ahmednagar, Maharashtra, Maharashtra 414001",
    "phone": "Dr Sudha Kankaria - The First Proto Originator of Save Girl Child Mission in India",
    "hours": null,
    "imageUrl": "https://th.bing.com/th?id=OLC.9sxLtpCXZjVygA480x360&w=92&h=112&c=8&rs=1&qlt=80&cdv=1&pid=Local"
  },
  {
    "name": "Dr SHWETA'S HOMEOPATHIC CLINIC",
    "address": "Jalsa, Infront Of Hotel, Alamgir Rd, Bhingar, Ahmednagar, Maharashtra",
    "phone": "Dr SHWETA'S HOMEOPATHIC CLINIC",
    "hours": null,
    "imageUrl": "https://www.bing.com/maps/geoplat/REST/v1/Imagery/Map/RoadVibrant?ms=92,112&key=AnTcaqBi2ypp0xI-OZNi4W_ik2KhjgpqioTAtXLC8GzkMBQRMlyxvxyTnd5b73im&c=en-US&ur=in&da=n&logo=n&fmt=png&od=1&shading=hill&pp=19.093441,74.777885;dfp"
  },
  {
    "name": "Dr Badhe`s Cardiac and Diabetic Clinic",
    "address": "Vasant Residency Ground Floor, Pipeline Rd, Near Bhingar Urban Bank, Savedi, Ahmednagar, Maharashtra",
    "phone": "Dr Badhe`s Cardiac and Diabetic Clinic",
    "hours": null,
    "imageUrl": "https://www.bing.com/maps/geoplat/REST/v1/Imagery/Map/RoadVibrant?ms=92,112&key=AnTcaqBi2ypp0xI-OZNi4W_ik2KhjgpqioTAtXLC8GzkMBQRMlyxvxyTnd5b73im&c=en-US&ur=in&da=n&logo=n&fmt=png&od=1&shading=hill&pp=19.132626,74.728546;dfp"
  },
  {
    "name": "Dr.hajare Sexology Super Speciality Ayurvedic Clinic",
    "address": "Satbhai Mala, Bagroja Hudco, Sudke Mala, Maharashtra 414001",
    "phone": "Dr.hajare Sexology Super Speciality Ayurvedic Clinic",
    "hours": null,
    "imageUrl": "https://th.bing.com/th?id=OLC.Qj2IzggCXMsIBw480x360&w=92&h=112&c=8&rs=1&qlt=80&cdv=1&pid=Local"
  },
  {
    "name": "Kidney care clinic | Dr. Vikrant Bhagat",
    "address": "Clinic 1, Shree Sai Clinic, C/O, opp. Hotel Sambar, Mahavir Nagar, Ahmednagar, Maharashtra",
    "phone": "Kidney care clinic | Dr. Vikrant Bhagat",
    "hours": null,
    "imageUrl": "https://www.bing.com/maps/geoplat/REST/v1/Imagery/Map/RoadVibrant?ms=92,112&key=AnTcaqBi2ypp0xI-OZNi4W_ik2KhjgpqioTAtXLC8GzkMBQRMlyxvxyTnd5b73im&c=en-US&ur=in&da=n&logo=n&fmt=png&od=1&shading=hill&pp=19.12392,74.725487;dfp"
  },
  {
    "name": "Dr.Aniket Kurhade",
    "address": "Near, Saideep Hospital Viraj Estate, DSP Chowk Rd, Tarakpur, Ahmednagar, Maharashtra",
    "phone": "Dr.Aniket Kurhade",
    "hours": null,
    "imageUrl": "https://www.bing.com/th?id=OLC.PsRjncC%2bDQD9mw480x360&w=92&h=112&c=8&rs=1&qlt=80&cdv=1&pid=Local"
  },
  {
    "name": "Dr.kashid Hospital",
    "address": "Opposite Hotel Oberoi, Near Lokmat Bhavan, Ahmednagar, Maharashtra 414001",
    "phone": "Dr.kashid Hospital",
    "hours": null,
    "imageUrl": "https://www.bing.com/th?id=OLC.tiMeoy0cgE4pDQ480x360&w=92&h=112&c=8&rs=1&qlt=80&cdv=1&pid=Local"
  }
]