[
  {
    "name": "Care Hospital",
    "address": "J\\4, Dawrpui Jail Veng, Near Civil Hospital, Aizawl, Mizoram 796005",
    "phone": "Care Hospital",
    "hours": null,
    "imageUrl": "https://www.bing.com/maps/geoplat/REST/v1/Imagery/Map/RoadVibrant?ms=92,112&key=AnTcaqBi2ypp0xI-OZNi4W_ik2KhjgpqioTAtXLC8GzkMBQRMlyxvxyTnd5b73im&c=en-US&ur=in&da=n&logo=n&fmt=png&od=1&shading=hill&pp=23.732973,92.716148;dfp"
  },
  {
    "name": "Dr Fraders Clinic",
    "address": "Jl Point, Mission Veng, Aizawl, Mizoram 796001",
    "phone": "Dr Fraders Clinic",
    "hours": null,
    "imageUrl": "https://www.bing.com/maps/geoplat/REST/v1/Imagery/Map/RoadVibrant?ms=92,112&key=AnTcaqBi2ypp0xI-OZNi4W_ik2KhjgpqioTAtXLC8GzkMBQRMlyxvxyTnd5b73im&c=en-US&ur=in&da=n&logo=n&fmt=png&od=1&shading=hill&pp=23.715061,92.719124;dfp"
  },
  {
    "name": "Dr. Rahul Roy - Gastrointestinal Surgeon | Liver Transplant & HPB Surgery | Aizawl",
    "address": "Ppvf+XMG LRM Hospital, Chanmari - Ramhlun Rd, Ramhlun Venglai, Chaltlang, Aizawl, Mizoram",
    "phone": "Dr. Rahul Roy - Gastrointestinal Surgeon | Liver Transplant & HPB Surgery | Aizawl",
    "hours": null,
    "imageUrl": "https://www.bing.com/maps/geoplat/REST/v1/Imagery/Map/RoadVibrant?ms=92,112&key=AnTcaqBi2ypp0xI-OZNi4W_ik2KhjgpqioTAtXLC8GzkMBQRMlyxvxyTnd5b73im&c=en-US&ur=in&da=n&logo=n&fmt=png&od=1&shading=hill&pp=23.748989,92.725487;dfp"
  },
  {
    "name": "R Lianzama Clinic",
    "address": "Upper Bazar Road, Hotel Mayur, Dawrpui, Aizawl, Mizoram 796001",
    "phone": "R Lianzama Clinic",
    "hours": null,
    "imageUrl": "https://www.bing.com/maps/geoplat/REST/v1/Imagery/Map/RoadVibrant?ms=92,112&key=AnTcaqBi2ypp0xI-OZNi4W_ik2KhjgpqioTAtXLC8GzkMBQRMlyxvxyTnd5b73im&c=en-US&ur=in&da=n&logo=n&fmt=png&od=1&shading=hill&pp=23.732828,92.716934;dfp"
  },
  {
    "name": "Vr Healthcare Clinic - Home | Facebook",
    "address": "B-79, Millenium Centre, Aizawl, Mizoram, Mizoram 796001",
    "phone": "Vr Healthcare Clinic - Home | Facebook",
    "hours": null,
    "imageUrl": "https://www.bing.com/maps/geoplat/REST/v1/Imagery/Map/RoadVibrant?ms=92,112&key=AnTcaqBi2ypp0xI-OZNi4W_ik2KhjgpqioTAtXLC8GzkMBQRMlyxvxyTnd5b73im&c=en-US&ur=in&da=n&logo=n&fmt=png&od=1&shading=hill&pp=23.741289,92.712662;dfp"
  },
  {
    "name": "Damveng Clinic",
    "address": "Venghndat Road, Venghnuai, Aizawl, Mizoram 796005",
    "phone": "Damveng Clinic",
    "hours": null,
    "imageUrl": "https://www.bing.com/maps/geoplat/REST/v1/Imagery/Map/RoadVibrant?ms=92,112&key=AnTcaqBi2ypp0xI-OZNi4W_ik2KhjgpqioTAtXLC8GzkMBQRMlyxvxyTnd5b73im&c=en-US&ur=in&da=n&logo=n&fmt=png&od=1&shading=hill&pp=23.71335,92.720779;dfp"
  },
  {
    "name": "Dr Lal PathLabs - Patient Service Centre",
    "address": "K T Khuma Building, Bazar Bungkawn, Aizawl, Mizoram 796001",
    "phone": "Dr Lal PathLabs - Patient Service Centre",
    "hours": "Open 24 hours",
    "imageUrl": "https://th.bing.com/th?id=OLC.pzLRfgWw41%2bLyA480x360&w=92&h=134&c=8&rs=1&qlt=80&cdv=1&pid=Local"
  },
  {
    "name": "Alpha Heal Pain & Laser Clinic",
    "address": "Taxi Stand, Theodora Mart, V-22, Treasury Square, Central Hall Rd, Opposite MPC Party Office, Near Vengâ€¦",
    "phone": "Alpha Heal Pain & Laser Clinic",
    "hours": null,
    "imageUrl": "https://www.bing.com/maps/geoplat/REST/v1/Imagery/Map/RoadVibrant?ms=92,112&key=AnTcaqBi2ypp0xI-OZNi4W_ik2KhjgpqioTAtXLC8GzkMBQRMlyxvxyTnd5b73im&c=en-US&ur=in&da=n&logo=n&fmt=png&od=1&shading=hill&pp=23.720718,92.708878;dfp"
  },
  {
    "name": "Dr.bubbles - Mizoram",
    "address": "Msr Market, Zarkawt, Babutlang, Near Basket Ball Court, Aizawl 796001",
    "phone": "Dr.bubbles - Mizoram",
    "hours": null,
    "imageUrl": "https://www.bing.com/maps/geoplat/REST/v1/Imagery/Map/RoadVibrant?ms=92,112&key=AnTcaqBi2ypp0xI-OZNi4W_ik2KhjgpqioTAtXLC8GzkMBQRMlyxvxyTnd5b73im&c=en-US&ur=in&da=n&logo=n&fmt=png&od=1&shading=hill&pp=23.724371,92.718643;dfp"
  },
  {
    "name": "Glanz Laser Clinic",
    "address": "A, Building, Bawngkawn South, Tlangnuam, Bawngkawn, Aizawl, Mizoram 796014",
    "phone": "Glanz Laser Clinic",
    "hours": null,
    "imageUrl": "https://www.bing.com/maps/geoplat/REST/v1/Imagery/Map/RoadVibrant?ms=92,112&key=AnTcaqBi2ypp0xI-OZNi4W_ik2KhjgpqioTAtXLC8GzkMBQRMlyxvxyTnd5b73im&c=en-US&ur=in&da=n&logo=n&fmt=png&od=1&shading=hill&pp=23.755444,92.730942;dfp"
  },
  {
    "name": "ESI Dispensary",
    "address": "Central Hall Rd, Venghlui, Aizawl, Mizoram",
    "phone": "ESI Dispensary",
    "hours": null,
    "imageUrl": "https://th.bing.com/th?id=OLC.06HheNv0oMhC5Q480x360&w=92&h=112&c=8&rs=1&qlt=80&cdv=1&pid=Local"
  },
  {
    "name": "Dr. David- Dentist In Dawrpui",
    "address": "Dental Cave, Dawrpui, Aizawl, Mizoram",
    "phone": "Dr. David- Dentist In Dawrpui",
    "hours": null,
    "imageUrl": "https://www.bing.com/maps/geoplat/REST/v1/Imagery/Map/RoadVibrant?ms=92,112&key=AnTcaqBi2ypp0xI-OZNi4W_ik2KhjgpqioTAtXLC8GzkMBQRMlyxvxyTnd5b73im&c=en-US&ur=in&da=n&logo=n&fmt=png&od=1&shading=hill&pp=23.727354,92.716972;dfp"
  },
  {
    "name": "Life Line Ultrasound",
    "address": "Upper Bazar Road, Aizawl Police Station, Dawrpui, Aizawl, Mizoram 796001",
    "phone": "Life Line Ultrasound",
    "hours": null,
    "imageUrl": "https://www.bing.com/maps/geoplat/REST/v1/Imagery/Map/RoadVibrant?ms=92,112&key=AnTcaqBi2ypp0xI-OZNi4W_ik2KhjgpqioTAtXLC8GzkMBQRMlyxvxyTnd5b73im&c=en-US&ur=in&da=n&logo=n&fmt=png&od=1&shading=hill&pp=23.732363,92.716965;dfp"
  },
  {
    "name": "Doctor of Pharmacy Association Mizoram State Branch",
    "address": "Aces Pharmacy, Khatla, Aizawl, Mizoram 796001",
    "phone": "Doctor of Pharmacy Association Mizoram State Branch",
    "hours": "Open 24 hours",
    "imageUrl": "https://www.bing.com/maps/geoplat/REST/v1/Imagery/Map/RoadVibrant?ms=92,134&key=AnTcaqBi2ypp0xI-OZNi4W_ik2KhjgpqioTAtXLC8GzkMBQRMlyxvxyTnd5b73im&c=en-US&ur=in&da=n&logo=n&fmt=png&od=1&shading=hill&pp=23.719524,92.71804;dfp"
  },
  {
    "name": "JB Paws Veterinary Hospital",
    "address": "Zemabawk, Kawn Veng, Aizawl, Mizoram 796017",
    "phone": "JB Paws Veterinary Hospital",
    "hours": null,
    "imageUrl": "https://th.bing.com/th?id=OLC.9XcxibwiJESHdg480x360&w=92&h=112&c=8&rs=1&qlt=80&cdv=1&pid=Local"
  },
  {
    "name": "Care Hospital",
    "address": "J\\4, Dawrpui Jail Veng, Near Civil Hospital, Aizawl, Mizoram 796005",
    "phone": "Care Hospital",
    "hours": null,
    "imageUrl": "https://www.bing.com/maps/geoplat/REST/v1/Imagery/Map/RoadVibrant?ms=92,112&key=AnTcaqBi2ypp0xI-OZNi4W_ik2KhjgpqioTAtXLC8GzkMBQRMlyxvxyTnd5b73im&c=en-US&ur=in&da=n&logo=n&fmt=png&od=1&shading=hill&pp=23.732973,92.716148;dfp"
  },
  {
    "name": "Dr Fraders Clinic",
    "address": "Jl Point, Mission Veng, Aizawl, Mizoram 796001",
    "phone": "Dr Fraders Clinic",
    "hours": null,
    "imageUrl": "https://www.bing.com/maps/geoplat/REST/v1/Imagery/Map/RoadVibrant?ms=92,112&key=AnTcaqBi2ypp0xI-OZNi4W_ik2KhjgpqioTAtXLC8GzkMBQRMlyxvxyTnd5b73im&c=en-US&ur=in&da=n&logo=n&fmt=png&od=1&shading=hill&pp=23.715061,92.719124;dfp"
  },
  {
    "name": "Dr. Rahul Roy - Gastrointestinal Surgeon | Liver Transplant & HPB Surgery | Aizawl",
    "address": "Ppvf+XMG LRM Hospital, Chanmari - Ramhlun Rd, Ramhlun Venglai, Chaltlang, Aizawl, Mizoram",
    "phone": "Dr. Rahul Roy - Gastrointestinal Surgeon | Liver Transplant & HPB Surgery | Aizawl",
    "hours": null,
    "imageUrl": "https://www.bing.com/maps/geoplat/REST/v1/Imagery/Map/RoadVibrant?ms=92,112&key=AnTcaqBi2ypp0xI-OZNi4W_ik2KhjgpqioTAtXLC8GzkMBQRMlyxvxyTnd5b73im&c=en-US&ur=in&da=n&logo=n&fmt=png&od=1&shading=hill&pp=23.748989,92.725487;dfp"
  },
  {
    "name": "R Lianzama Clinic",
    "address": "Upper Bazar Road, Hotel Mayur, Dawrpui, Aizawl, Mizoram 796001",
    "phone": "R Lianzama Clinic",
    "hours": null,
    "imageUrl": "https://www.bing.com/maps/geoplat/REST/v1/Imagery/Map/RoadVibrant?ms=92,112&key=AnTcaqBi2ypp0xI-OZNi4W_ik2KhjgpqioTAtXLC8GzkMBQRMlyxvxyTnd5b73im&c=en-US&ur=in&da=n&logo=n&fmt=png&od=1&shading=hill&pp=23.732828,92.716934;dfp"
  },
  {
    "name": "Vr Healthcare Clinic - Home | Facebook",
    "address": "B-79, Millenium Centre, Aizawl, Mizoram, Mizoram 796001",
    "phone": "Vr Healthcare Clinic - Home | Facebook",
    "hours": null,
    "imageUrl": "https://www.bing.com/maps/geoplat/REST/v1/Imagery/Map/RoadVibrant?ms=92,112&key=AnTcaqBi2ypp0xI-OZNi4W_ik2KhjgpqioTAtXLC8GzkMBQRMlyxvxyTnd5b73im&c=en-US&ur=in&da=n&logo=n&fmt=png&od=1&shading=hill&pp=23.741289,92.712662;dfp"
  }
]