[
  {
    "name": "Dr Ashwin Sadavarte (mbbs, Md Medicine) Care And Cure Polyclinic",
    "address": "Basement, Nishant Tower, Gandhi Road, Akola, Maharashtra, India, 444001, Akola, Madhya Pradesh 4…",
    "phone": "Dr Ashwin Sadavarte (mbbs, Md Medicine) Care And Cure Polyclinic",
    "hours": "Closed · Opens 11:00",
    "imageUrl": "https://www.bing.com/th?id=OLC.KqdPge%2b3mhJ1cA480x360&w=92&h=134&c=8&rs=1&qlt=80&cdv=1&pid=Local"
  },
  {
    "name": "Dr. Tarun Rathi",
    "address": "Near Bus Stand., Landmark, Akola, Maharashtra 444001",
    "phone": "Dr. Tarun Rathi",
    "hours": "Closed · Opens 10:00",
    "imageUrl": "https://www.bing.com/maps/geoplat/REST/v1/Imagery/Map/RoadVibrant?ms=92,134&key=AnTcaqBi2ypp0xI-OZNi4W_ik2KhjgpqioTAtXLC8GzkMBQRMlyxvxyTnd5b73im&c=en-US&ur=in&da=n&logo=n&fmt=png&od=1&shading=hill&pp=20.707714,77.002251;dfp"
  },
  {
    "name": "Dr. Feroz Khan Hospital",
    "address": "Dr. Feroz Khan Hospital, Near Shubhkarta Lawns, Hotel Venus, Akola, Maharashtra",
    "phone": "Dr. Feroz Khan Hospital",
    "hours": "Closed · Opens 10:00",
    "imageUrl": "https://www.bing.com/maps/geoplat/REST/v1/Imagery/Map/RoadVibrant?ms=92,134&key=AnTcaqBi2ypp0xI-OZNi4W_ik2KhjgpqioTAtXLC8GzkMBQRMlyxvxyTnd5b73im&c=en-US&ur=in&da=n&logo=n&fmt=png&od=1&shading=hill&pp=20.706585,77.005424;dfp"
  },
  {
    "name": "Dr Abhay Patil",
    "address": "Behind L.I.C.Office, Shrawagi Plots, Akola, Maharashtra",
    "phone": "Dr Abhay Patil",
    "hours": null,
    "imageUrl": "https://www.bing.com/maps/geoplat/REST/v1/Imagery/Map/RoadVibrant?ms=92,112&key=AnTcaqBi2ypp0xI-OZNi4W_ik2KhjgpqioTAtXLC8GzkMBQRMlyxvxyTnd5b73im&c=en-US&ur=in&da=n&logo=n&fmt=png&od=1&shading=hill&pp=20.705536,77.002777;dfp"
  },
  {
    "name": "Dr. Ajmal Khan | Kidwai clinic",
    "address": "Milad Colony Near Iqra, Akola, Maharashtra, India, 444003, Akola, Madhya Pradesh 444003",
    "phone": "Dr. Ajmal Khan | Kidwai clinic",
    "hours": "Closed · Opens 19:30",
    "imageUrl": "https://www.bing.com/th?id=OLC.zr0zrnC7qw3ZDQ480x360&w=92&h=112&c=8&rs=1&qlt=80&cdv=1&pid=Local"
  },
  {
    "name": "Twacha Clinic - Dr. Ashish Khandare Patil",
    "address": "1st Floor, Shakambari Complex, Opp. Mseb Office, Durga Chowk, Akola, Maharashtra",
    "phone": "Twacha Clinic - Dr. Ashish Khandare Patil",
    "hours": null,
    "imageUrl": "https://www.bing.com/th?id=OLC.jjgn6KF0bW88qg480x360&w=92&h=112&c=8&rs=1&qlt=80&cdv=1&pid=Local"
  },
  {
    "name": "Dr Harshal Chandak",
    "address": "Basement, Nishant Tower, Mahatma Gandhi Rd, Akola, Maharashtra",
    "phone": "Dr Harshal Chandak",
    "hours": null,
    "imageUrl": "https://www.bing.com/maps/geoplat/REST/v1/Imagery/Map/RoadVibrant?ms=92,112&key=AnTcaqBi2ypp0xI-OZNi4W_ik2KhjgpqioTAtXLC8GzkMBQRMlyxvxyTnd5b73im&c=en-US&ur=in&da=n&logo=n&fmt=png&od=1&shading=hill&pp=20.706699,76.999199;dfp"
  },
  {
    "name": "Anadisiddha Clinic",
    "address": "Saptagiri Complex, Near Adcc Bank, Jawahar Squar, Akola, Maharashtra 444001",
    "phone": "Anadisiddha Clinic",
    "hours": "Closed · Opens 10:00",
    "imageUrl": "https://th.bing.com/th?id=OLC.6br9RQ1fGrXg1Q480x360&w=92&h=134&c=8&rs=1&qlt=80&cdv=1&pid=Local"
  },
  {
    "name": "Dr. Anand Krishnan k- Consultant Physician",
    "address": "Govt Medical College, Near Ashok Vatika, District Collector Office Road, Bhandaraj Bk, Akola, Maharashtr…",
    "phone": "Dr. Anand Krishnan k- Consultant Physician",
    "hours": "Closed · Opens 11:00",
    "imageUrl": "https://www.bing.com/maps/geoplat/REST/v1/Imagery/Map/RoadVibrant?ms=92,134&key=AnTcaqBi2ypp0xI-OZNi4W_ik2KhjgpqioTAtXLC8GzkMBQRMlyxvxyTnd5b73im&c=en-US&ur=in&da=n&logo=n&fmt=png&od=1&shading=hill&pp=20.702658,76.999763;dfp"
  },
  {
    "name": "Dr Srushti Piles Clinic",
    "address": "Smile Hospital, Birla Road, Near Tilak Park, Ramdaspeth, Akola, Maharashtra",
    "phone": "Dr Srushti Piles Clinic",
    "hours": null,
    "imageUrl": "https://www.bing.com/maps/geoplat/REST/v1/Imagery/Map/RoadVibrant?ms=92,112&key=AnTcaqBi2ypp0xI-OZNi4W_ik2KhjgpqioTAtXLC8GzkMBQRMlyxvxyTnd5b73im&c=en-US&ur=in&da=n&logo=n&fmt=png&od=1&shading=hill&pp=20.719645,77.008583;dfp"
  },
  {
    "name": "Dr. Aashish Panpaliya- General Physician",
    "address": "Panpaliya Clinic, Malipura Chowk, Near Tilak Road, Akola, Maharashtra 444001",
    "phone": "Dr. Aashish Panpaliya- General Physician",
    "hours": "Closed · Opens 11:00",
    "imageUrl": "https://www.bing.com/maps/geoplat/REST/v1/Imagery/Map/RoadVibrant?ms=92,134&key=AnTcaqBi2ypp0xI-OZNi4W_ik2KhjgpqioTAtXLC8GzkMBQRMlyxvxyTnd5b73im&c=en-US&ur=in&da=n&logo=n&fmt=png&od=1&shading=hill&pp=20.717566,76.99678;dfp"
  },
  {
    "name": "Ali Clinics",
    "address": "Mohammed Ali Road, Akola, Maharashtra 444001",
    "phone": "Ali Clinics",
    "hours": null,
    "imageUrl": "https://www.bing.com/maps/geoplat/REST/v1/Imagery/Map/RoadVibrant?ms=92,112&key=AnTcaqBi2ypp0xI-OZNi4W_ik2KhjgpqioTAtXLC8GzkMBQRMlyxvxyTnd5b73im&c=en-US&ur=in&da=n&logo=n&fmt=png&od=1&shading=hill&pp=20.71118,76.997925;dfp"
  },
  {
    "name": "KALE Hospital Akola",
    "address": "NEW Bhagwat Plots Behind Icon Hospital Jathar Peth Road, Akola, Maharashtra 444005",
    "phone": "KALE Hospital Akola",
    "hours": null,
    "imageUrl": "https://th.bing.com/th?id=OLC.naPsubGTTCruOw480x360&w=92&h=112&c=8&rs=1&qlt=80&cdv=1&pid=Local"
  },
  {
    "name": "Dr. Praful G Waghade- Dermatologist",
    "address": "Waghade Skin Clinic, 1St Floor, Abhinandan Building, Behind Janta Homeo College, Ram Nagar, Akola, Mah…",
    "phone": "Dr. Praful G Waghade- Dermatologist",
    "hours": "Closed · Opens 11:00",
    "imageUrl": "https://www.bing.com/maps/geoplat/REST/v1/Imagery/Map/RoadVibrant?ms=92,134&key=AnTcaqBi2ypp0xI-OZNi4W_ik2KhjgpqioTAtXLC8GzkMBQRMlyxvxyTnd5b73im&c=en-US&ur=in&da=n&logo=n&fmt=png&od=1&shading=hill&pp=20.70685,77.003555;dfp"
  },
  {
    "name": "Shyam surgical & piles care clinic",
    "address": "Harsh Sankul, Infront of RLT College, Civil Line Rd, Akola, Maharashtra",
    "phone": "Shyam surgical & piles care clinic",
    "hours": null,
    "imageUrl": "https://th.bing.com/th?id=OLC.mLFLUtzdf1E7yQ480x360&w=92&h=112&c=8&rs=1&qlt=80&cdv=1&pid=Local"
  },
  {
    "name": "Dr. K S Kondawar- General Physician in Yavatmal",
    "address": "K S Kondawar Clinic Maharashtra Bank Square, Main Road, Near Bus Stand, Wani, Maharashtra",
    "phone": "Dr. K S Kondawar- General Physician in Yavatmal",
    "hours": null,
    "imageUrl": "https://www.bing.com/maps/geoplat/REST/v1/Imagery/Map/RoadVibrant?ms=92,112&key=AnTcaqBi2ypp0xI-OZNi4W_ik2KhjgpqioTAtXLC8GzkMBQRMlyxvxyTnd5b73im&c=en-US&ur=in&da=n&logo=n&fmt=png&od=1&shading=hill&pp=20.705379,77.008911;dfp"
  },
  {
    "name": "Dr Mehul Lohana Orthopedic and Gynaecology Hospital",
    "address": "Lohana Hospital, Jatharpeth, Akola, Maharashtra",
    "phone": "Dr Mehul Lohana Orthopedic and Gynaecology Hospital",
    "hours": null,
    "imageUrl": "https://th.bing.com/th?id=OLC.VLzrqylAfOgnTw480x360&w=92&h=112&c=8&rs=1&qlt=80&cdv=1&pid=Local"
  },
  {
    "name": "Dehankar Hospital",
    "address": "Civil Line Rd, New Radhakisan Plots, Akola, Maharashtra 444001, India, Akola, Maharashtra 444001",
    "phone": "Dehankar Hospital",
    "hours": null,
    "imageUrl": "https://www.bing.com/maps/geoplat/REST/v1/Imagery/Map/RoadVibrant?ms=92,112&key=AnTcaqBi2ypp0xI-OZNi4W_ik2KhjgpqioTAtXLC8GzkMBQRMlyxvxyTnd5b73im&c=en-US&ur=in&da=n&logo=n&fmt=png&od=1&shading=hill&pp=20.714499,77.011024;dfp"
  },
  {
    "name": "Dr Ashwin Sadavarte (mbbs, Md Medicine) Care And Cure Polyclinic",
    "address": "Basement, Nishant Tower, Gandhi Road, Akola, Maharashtra, India, 444001, Akola, Madhya Pradesh 4…",
    "phone": "Dr Ashwin Sadavarte (mbbs, Md Medicine) Care And Cure Polyclinic",
    "hours": "Closed · Opens 11:00",
    "imageUrl": "https://www.bing.com/th?id=OLC.KqdPge%2b3mhJ1cA480x360&w=92&h=134&c=8&rs=1&qlt=80&cdv=1&pid=Local"
  },
  {
    "name": "Dr. Tarun Rathi",
    "address": "Near Bus Stand., Landmark, Akola, Maharashtra 444001",
    "phone": "Dr. Tarun Rathi",
    "hours": "Closed · Opens 10:00",
    "imageUrl": "https://www.bing.com/maps/geoplat/REST/v1/Imagery/Map/RoadVibrant?ms=92,134&key=AnTcaqBi2ypp0xI-OZNi4W_ik2KhjgpqioTAtXLC8GzkMBQRMlyxvxyTnd5b73im&c=en-US&ur=in&da=n&logo=n&fmt=png&od=1&shading=hill&pp=20.707714,77.002251;dfp"
  }
]