[
  {
    "name": "Dr.Abeys Clinic",
    "address": "F8MG+27P, Police Quarters Rd, Vattapally, Alappuzha, Kerala",
    "phone": "Dr.Abeys Clinic",
    "hours": null,
    "imageUrl": "https://www.bing.com/maps/geoplat/REST/v1/Imagery/Map/RoadVibrant?ms=92,112&key=AnTcaqBi2ypp0xI-OZNi4W_ik2KhjgpqioTAtXLC8GzkMBQRMlyxvxyTnd5b73im&c=en-US&ur=in&da=n&logo=n&fmt=png&od=1&shading=hill&pp=9.485545,76.327721;dfp"
  },
  {
    "name": "Dr. Hari Udayan",
    "address": "Vaishnavam House, Kaduvunkal Ward, Vallikunnam P. O, Alappuzha, Kerala",
    "phone": "Dr. Hari Udayan",
    "hours": null,
    "imageUrl": "https://www.bing.com/maps/geoplat/REST/v1/Imagery/Map/RoadVibrant?ms=92,112&key=AnTcaqBi2ypp0xI-OZNi4W_ik2KhjgpqioTAtXLC8GzkMBQRMlyxvxyTnd5b73im&c=en-US&ur=in&da=n&logo=n&fmt=png&od=1&shading=hill&pp=9.47049,76.338669;dfp"
  },
  {
    "name": "Padma Homoeo Clinic",
    "address": "Thalavady PO, Kuttanad, Kerala 689572",
    "phone": "Padma Homoeo Clinic",
    "hours": null,
    "imageUrl": "https://www.bing.com/th?id=OLC.0sfVM9MNh3mChA480x360&w=92&h=112&c=8&rs=1&qlt=80&cdv=1&pid=Local"
  },
  {
    "name": "Dr muhammed ashraf, orthopaedic surgeon, bone and joint clinic",
    "address": "St Thomas Evangelical Church Ln, Municipal Stadium Ward, Vellakkinar, Alappuzha, Kerala",
    "phone": "Dr muhammed ashraf, orthopaedic surgeon, bone and joint clinic",
    "hours": null,
    "imageUrl": "https://www.bing.com/maps/geoplat/REST/v1/Imagery/Map/RoadVibrant?ms=92,112&key=AnTcaqBi2ypp0xI-OZNi4W_ik2KhjgpqioTAtXLC8GzkMBQRMlyxvxyTnd5b73im&c=en-US&ur=in&da=n&logo=n&fmt=png&od=1&shading=hill&pp=9.489151,76.337563;dfp"
  },
  {
    "name": "Dr. Sameer's Clinic",
    "address": "F8qh+mfg, Alissery Rd, Lajnath Ward, Alappuzha, Kerala 688001, India, Alappuzha, Kerala 688001",
    "phone": "Dr. Sameer's Clinic",
    "hours": null,
    "imageUrl": "https://www.bing.com/maps/geoplat/REST/v1/Imagery/Map/RoadVibrant?ms=92,112&key=AnTcaqBi2ypp0xI-OZNi4W_ik2KhjgpqioTAtXLC8GzkMBQRMlyxvxyTnd5b73im&c=en-US&ur=in&da=n&logo=n&fmt=png&od=1&shading=hill&pp=9.490464,76.329346;dfp"
  },
  {
    "name": "Healthworld Clinic and Lab | Best Clinic",
    "address": "Cullen Rd, Sea View Ward, Alappuzha, Kerala",
    "phone": "Healthworld Clinic and Lab | Best Clinic",
    "hours": null,
    "imageUrl": "https://www.bing.com/maps/geoplat/REST/v1/Imagery/Map/RoadVibrant?ms=92,112&key=AnTcaqBi2ypp0xI-OZNi4W_ik2KhjgpqioTAtXLC8GzkMBQRMlyxvxyTnd5b73im&c=en-US&ur=in&da=n&logo=n&fmt=png&od=1&shading=hill&pp=9.497467,76.323013;dfp"
  },
  {
    "name": "Sahrudaya Hospital",
    "address": "1ST Floor, Thathampally, Alappuzha, Kerala 688013",
    "phone": "Sahrudaya Hospital",
    "hours": null,
    "imageUrl": "https://th.bing.com/th?id=OLC.9uhYlq4gECcmRg480x360&w=92&h=112&c=8&rs=1&qlt=80&cdv=1&pid=Local"
  },
  {
    "name": "DR.Jaya's Sreepadam Ayurveda Panchakarma Hospital",
    "address": "Plackudy Lane, Ambalapuzha, Kerala 688561, Alappuzha, Kerala 688561",
    "phone": "DR.Jaya's Sreepadam Ayurveda Panchakarma Hospital",
    "hours": null,
    "imageUrl": "https://th.bing.com/th?id=OLC.ncgG4bTEK67gLg480x360&w=92&h=112&c=8&rs=1&qlt=80&cdv=1&pid=Local"
  },
  {
    "name": "Dr. Kannan P | Govinda Vilasom Ayurveda Pharmacy | Ayurvedic doctor",
    "address": "Kovil Rd, Erezha, Mullakkal, Alappuzha, Kerala",
    "phone": "Dr. Kannan P | Govinda Vilasom Ayurveda Pharmacy | Ayurvedic doctor",
    "hours": null,
    "imageUrl": "https://www.bing.com/maps/geoplat/REST/v1/Imagery/Map/RoadVibrant?ms=92,112&key=AnTcaqBi2ypp0xI-OZNi4W_ik2KhjgpqioTAtXLC8GzkMBQRMlyxvxyTnd5b73im&c=en-US&ur=in&da=n&logo=n&fmt=png&od=1&shading=hill&pp=9.498131,76.34523;dfp"
  },
  {
    "name": "Sreerudra Ayurveda Multi Speciality Hospital & Research Centre",
    "address": "Kaithavana Alappuzha – 688003, Alappuzha, Kerala 688003",
    "phone": "Sreerudra Ayurveda Multi Speciality Hospital & Research Centre",
    "hours": "Open 24 hours",
    "imageUrl": "https://th.bing.com/th?id=OLC.m6Lkno9s6wqpRw480x360&w=92&h=134&c=8&rs=1&qlt=80&cdv=1&pid=Local"
  },
  {
    "name": "Mailakkal Arya Vaidyasala",
    "address": "Varanappalli, Puthuppally, Kayamkulam, Alappuzha, Kerala 690527",
    "phone": "Mailakkal Arya Vaidyasala",
    "hours": null,
    "imageUrl": "https://th.bing.com/th?id=OLC.1kmZHr8mr2RLRw480x360&w=92&h=112&c=8&rs=1&qlt=80&cdv=1&pid=Local"
  },
  {
    "name": "Arya Vaidyashala",
    "address": "Vellakinar Rd, Vellakkinar, Alappuzha, Kerala",
    "phone": "Arya Vaidyashala",
    "hours": null,
    "imageUrl": "https://www.bing.com/maps/geoplat/REST/v1/Imagery/Map/RoadVibrant?ms=92,112&key=AnTcaqBi2ypp0xI-OZNi4W_ik2KhjgpqioTAtXLC8GzkMBQRMlyxvxyTnd5b73im&c=en-US&ur=in&da=n&logo=n&fmt=png&od=1&shading=hill&pp=9.485323,76.337662;dfp"
  },
  {
    "name": "Amrutham Homeopathic speciality clinic",
    "address": "Gandhi/Swami Junction, Alappuzha - Changanassery Rd, Alappuzha, Kerala",
    "phone": "Amrutham Homeopathic speciality clinic",
    "hours": null,
    "imageUrl": "https://www.bing.com/maps/geoplat/REST/v1/Imagery/Map/RoadVibrant?ms=92,112&key=AnTcaqBi2ypp0xI-OZNi4W_ik2KhjgpqioTAtXLC8GzkMBQRMlyxvxyTnd5b73im&c=en-US&ur=in&da=n&logo=n&fmt=png&od=1&shading=hill&pp=9.470536,76.341805;dfp"
  },
  {
    "name": "Dr Mohan's Heart Centre",
    "address": "13\\99, Heart Centre, Palace Road, Chungam, Alappuzha, Kerala 688011",
    "phone": "Dr Mohan's Heart Centre",
    "hours": "Closed · Opens 15:00",
    "imageUrl": "https://www.bing.com/maps/geoplat/REST/v1/Imagery/Map/RoadVibrant?ms=92,134&key=AnTcaqBi2ypp0xI-OZNi4W_ik2KhjgpqioTAtXLC8GzkMBQRMlyxvxyTnd5b73im&c=en-US&ur=in&da=n&logo=n&fmt=png&od=1&shading=hill&pp=9.491794,76.334633;dfp"
  },
  {
    "name": "Dr. Lalu.M.C",
    "address": "MSM Dental Clinic. OPP TO Umayattukara CO Operative Bank, Alappuzha, Kerala",
    "phone": "Dr. Lalu.M.C",
    "hours": "Closed · Opens 09:30",
    "imageUrl": "https://th.bing.com/th?id=OLC.0yawXmGB%2bSaMqg480x360&w=92&h=112&c=8&rs=1&qlt=80&cdv=1&pid=Local"
  },
  {
    "name": "Illom Ayurveda Hospital",
    "address": "Ilom Ayurveda Hospital, Thanneermukkom P O, SH40, Thanneermukkom, Kerala",
    "phone": "Illom Ayurveda Hospital",
    "hours": null,
    "imageUrl": "https://www.bing.com/maps/geoplat/REST/v1/Imagery/Map/RoadVibrant?ms=92,112&key=AnTcaqBi2ypp0xI-OZNi4W_ik2KhjgpqioTAtXLC8GzkMBQRMlyxvxyTnd5b73im&c=en-US&ur=in&da=n&logo=n&fmt=png&od=1&shading=hill&pp=9.666349,76.386955;dfp"
  },
  {
    "name": "ESI Dispensary",
    "address": "R P …, Ambalappuzha-Alappuzha-Komalapuram-Pathirapally",
    "phone": "ESI Dispensary",
    "hours": null,
    "imageUrl": "https://th.bing.com/th?id=OLC.uHuks3guSG5jPA480x360&w=92&h=112&c=8&rs=1&qlt=80&cdv=1&pid=Local"
  },
  {
    "name": "Thea Skin Clinic",
    "address": "Thiruvambadi Temple, 1st Floor, 3D Square, Jn, Alappuzha, Kerala",
    "phone": "Thea Skin Clinic",
    "hours": null,
    "imageUrl": "https://th.bing.com/th?id=OLC.oQvRA43p4i8qsQ480x360&w=92&h=112&c=8&rs=1&qlt=80&cdv=1&pid=Local"
  },
  {
    "name": "Dr.Abeys Clinic",
    "address": "F8MG+27P, Police Quarters Rd, Vattapally, Alappuzha, Kerala",
    "phone": "Dr.Abeys Clinic",
    "hours": null,
    "imageUrl": "https://www.bing.com/maps/geoplat/REST/v1/Imagery/Map/RoadVibrant?ms=92,112&key=AnTcaqBi2ypp0xI-OZNi4W_ik2KhjgpqioTAtXLC8GzkMBQRMlyxvxyTnd5b73im&c=en-US&ur=in&da=n&logo=n&fmt=png&od=1&shading=hill&pp=9.485545,76.327721;dfp"
  },
  {
    "name": "Dr. Hari Udayan",
    "address": "Vaishnavam House, Kaduvunkal Ward, Vallikunnam P. O, Alappuzha, Kerala",
    "phone": "Dr. Hari Udayan",
    "hours": null,
    "imageUrl": "https://www.bing.com/maps/geoplat/REST/v1/Imagery/Map/RoadVibrant?ms=92,112&key=AnTcaqBi2ypp0xI-OZNi4W_ik2KhjgpqioTAtXLC8GzkMBQRMlyxvxyTnd5b73im&c=en-US&ur=in&da=n&logo=n&fmt=png&od=1&shading=hill&pp=9.47049,76.338669;dfp"
  }
]