[
  {
    "name": "Dr Mohsin raza",
    "address": "Near Blossom School, Muzammil Manzil, Civil Lines, Aligarh, Uttar Pradesh",
    "phone": "Dr Mohsin raza",
    "hours": null,
    "imageUrl": "https://www.bing.com/maps/geoplat/REST/v1/Imagery/Map/RoadVibrant?ms=92,112&key=AnTcaqBi2ypp0xI-OZNi4W_ik2KhjgpqioTAtXLC8GzkMBQRMlyxvxyTnd5b73im&c=en-US&ur=in&da=n&logo=n&fmt=png&od=1&shading=hill&pp=27.904585,78.088974;dfp"
  },
  {
    "name": "Dr. Satendra Saxena",
    "address": "Near KK Hospital, Kishanpur Tiraha, Ramghat Road, Aligarh, Uttar Pradesh",
    "phone": "Dr. Satendra Saxena",
    "hours": "Closed · Opens 12:00",
    "imageUrl": "https://www.bing.com/th?id=OLC.hxe5u3Z200N4lA480x360&w=92&h=134&c=8&rs=1&qlt=80&cdv=1&pid=Local"
  },
  {
    "name": "Dr. Mohd Shahid",
    "address": "District Hospital, City Point Azad Market, Aligarh, Uttar Pradesh",
    "phone": "Dr. Mohd Shahid",
    "hours": "Closed · Opens 09:30",
    "imageUrl": "https://www.bing.com/th?id=OLC.Jpf7OGPU%2fzu2Dw480x360&w=92&h=112&c=8&rs=1&qlt=80&cdv=1&pid=Local"
  },
  {
    "name": "Dr. Pawan Varshney",
    "address": "Maheshwari Complex, Aligarh, Uttar Pradesh",
    "phone": "Dr. Pawan Varshney",
    "hours": "Closed · Opens 12:00",
    "imageUrl": "https://www.bing.com/th?id=OLC.C1eaxC87%2bXS7JQ480x360&w=92&h=112&c=8&rs=1&qlt=80&cdv=1&pid=Local"
  },
  {
    "name": "Dr KD Mishra Clinic",
    "address": "Saxena Surgical Hospital, Subhash Road, Shahpada Barhasaini Bazar, Aligarh, Uttar Pradesh 202001",
    "phone": "Dr KD Mishra Clinic",
    "hours": null,
    "imageUrl": "https://www.bing.com/maps/geoplat/REST/v1/Imagery/Map/RoadVibrant?ms=92,112&key=AnTcaqBi2ypp0xI-OZNi4W_ik2KhjgpqioTAtXLC8GzkMBQRMlyxvxyTnd5b73im&c=en-US&ur=in&da=n&logo=n&fmt=png&od=1&shading=hill&pp=27.883577,78.070274;dfp"
  },
  {
    "name": "Ved Clinic",
    "address": "Jama Masjid Road, Delhi Gate, Usmanapura, Aligarh, Uttar Pradesh 202001",
    "phone": "Ved Clinic",
    "hours": "Closed · Opens 12:30",
    "imageUrl": "https://www.bing.com/maps/geoplat/REST/v1/Imagery/Map/RoadVibrant?ms=92,134&key=AnTcaqBi2ypp0xI-OZNi4W_ik2KhjgpqioTAtXLC8GzkMBQRMlyxvxyTnd5b73im&c=en-US&ur=in&da=n&logo=n&fmt=png&od=1&shading=hill&pp=27.882296,78.060745;dfp"
  },
  {
    "name": "DR. Sanjay Singhal, M.D.",
    "address": "V3V8+M7X, Aligarh, Madhya Pradesh 202001",
    "phone": "DR. Sanjay Singhal, M.D.",
    "hours": "Closed · Opens 11:00",
    "imageUrl": "https://th.bing.com/th?id=OLC.3SiogIDGEVtyfw480x360&w=92&h=134&c=8&rs=1&qlt=80&cdv=1&pid=Local"
  },
  {
    "name": "Dr. Kohli Homeopathic Clinic",
    "address": "Shop no.7, Kazmi Complex Market, Near Telephone Exchange, Purkaji, Uttar Pradesh",
    "phone": "Dr. Kohli Homeopathic Clinic",
    "hours": null,
    "imageUrl": "https://th.bing.com/th?id=OLC.bd1%2bYGETkVbaow480x360&w=92&h=112&c=8&rs=1&qlt=80&cdv=1&pid=Local"
  },
  {
    "name": "Dr. Anoop Kumar",
    "address": "Near Hotel Abha Regency, Canara Bank Complex, Ramghat Road, Aligarh. U.P. 202001, Aligarh, Uttar Pra…",
    "phone": "Dr. Anoop Kumar",
    "hours": "Closed · Opens 10:00",
    "imageUrl": "https://th.bing.com/th?id=OLC.IeIezxgAVBGxZw480x360&w=92&h=112&c=8&rs=1&qlt=80&cdv=1&pid=Local"
  },
  {
    "name": "Dr Rajeev Singhal",
    "address": "Ramghat Road, Aligarh, Aligarh 202001",
    "phone": "Dr Rajeev Singhal",
    "hours": null,
    "imageUrl": "https://www.bing.com/maps/geoplat/REST/v1/Imagery/Map/RoadVibrant?ms=92,112&key=AnTcaqBi2ypp0xI-OZNi4W_ik2KhjgpqioTAtXLC8GzkMBQRMlyxvxyTnd5b73im&c=en-US&ur=in&da=n&logo=n&fmt=png&od=1&shading=hill&pp=27.88917,78.080971;dfp"
  },
  {
    "name": "Dr. Mukhtar Ahmad, Fatima Advanced Homoeo Clinic, Rasalganj Aligarh U.P.",
    "address": "Opp. Malkan Singh Distt. Hospital, City Point Market, Rasalganj, Aligarh, Uttar Pradesh 202001",
    "phone": "Dr. Mukhtar Ahmad, Fatima Advanced Homoeo Clinic, Rasalganj Aligarh U.P.",
    "hours": "Closed · Opens 17:00",
    "imageUrl": "https://th.bing.com/th?id=OLC.nAfkCJ3Ty0ezqQ480x360&w=92&h=134&c=8&rs=1&qlt=80&cdv=1&pid=Local"
  },
  {
    "name": "Maheshwari Clinic",
    "address": "Sri Estate Complex, Opposite Sports Stadium, Ramghat Road, Aligarh, Uttar Pradesh",
    "phone": "Maheshwari Clinic",
    "hours": "Closed · Opens 10:00",
    "imageUrl": "https://th.bing.com/th?id=OLC.PCrlv6BWxxtPcw480x360&w=92&h=112&c=8&rs=1&qlt=80&cdv=1&pid=Local"
  },
  {
    "name": "Dr N B Mathur Clinic",
    "address": "Central Bank Of India, Subhash Road, Railway Road, Aligarh, Uttar Pradesh 202001",
    "phone": "Dr N B Mathur Clinic",
    "hours": null,
    "imageUrl": "https://www.bing.com/maps/geoplat/REST/v1/Imagery/Map/RoadVibrant?ms=92,112&key=AnTcaqBi2ypp0xI-OZNi4W_ik2KhjgpqioTAtXLC8GzkMBQRMlyxvxyTnd5b73im&c=en-US&ur=in&da=n&logo=n&fmt=png&od=1&shading=hill&pp=27.883976,78.070305;dfp"
  },
  {
    "name": "Dr Ak Singh Clinic",
    "address": "Sighal Eye Hospital, Ramghat Road, Begpur Chandia Compound Area, Aligarh, Uttar Pradesh 202001",
    "phone": "Dr Ak Singh Clinic",
    "hours": null,
    "imageUrl": "https://www.bing.com/maps/geoplat/REST/v1/Imagery/Map/RoadVibrant?ms=92,112&key=AnTcaqBi2ypp0xI-OZNi4W_ik2KhjgpqioTAtXLC8GzkMBQRMlyxvxyTnd5b73im&c=en-US&ur=in&da=n&logo=n&fmt=png&od=1&shading=hill&pp=27.890409,78.082436;dfp"
  },
  {
    "name": "Dr Naresh Sharma",
    "address": "Bank Of India, Ramghat Road, Sangam Vihar Niranjan Puri, Aligarh, Uttar Pradesh 202001",
    "phone": "Dr Naresh Sharma",
    "hours": null,
    "imageUrl": "https://www.bing.com/maps/geoplat/REST/v1/Imagery/Map/RoadVibrant?ms=92,112&key=AnTcaqBi2ypp0xI-OZNi4W_ik2KhjgpqioTAtXLC8GzkMBQRMlyxvxyTnd5b73im&c=en-US&ur=in&da=n&logo=n&fmt=png&od=1&shading=hill&pp=27.892422,78.085167;dfp"
  },
  {
    "name": "Dr. Mohd Ashraf Alam",
    "address": "Haji Majid Market, Nagla Patwari, Aligarh, Uttar Pradesh",
    "phone": "Dr. Mohd Ashraf Alam",
    "hours": "Closed · Opens Sep 28 at 10:00",
    "imageUrl": "https://www.bing.com/maps/geoplat/REST/v1/Imagery/Map/RoadVibrant?ms=92,112&key=AnTcaqBi2ypp0xI-OZNi4W_ik2KhjgpqioTAtXLC8GzkMBQRMlyxvxyTnd5b73im&c=en-US&ur=in&da=n&logo=n&fmt=png&od=1&shading=hill&pp=27.930815,78.067085;dfp"
  },
  {
    "name": "Dr Rahul Maheshwari",
    "address": "3/47, Laxmi Bai Marg, Aligarh 202001",
    "phone": "Dr Rahul Maheshwari",
    "hours": null,
    "imageUrl": "https://www.bing.com/maps/geoplat/REST/v1/Imagery/Map/RoadVibrant?ms=92,112&key=AnTcaqBi2ypp0xI-OZNi4W_ik2KhjgpqioTAtXLC8GzkMBQRMlyxvxyTnd5b73im&c=en-US&ur=in&da=n&logo=n&fmt=png&od=1&shading=hill&pp=27.896267,78.089203;clcp"
  },
  {
    "name": "Dr Anjali Gupta Clinic",
    "address": "Bank Of Baroda, Gt Road, Barahdwari Raghuvir Puri, Aligarh, Uttar Pradesh 202001",
    "phone": "Dr Anjali Gupta Clinic",
    "hours": null,
    "imageUrl": "https://www.bing.com/maps/geoplat/REST/v1/Imagery/Map/RoadVibrant?ms=92,112&key=AnTcaqBi2ypp0xI-OZNi4W_ik2KhjgpqioTAtXLC8GzkMBQRMlyxvxyTnd5b73im&c=en-US&ur=in&da=n&logo=n&fmt=png&od=1&shading=hill&pp=27.88147,78.076042;dfp"
  },
  {
    "name": "Dr Mohsin raza",
    "address": "Near Blossom School, Muzammil Manzil, Civil Lines, Aligarh, Uttar Pradesh",
    "phone": "Dr Mohsin raza",
    "hours": null,
    "imageUrl": "https://www.bing.com/maps/geoplat/REST/v1/Imagery/Map/RoadVibrant?ms=92,112&key=AnTcaqBi2ypp0xI-OZNi4W_ik2KhjgpqioTAtXLC8GzkMBQRMlyxvxyTnd5b73im&c=en-US&ur=in&da=n&logo=n&fmt=png&od=1&shading=hill&pp=27.904585,78.088974;dfp"
  },
  {
    "name": "Dr. Satendra Saxena",
    "address": "Near KK Hospital, Kishanpur Tiraha, Ramghat Road, Aligarh, Uttar Pradesh",
    "phone": "Dr. Satendra Saxena",
    "hours": "Closed · Opens 12:00",
    "imageUrl": "https://www.bing.com/th?id=OLC.hxe5u3Z200N4lA480x360&w=92&h=134&c=8&rs=1&qlt=80&cdv=1&pid=Local"
  }
]