[
  {
    "name": "Dr Batra's Positive Health Clinic",
    "address": "Second Floor. Kamdhenu Building. Corner Of Elgin And Cooper Road, Allahabad, Allahabad 211001",
    "phone": "Dr Batra's Positive Health Clinic",
    "hours": null,
    "imageUrl": "https://www.bing.com/th?id=OLC.NhDYZdAzu%2bQnVQ480x360&w=92&h=112&c=8&rs=1&qlt=80&cdv=1&pid=Local"
  },
  {
    "name": "Nigam Clinic",
    "address": "Nigam Chauraha, Allahabad, Uttar Pradesh 211002",
    "phone": "Nigam Clinic",
    "hours": null,
    "imageUrl": "https://www.bing.com/th?id=OLC.TibUtMS9vL6htg480x360&w=92&h=112&c=8&rs=1&qlt=80&cdv=1&pid=Local"
  },
  {
    "name": "Nalni Health Care/ Best Orthopedic Surgeon/Best Pediatrician in Allahabad (Child Specialist)/Best Pathol…",
    "address": "55/1/23, Kamla Nehru Rd, Near Nalni Photo State, Manmohan Park, Old Katra, Prayagraj, Uttar Pradesh",
    "phone": "Nalni Health Care/ Best Orthopedic Surgeon/Best Pediatrician in Allahabad (Child Specialist)/Best Pathol…",
    "hours": null,
    "imageUrl": "https://www.bing.com/th?id=OLC.N7Cl2FtzTo3c2g480x360&w=92&h=112&c=8&rs=1&qlt=80&cdv=1&pid=Local"
  },
  {
    "name": "Dr. Sudhir Kumar Singh",
    "address": "Shop No.6, Seva Samiti Market, Rambagh, Landmark: Front of Rambagh Railway Station, Allahabad, Uttar Pr…",
    "phone": "Dr. Sudhir Kumar Singh",
    "hours": "Closed · Opens 10:00",
    "imageUrl": "https://www.bing.com/th?id=OLC.zpjl4R2jroDyzw480x360&w=92&h=112&c=8&rs=1&qlt=80&cdv=1&pid=Local"
  },
  {
    "name": "Dr Prashant Tripathi",
    "address": "Nazreth Hospital, Allahabad, Uttar Pradesh 211002",
    "phone": "Dr Prashant Tripathi",
    "hours": null,
    "imageUrl": "https://www.bing.com/maps/geoplat/REST/v1/Imagery/Map/RoadVibrant?ms=92,112&key=AnTcaqBi2ypp0xI-OZNi4W_ik2KhjgpqioTAtXLC8GzkMBQRMlyxvxyTnd5b73im&c=en-US&ur=in&da=n&logo=n&fmt=png&od=1&shading=hill&pp=25.477901,81.849968;dfp"
  },
  {
    "name": "Shuddhi Clinic Prayagraj",
    "address": "32/54, Doctor Lohia Road, Near GHS School, Civil Lines, Prayagraj, Uttar Pradesh 211001",
    "phone": "Shuddhi Clinic Prayagraj",
    "hours": "Closed · Opens 09:00",
    "imageUrl": "https://www.bing.com/th?id=OLC.gJg6gk3OkMfyCA480x360&w=92&h=134&c=8&rs=1&qlt=80&cdv=1&pid=Local"
  },
  {
    "name": "Dr. Shekhar Clinic",
    "address": "Patel Chauraha, Shiv Nagar, Allahpur, Prayagraj, Allahabad, Uttar Pradesh",
    "phone": "Dr. Shekhar Clinic",
    "hours": null,
    "imageUrl": "https://www.bing.com/maps/geoplat/REST/v1/Imagery/Map/RoadVibrant?ms=92,112&key=AnTcaqBi2ypp0xI-OZNi4W_ik2KhjgpqioTAtXLC8GzkMBQRMlyxvxyTnd5b73im&c=en-US&ur=in&da=n&logo=n&fmt=png&od=1&shading=hill&pp=25.461443,81.842163;dfp"
  },
  {
    "name": "Dr. Sushil Kumar Mishra",
    "address": "109/3, Jawahar Lal Nehru Road, George Town, Landmark: Idbi Bank, Allahabad 211002",
    "phone": "Dr. Sushil Kumar Mishra",
    "hours": "Closed · Opens 10:00",
    "imageUrl": "https://th.bing.com/th?id=OLC.4jPbKNxGbZxlsA480x360&w=92&h=134&c=8&rs=1&qlt=80&cdv=1&pid=Local"
  },
  {
    "name": "Dr. Om Shankar Srivastava",
    "address": "262/195 Tula Ram Bagh, Allahabad, Uttar Pradesh, Uttar Pradesh 211006",
    "phone": "Dr. Om Shankar Srivastava",
    "hours": null,
    "imageUrl": "https://th.bing.com/th?id=OLC.9Op6M7ZPSt%2fc7Q480x360&w=92&h=112&c=8&rs=1&qlt=80&cdv=1&pid=Local"
  },
  {
    "name": "Dr. Peeyush Chandra",
    "address": "19 A, LAL Bahadur Shastri Marg, Elgin Road, Prayagraj, Uttar Pradesh 211001",
    "phone": "Dr. Peeyush Chandra",
    "hours": "Closed · Opens 10:00",
    "imageUrl": "https://www.bing.com/maps/geoplat/REST/v1/Imagery/Map/RoadVibrant?ms=92,112&key=AnTcaqBi2ypp0xI-OZNi4W_ik2KhjgpqioTAtXLC8GzkMBQRMlyxvxyTnd5b73im&c=en-US&ur=in&da=n&logo=n&fmt=png&od=1&shading=hill&pp=25.452789,81.835411;dfp"
  },
  {
    "name": "Dr Kesarwani Homoeo Clinic and Research Center",
    "address": "893/1325, Homeopathic Bhawan, Arya Kanya Road, Mutthiganj, Allahabad, Uttar Pradesh, Uttar Pradesh 21…",
    "phone": "Dr Kesarwani Homoeo Clinic and Research Center",
    "hours": null,
    "imageUrl": "https://www.bing.com/maps/geoplat/REST/v1/Imagery/Map/RoadVibrant?ms=92,112&key=AnTcaqBi2ypp0xI-OZNi4W_ik2KhjgpqioTAtXLC8GzkMBQRMlyxvxyTnd5b73im&c=en-US&ur=in&da=n&logo=n&fmt=png&od=1&shading=hill&pp=25.43309,81.84623;dfp"
  },
  {
    "name": "Dr. Mohammed Younus",
    "address": "A44, GTB Nagar, Wasiyabad, Kareli, Allahabad, Uttar Pradesh",
    "phone": "Dr. Mohammed Younus",
    "hours": "Closed · Opens 10:00",
    "imageUrl": "https://www.bing.com/maps/geoplat/REST/v1/Imagery/Map/RoadVibrant?ms=92,112&key=AnTcaqBi2ypp0xI-OZNi4W_ik2KhjgpqioTAtXLC8GzkMBQRMlyxvxyTnd5b73im&c=en-US&ur=in&da=n&logo=n&fmt=png&od=1&shading=hill&pp=25.42362,81.821007;dsp"
  },
  {
    "name": "Saraswati Heart Care & Multi Speciality Hospital",
    "address": "Plot No 2 & 3, C Y Chintamani Road, Darbhanga Colony, Allahabad, Uttar Pradesh 211002",
    "phone": "Saraswati Heart Care & Multi Speciality Hospital",
    "hours": null,
    "imageUrl": "https://th.bing.com/th?id=OLC.LsBLs75GEmrUGw480x360&w=92&h=112&c=8&rs=1&qlt=80&cdv=1&pid=Local"
  },
  {
    "name": "Dr. Shahid Siddiqui",
    "address": "Dr Muzaffar Nasim Road, Sbi Bank, Kareli, Allahabad, Uttar Pradesh 211016",
    "phone": "Dr. Shahid Siddiqui",
    "hours": "Closed · Opens 18:00",
    "imageUrl": "https://www.bing.com/maps/geoplat/REST/v1/Imagery/Map/RoadVibrant?ms=92,112&key=AnTcaqBi2ypp0xI-OZNi4W_ik2KhjgpqioTAtXLC8GzkMBQRMlyxvxyTnd5b73im&c=en-US&ur=in&da=n&logo=n&fmt=png&od=1&shading=hill&pp=25.425915,81.817291;dfp"
  },
  {
    "name": "Dr. Ajat Shatru Tiwari",
    "address": "434, Mumfordganj, Allahabad, Uttar Pradesh",
    "phone": "Dr. Ajat Shatru Tiwari",
    "hours": null,
    "imageUrl": "https://th.bing.com/th?id=OLC.ljnDE94ZBrKB1A480x360&w=92&h=112&c=8&rs=1&qlt=80&cdv=1&pid=Local"
  },
  {
    "name": "Dr. Vivek Kesharwani",
    "address": "291/8, Allahabad, Uttar Pradesh 211003",
    "phone": "Dr. Vivek Kesharwani",
    "hours": null,
    "imageUrl": "https://th.bing.com/th?id=OLC.MKSQLD9NSdW5%2bQ480x360&w=92&h=112&c=8&rs=1&qlt=80&cdv=1&pid=Local"
  },
  {
    "name": "Dr. Prashant Tripathi",
    "address": "13/A, Kamla Nehru Road, Allahabad, Uttar Pradesh",
    "phone": "Dr. Prashant Tripathi",
    "hours": "Closed · Opens 10:00",
    "imageUrl": "https://th.bing.com/th?id=OLC.JYjxNGuR8%2bmiTQ480x360&w=92&h=112&c=8&rs=1&qlt=80&cdv=1&pid=Local"
  },
  {
    "name": "Dr. Ambuj Tripathi",
    "address": "Matiyara Road, Labour Chowk, Kidwai Nagar Allahapur Allahabad, Allahabad, Uttar Pradesh 211006",
    "phone": "Dr. Ambuj Tripathi",
    "hours": "Closed · Opens 11:00",
    "imageUrl": "https://th.bing.com/th?id=OLC.BTqHOeW1yptDig480x360&w=92&h=112&c=8&rs=1&qlt=80&cdv=1&pid=Local"
  },
  {
    "name": "Dr Batra's Positive Health Clinic",
    "address": "Second Floor. Kamdhenu Building. Corner Of Elgin And Cooper Road, Allahabad, Allahabad 211001",
    "phone": "Dr Batra's Positive Health Clinic",
    "hours": null,
    "imageUrl": "https://www.bing.com/th?id=OLC.NhDYZdAzu%2bQnVQ480x360&w=92&h=112&c=8&rs=1&qlt=80&cdv=1&pid=Local"
  },
  {
    "name": "Nigam Clinic",
    "address": "Nigam Chauraha, Allahabad, Uttar Pradesh 211002",
    "phone": "Nigam Clinic",
    "hours": null,
    "imageUrl": "https://www.bing.com/th?id=OLC.TibUtMS9vL6htg480x360&w=92&h=112&c=8&rs=1&qlt=80&cdv=1&pid=Local"
  }
]