[
  {
    "name": "Dr. Manish Kumar Saini | General Surgeon",
    "address": "42, Krishna Colony Near Ambedkar Circle, Alwar, Rajasthan, India, 301001, Alwar, Madhya Pradesh 301001",
    "phone": "Dr. Manish Kumar Saini | General Surgeon",
    "hours": "Closed · Opens 10:00",
    "imageUrl": "https://www.bing.com/th?id=OLC.z27QSURDfIvYIg480x360&w=92&h=134&c=8&rs=1&qlt=80&cdv=1&pid=Local"
  },
  {
    "name": "Dr. Khushbu Goel",
    "address": "NH-8, Neemrana, Alwar, Rajasthan",
    "phone": "Dr. Khushbu Goel",
    "hours": "Closed · Opens Sep 29 at 09:00",
    "imageUrl": "https://www.bing.com/maps/geoplat/REST/v1/Imagery/Map/RoadVibrant?ms=92,112&key=AnTcaqBi2ypp0xI-OZNi4W_ik2KhjgpqioTAtXLC8GzkMBQRMlyxvxyTnd5b73im&c=en-US&ur=in&da=n&logo=n&fmt=png&od=1&shading=hill&pp=27.56377,76.613167;dfp"
  },
  {
    "name": "Dr. Dinesh Yadav",
    "address": "Near, 59, Scheme 1 Extension, Ambedkar Cir, Alwar, Rajasthan",
    "phone": "Dr. Dinesh Yadav",
    "hours": null,
    "imageUrl": "https://www.bing.com/maps/geoplat/REST/v1/Imagery/Map/RoadVibrant?ms=92,112&key=AnTcaqBi2ypp0xI-OZNi4W_ik2KhjgpqioTAtXLC8GzkMBQRMlyxvxyTnd5b73im&c=en-US&ur=in&da=n&logo=n&fmt=png&od=1&shading=hill&pp=27.574526,76.614792;dfp"
  },
  {
    "name": "Dr. Anoop Aggarwal",
    "address": "Hope Circle, Near Punjab National Bank, Kabir Colony, Alwar, Rajasthan",
    "phone": "Dr. Anoop Aggarwal",
    "hours": null,
    "imageUrl": "https://www.bing.com/maps/geoplat/REST/v1/Imagery/Map/RoadVibrant?ms=92,112&key=AnTcaqBi2ypp0xI-OZNi4W_ik2KhjgpqioTAtXLC8GzkMBQRMlyxvxyTnd5b73im&c=en-US&ur=in&da=n&logo=n&fmt=png&od=1&shading=hill&pp=27.560942,76.604073;dfp"
  },
  {
    "name": "Dr S D Sharma",
    "address": "1/1, Vivkanand Nagar, Alwar, Rajasthan, Rajasthan 301001",
    "phone": "Dr S D Sharma",
    "hours": "Closed · Opens 09:00",
    "imageUrl": "https://www.bing.com/th?id=OLC.E7gqK8PZyAtedQ480x360&w=92&h=134&c=8&rs=1&qlt=80&cdv=1&pid=Local"
  },
  {
    "name": "Dr. Shikha Bansal",
    "address": "297, Near Tijkinchoowki, Arya Nagar Road, Arya Nagar, Alwar, Rajasthan 301001",
    "phone": "Dr. Shikha Bansal",
    "hours": "Closed · Opens 09:00",
    "imageUrl": "https://www.bing.com/maps/geoplat/REST/v1/Imagery/Map/RoadVibrant?ms=92,134&key=AnTcaqBi2ypp0xI-OZNi4W_ik2KhjgpqioTAtXLC8GzkMBQRMlyxvxyTnd5b73im&c=en-US&ur=in&da=n&logo=n&fmt=png&od=1&shading=hill&pp=27.571768,76.609825;dfp"
  },
  {
    "name": "Dr N K Jain",
    "address": "48, Near Hari Baba Mandir, Arya Nagar, Alwar, Rajasthan",
    "phone": "Dr N K Jain",
    "hours": null,
    "imageUrl": "https://www.bing.com/maps/geoplat/REST/v1/Imagery/Map/RoadVibrant?ms=92,112&key=AnTcaqBi2ypp0xI-OZNi4W_ik2KhjgpqioTAtXLC8GzkMBQRMlyxvxyTnd5b73im&c=en-US&ur=in&da=n&logo=n&fmt=png&od=1&shading=hill&pp=27.575357,76.61467;dfp"
  },
  {
    "name": "Dr. J.S.Sharma Clinic",
    "address": "Manumarag, Housingboardkepiche, Nearbusstand, Alwar, Rajasthan 301001, Alwar, Rajasthan 301001",
    "phone": "Dr. J.S.Sharma Clinic",
    "hours": null,
    "imageUrl": "https://th.bing.com/th?id=OLC.1lAOLq09wJh4Dg480x360&w=92&h=112&c=8&rs=1&qlt=80&cdv=1&pid=Local"
  },
  {
    "name": "Udaan Clinic",
    "address": "77, Scheme No. 02, Aerodrome Road, Alwar, Rajasthan 301001",
    "phone": "Udaan Clinic",
    "hours": "Closed · Opens 09:00",
    "imageUrl": "https://www.bing.com/maps/geoplat/REST/v1/Imagery/Map/RoadVibrant?ms=92,134&key=AnTcaqBi2ypp0xI-OZNi4W_ik2KhjgpqioTAtXLC8GzkMBQRMlyxvxyTnd5b73im&c=en-US&ur=in&da=n&logo=n&fmt=png&od=1&shading=hill&pp=27.572159,76.614349;dfp"
  },
  {
    "name": "Dr. Swarupananda Sarkar",
    "address": "Baidhyanath Clinic, Khudanpuri Road, Dayanand Nagar, Old Delhi Road, Alwar, Rajasthan",
    "phone": "Dr. Swarupananda Sarkar",
    "hours": "Closed · Opens 09:00",
    "imageUrl": "https://th.bing.com/th?id=OLC.FGHyC33F5XhX6Q480x360&w=92&h=112&c=8&rs=1&qlt=80&cdv=1&pid=Local"
  },
  {
    "name": "Dr.Pratul Jain - Joint replacement surgeon ALWAR OPD",
    "address": "Physio+ Physiotherapy Clinic, Ambedkar Cir, Opposite Bandhan Bank, Arya Nagar, Alwar, Rajasthan",
    "phone": "Dr.Pratul Jain - Joint replacement surgeon ALWAR OPD",
    "hours": null,
    "imageUrl": "https://www.bing.com/maps/geoplat/REST/v1/Imagery/Map/RoadVibrant?ms=92,112&key=AnTcaqBi2ypp0xI-OZNi4W_ik2KhjgpqioTAtXLC8GzkMBQRMlyxvxyTnd5b73im&c=en-US&ur=in&da=n&logo=n&fmt=png&od=1&shading=hill&pp=27.571638,76.613228;dfp"
  },
  {
    "name": "Dr. Manish Jain",
    "address": "187, Subhash Nagar, Alwar, Rajasthan",
    "phone": "Dr. Manish Jain",
    "hours": "Closed · Opens 17:30",
    "imageUrl": "https://www.bing.com/maps/geoplat/REST/v1/Imagery/Map/RoadVibrant?ms=92,112&key=AnTcaqBi2ypp0xI-OZNi4W_ik2KhjgpqioTAtXLC8GzkMBQRMlyxvxyTnd5b73im&c=en-US&ur=in&da=n&logo=n&fmt=png&od=1&shading=hill&pp=27.567234,76.62487;dfp"
  },
  {
    "name": "Dr Batra's Homeopathy",
    "address": "1st Floor, Saroj Tower, Bhagat Singh Circle, Alwar, Rajasthan 301001",
    "phone": "Dr Batra's Homeopathy",
    "hours": "Closed · Opens 11:00",
    "imageUrl": "https://th.bing.com/th?id=OLC.yZk4HcDh6Knfng480x360&w=92&h=134&c=8&rs=1&qlt=80&cdv=1&pid=Local"
  },
  {
    "name": "Dr. Kishore Dudani",
    "address": "108, Basant Vihar, Alwar, Rajasthan 301001, India, Alwar, Rajasthan",
    "phone": "Dr. Kishore Dudani",
    "hours": "Closed · Opens Sep 28 at 17:00",
    "imageUrl": "https://www.bing.com/maps/geoplat/REST/v1/Imagery/Map/RoadVibrant?ms=92,134&key=AnTcaqBi2ypp0xI-OZNi4W_ik2KhjgpqioTAtXLC8GzkMBQRMlyxvxyTnd5b73im&c=en-US&ur=in&da=n&logo=n&fmt=png&od=1&shading=hill&pp=27.573132,76.611938;dfp"
  },
  {
    "name": "Dr.kuntal's Homoeopathic Clinic",
    "address": "483 Scheme No.2 Alwar Rajasthan, Alwar, Rajasthan, Rajasthan 301001",
    "phone": "Dr.kuntal's Homoeopathic Clinic",
    "hours": null,
    "imageUrl": "https://th.bing.com/th?id=OLC.qJF8vAWoCxxMUg480x360&w=92&h=112&c=8&rs=1&qlt=80&cdv=1&pid=Local"
  },
  {
    "name": "Dr.kathuria allergy & general clinic",
    "address": "5/2Aravali Vihar, SWB, Alwar, Rajasthan",
    "phone": "Dr.kathuria allergy & general clinic",
    "hours": null,
    "imageUrl": "https://www.bing.com/maps/geoplat/REST/v1/Imagery/Map/RoadVibrant?ms=92,112&key=AnTcaqBi2ypp0xI-OZNi4W_ik2KhjgpqioTAtXLC8GzkMBQRMlyxvxyTnd5b73im&c=en-US&ur=in&da=n&logo=n&fmt=png&od=1&shading=hill&pp=27.544514,76.594254;dfp"
  },
  {
    "name": "Dr. Urvashi Goyal Skin Clinic",
    "address": "Osho Galleria, Vijay Mandir Rd, Alwar, Rajasthan 301001, India, Alwar, Rajasthan 301001",
    "phone": "Dr. Urvashi Goyal Skin Clinic",
    "hours": null,
    "imageUrl": "https://th.bing.com/th?id=OLC.lgAbQlfMblKuIQ480x360&w=92&h=112&c=8&rs=1&qlt=80&cdv=1&pid=Local"
  },
  {
    "name": "Saaol alwar",
    "address": "NEB Housing Colony, Alwar, Rajasthan 301001",
    "phone": "Saaol alwar",
    "hours": null,
    "imageUrl": "https://th.bing.com/th?id=OLC.HrXDN0%2fY%2bgm65g480x360&w=92&h=112&c=8&rs=1&qlt=80&cdv=1&pid=Local"
  },
  {
    "name": "Dr. Manish Kumar Saini | General Surgeon",
    "address": "42, Krishna Colony Near Ambedkar Circle, Alwar, Rajasthan, India, 301001, Alwar, Madhya Pradesh 301001",
    "phone": "Dr. Manish Kumar Saini | General Surgeon",
    "hours": "Closed · Opens 10:00",
    "imageUrl": "https://www.bing.com/th?id=OLC.z27QSURDfIvYIg480x360&w=92&h=134&c=8&rs=1&qlt=80&cdv=1&pid=Local"
  },
  {
    "name": "Dr. Khushbu Goel",
    "address": "NH-8, Neemrana, Alwar, Rajasthan",
    "phone": "Dr. Khushbu Goel",
    "hours": "Closed · Opens Sep 29 at 09:00",
    "imageUrl": "https://www.bing.com/maps/geoplat/REST/v1/Imagery/Map/RoadVibrant?ms=92,112&key=AnTcaqBi2ypp0xI-OZNi4W_ik2KhjgpqioTAtXLC8GzkMBQRMlyxvxyTnd5b73im&c=en-US&ur=in&da=n&logo=n&fmt=png&od=1&shading=hill&pp=27.56377,76.613167;dfp"
  }
]