[
  {
    "name": "Dr.Nagi clinic",
    "address": "Rai Market, Ambala Cantt, Shop No.128, Ambala, Haryana, Haryana 133001",
    "phone": "Dr.Nagi clinic",
    "hours": "Closed · Opens 10:00",
    "imageUrl": "https://www.bing.com/maps/geoplat/REST/v1/Imagery/Map/RoadVibrant?ms=92,134&key=AnTcaqBi2ypp0xI-OZNi4W_ik2KhjgpqioTAtXLC8GzkMBQRMlyxvxyTnd5b73im&c=en-US&ur=in&da=n&logo=n&fmt=png&od=1&shading=hill&pp=30.349215,76.837318;dfp"
  },
  {
    "name": "Dr Sudhir Gupta",
    "address": "Jagadhri Road, Ambala, Haryana 133001",
    "phone": "Dr Sudhir Gupta",
    "hours": null,
    "imageUrl": "https://www.bing.com/maps/geoplat/REST/v1/Imagery/Map/RoadVibrant?ms=92,112&key=AnTcaqBi2ypp0xI-OZNi4W_ik2KhjgpqioTAtXLC8GzkMBQRMlyxvxyTnd5b73im&c=en-US&ur=in&da=n&logo=n&fmt=png&od=1&shading=hill&pp=30.361916,76.848076;dfp"
  },
  {
    "name": "Dr. Sudhanshu Nandra",
    "address": "Punjabi Mohalla, Sadar Bazar, Ambala Sadar, Ambala, Haryana",
    "phone": "Dr. Sudhanshu Nandra",
    "hours": "Closed · Opens 10:30",
    "imageUrl": "https://www.bing.com/th?id=OLC.S8rriwmeL8%2bCUQ480x360&w=92&h=134&c=8&rs=1&qlt=80&cdv=1&pid=Local"
  },
  {
    "name": "Dr Om Prakash Singla",
    "address": "Nicholson Road, Ambala, Haryana 133001",
    "phone": "Dr Om Prakash Singla",
    "hours": null,
    "imageUrl": "https://www.bing.com/maps/geoplat/REST/v1/Imagery/Map/RoadVibrant?ms=92,112&key=AnTcaqBi2ypp0xI-OZNi4W_ik2KhjgpqioTAtXLC8GzkMBQRMlyxvxyTnd5b73im&c=en-US&ur=in&da=n&logo=n&fmt=png&od=1&shading=hill&pp=30.337564,76.839493;dfp"
  },
  {
    "name": "Dr. Charu Sharma",
    "address": "7, New Kailash Nagar Behind Gol Kothi Model Town Ambala City, Ambala 133001",
    "phone": "Dr. Charu Sharma",
    "hours": "Closed · Opens 11:00",
    "imageUrl": "https://www.bing.com/th?id=OLC.nHKLt4JoyXrIpQ480x360&w=92&h=112&c=8&rs=1&qlt=80&cdv=1&pid=Local"
  },
  {
    "name": "Dr. Ram Sarup Sharma Clinic",
    "address": "No. 5368/10, 2 Cross Road Ambala, Haryana - 133001(India), Ambala, Haryana 133001",
    "phone": "Dr. Ram Sarup Sharma Clinic",
    "hours": null,
    "imageUrl": "https://www.bing.com/maps/geoplat/REST/v1/Imagery/Map/RoadVibrant?ms=92,112&key=AnTcaqBi2ypp0xI-OZNi4W_ik2KhjgpqioTAtXLC8GzkMBQRMlyxvxyTnd5b73im&c=en-US&ur=in&da=n&logo=n&fmt=png&od=1&shading=hill&pp=30.34132,76.842979;dfp"
  },
  {
    "name": "Duseja Clinic",
    "address": "2804, Cross Rd 12, Mochi Mandi, Sadar Bazar, Ambala Sadar, Haryana",
    "phone": "Duseja Clinic",
    "hours": null,
    "imageUrl": "https://www.bing.com/maps/geoplat/REST/v1/Imagery/Map/RoadVibrant?ms=92,112&key=AnTcaqBi2ypp0xI-OZNi4W_ik2KhjgpqioTAtXLC8GzkMBQRMlyxvxyTnd5b73im&c=en-US&ur=in&da=n&logo=n&fmt=png&od=1&shading=hill&pp=30.337198,76.833191;dfp"
  },
  {
    "name": "Dr. Varun Singla",
    "address": "Hospital Rd, Chain Mandi, Ambala, Haryana",
    "phone": "Dr. Varun Singla",
    "hours": "Closed · Opens 16:00",
    "imageUrl": "https://th.bing.com/th?id=OLC.Tn7nZPEZzM44sQ480x360&w=92&h=112&c=8&rs=1&qlt=80&cdv=1&pid=Local"
  },
  {
    "name": "Dr. Nanak Chand Wadhawan Memorial Hospital, Mohra",
    "address": "S.k. Wadhawan, 1, Tribune Colony, Ambala Cantt, Ambala Cantonment, Haryana, Haryana 133001",
    "phone": "Dr. Nanak Chand Wadhawan Memorial Hospital, Mohra",
    "hours": null,
    "imageUrl": "https://th.bing.com/th?id=OLC.6EPyhqv7wdgIBA480x360&w=92&h=112&c=8&rs=1&qlt=80&cdv=1&pid=Local"
  },
  {
    "name": "Ambala Medical Centre",
    "address": "35, Sunder Nagar, Ambala City, Ambala, Haryana, Null, Null 134003",
    "phone": "Ambala Medical Centre",
    "hours": null,
    "imageUrl": "https://www.bing.com/maps/geoplat/REST/v1/Imagery/Map/RoadVibrant?ms=92,112&key=AnTcaqBi2ypp0xI-OZNi4W_ik2KhjgpqioTAtXLC8GzkMBQRMlyxvxyTnd5b73im&c=en-US&ur=in&da=n&logo=n&fmt=png&od=1&shading=hill&pp=30.363091,76.765022;dfp"
  },
  {
    "name": "Loomba Maternity and ENT Hospital",
    "address": "Jagadhari Rd, Punjabi Mohalla, Sadar Bazar, Ambala Cantt, Haryana 133001",
    "phone": "Loomba Maternity and ENT Hospital",
    "hours": null,
    "imageUrl": "https://www.bing.com/maps/geoplat/REST/v1/Imagery/Map/RoadVibrant?ms=92,112&key=AnTcaqBi2ypp0xI-OZNi4W_ik2KhjgpqioTAtXLC8GzkMBQRMlyxvxyTnd5b73im&c=en-US&ur=in&da=n&logo=n&fmt=png&od=1&shading=hill&pp=30.344149,76.841972;dfp"
  },
  {
    "name": "Dr. Rohit Sharma | Ayurveda | Sharma Clinic and Piles Hospital",
    "address": "OLD BD Mill, Behind, Ambala Cantt, Ambala, Haryana, India, 133001, Ambala, Madhya Pradesh 133001",
    "phone": "Dr. Rohit Sharma | Ayurveda | Sharma Clinic and Piles Hospital",
    "hours": "Closed · Opens 10:00",
    "imageUrl": "https://th.bing.com/th?id=OLC.E%2fbt%2bwkGYEj8ww480x360&w=92&h=134&c=8&rs=1&qlt=80&cdv=1&pid=Local"
  },
  {
    "name": "Dr. Ms. Sheela Seharawat",
    "address": "Shop No-30, 1st Floor, Amba Complex, Staff Road Ambala Cantt, Ambala, Haryana",
    "phone": "Dr. Ms. Sheela Seharawat",
    "hours": null,
    "imageUrl": "https://th.bing.com/th?id=OLC.qXcny4k%2f9IQv9Q480x360&w=92&h=112&c=8&rs=1&qlt=80&cdv=1&pid=Local"
  },
  {
    "name": "Dr. Chander Mohan Mittal",
    "address": "Civil Lines, Ambala City-134003 Near Arya Chowk, Ambala, Haryana",
    "phone": "Dr. Chander Mohan Mittal",
    "hours": null,
    "imageUrl": "https://th.bing.com/th?id=OLC.%2bUF2wSCXpx0M5w480x360&w=92&h=112&c=8&rs=1&qlt=80&cdv=1&pid=Local"
  },
  {
    "name": "Sharma Clinic And Piles Hospital",
    "address": "60, Karan Puri, Near Krishna Dairy, Behind BD Flour Mill, Ambala, Haryana 133001",
    "phone": "Sharma Clinic And Piles Hospital",
    "hours": "Closed · Opens 09:00",
    "imageUrl": "https://th.bing.com/th?id=OLC.RqeAXFmzp%2bFQeg480x360&w=92&h=134&c=8&rs=1&qlt=80&cdv=1&pid=Local"
  },
  {
    "name": "Amanpreet's E.n.t. Care Centre",
    "address": "691, Inder Nagar, Near Gurudwara Police Line, Ambala, Haryana 134003",
    "phone": "Amanpreet's E.n.t. Care Centre",
    "hours": "Closed · Opens 09:00",
    "imageUrl": "https://th.bing.com/th?id=OLC.xyQDF8Nw0CWJbw480x360&w=92&h=134&c=8&rs=1&qlt=80&cdv=1&pid=Local"
  },
  {
    "name": "Shuddhi hiims (ambala) ayurveda clinic",
    "address": "Arya Nagar, Near c lal Hospital, Behind Rama Filling Station, Jagadhri Road, Ambala 133001",
    "phone": "Shuddhi hiims (ambala) ayurveda clinic",
    "hours": "Closed · Opens 09:00",
    "imageUrl": "https://th.bing.com/th?id=OLC.1%2f%2fjaRMsms%2fCow480x360&w=92&h=134&c=8&rs=1&qlt=80&cdv=1&pid=Local"
  },
  {
    "name": "Dr. Raj Kamal Grewal",
    "address": "Grewal Dental Care Centre, DSS 7 Sector 1, Jail Land Ambala City Haryana 134003, Ambala, Haryana 134003",
    "phone": "Dr. Raj Kamal Grewal",
    "hours": "Closed · Opens 10:00",
    "imageUrl": "https://th.bing.com/th?id=OLC.rezYWhrtcF6nNg480x360&w=92&h=134&c=8&rs=1&qlt=80&cdv=1&pid=Local"
  },
  {
    "name": "Dr.Nagi clinic",
    "address": "Rai Market, Ambala Cantt, Shop No.128, Ambala, Haryana, Haryana 133001",
    "phone": "Dr.Nagi clinic",
    "hours": "Closed · Opens 10:00",
    "imageUrl": "https://www.bing.com/maps/geoplat/REST/v1/Imagery/Map/RoadVibrant?ms=92,134&key=AnTcaqBi2ypp0xI-OZNi4W_ik2KhjgpqioTAtXLC8GzkMBQRMlyxvxyTnd5b73im&c=en-US&ur=in&da=n&logo=n&fmt=png&od=1&shading=hill&pp=30.349215,76.837318;dfp"
  },
  {
    "name": "Dr Sudhir Gupta",
    "address": "Jagadhri Road, Ambala, Haryana 133001",
    "phone": "Dr Sudhir Gupta",
    "hours": null,
    "imageUrl": "https://www.bing.com/maps/geoplat/REST/v1/Imagery/Map/RoadVibrant?ms=92,112&key=AnTcaqBi2ypp0xI-OZNi4W_ik2KhjgpqioTAtXLC8GzkMBQRMlyxvxyTnd5b73im&c=en-US&ur=in&da=n&logo=n&fmt=png&od=1&shading=hill&pp=30.361916,76.848076;dfp"
  }
]