[
  {
    "name": "Dr. Suresh Deotale- General Physician In Amravati",
    "address": "Dr. Suresh Deotale's Clinic, Amt, Amravati Ho, Amravati, Maharashtra 444601",
    "phone": "Dr. Suresh Deotale- General Physician In Amravati",
    "hours": "Closed · Opens 10:00",
    "imageUrl": "https://www.bing.com/maps/geoplat/REST/v1/Imagery/Map/RoadVibrant?ms=92,134&key=AnTcaqBi2ypp0xI-OZNi4W_ik2KhjgpqioTAtXLC8GzkMBQRMlyxvxyTnd5b73im&c=en-US&ur=in&da=n&logo=n&fmt=png&od=1&shading=hill&pp=20.930296,77.740334;dfp"
  },
  {
    "name": "Ambadekar's Clinic",
    "address": "Near Bhartiya Mahavidyalaya, Amravati, Maharashtra, Maharashtra 444601",
    "phone": "Ambadekar's Clinic",
    "hours": "Closed · Opens 11:00",
    "imageUrl": "https://www.bing.com/th?id=OLC.adhBIa6zlvGljg480x360&w=92&h=134&c=8&rs=1&qlt=80&cdv=1&pid=Local"
  },
  {
    "name": "Dr. Nilesh Gulhane",
    "address": "Gulhane Nursing Home, NEW Town, Badnera, Amravati, Maharashtra",
    "phone": "Dr. Nilesh Gulhane",
    "hours": null,
    "imageUrl": "https://www.bing.com/maps/geoplat/REST/v1/Imagery/Map/RoadVibrant?ms=92,112&key=AnTcaqBi2ypp0xI-OZNi4W_ik2KhjgpqioTAtXLC8GzkMBQRMlyxvxyTnd5b73im&c=en-US&ur=in&da=n&logo=n&fmt=png&od=1&shading=hill&pp=20.932072,77.755875;dfp"
  },
  {
    "name": "Dr. Subhash Bhagat- Consultant Physician & Diabetologist",
    "address": "Subhash Bhagat's Clinic, Shanti Nagar Chowk, Raja Magal Karlay Main Road, Amravati, Maharashtra 444606",
    "phone": "Dr. Subhash Bhagat- Consultant Physician & Diabetologist",
    "hours": "Closed · Opens 10:00",
    "imageUrl": "https://www.bing.com/maps/geoplat/REST/v1/Imagery/Map/RoadVibrant?ms=92,134&key=AnTcaqBi2ypp0xI-OZNi4W_ik2KhjgpqioTAtXLC8GzkMBQRMlyxvxyTnd5b73im&c=en-US&ur=in&da=n&logo=n&fmt=png&od=1&shading=hill&pp=20.925352,77.758842;dfp"
  },
  {
    "name": "Dr. Sanjay Namdeorao Bhasme- Consultant Physician & Diabetologist",
    "address": "Bhasme Hospital, Hotel Hindustan International, Amravati Ho Near Chitra Talkies, Amravati, Maharashtra 444601",
    "phone": "Dr. Sanjay Namdeorao Bhasme- Consultant Physician & Diabetologist",
    "hours": "Closed · Opens 09:30",
    "imageUrl": "https://www.bing.com/maps/geoplat/REST/v1/Imagery/Map/RoadVibrant?ms=92,134&key=AnTcaqBi2ypp0xI-OZNi4W_ik2KhjgpqioTAtXLC8GzkMBQRMlyxvxyTnd5b73im&c=en-US&ur=in&da=n&logo=n&fmt=png&od=1&shading=hill&pp=20.933331,77.750717;dfp"
  },
  {
    "name": "Dr. Ashvinikumar Deshmukh",
    "address": "Camp Road, Amravati, Maharashtra",
    "phone": "Dr. Ashvinikumar Deshmukh",
    "hours": "Closed · Opens 11:00",
    "imageUrl": "https://www.bing.com/th?id=OLC.L0jqFc1JdRysdw480x360&w=92&h=112&c=8&rs=1&qlt=80&cdv=1&pid=Local"
  },
  {
    "name": "Dr. Rahul Kolamkar",
    "address": "Elite Healers, 1st Floor Tirupati Tower, Ambadevi Road, Amravati, Maharashtra",
    "phone": "Dr. Rahul Kolamkar",
    "hours": "Closed · Opens 11:15",
    "imageUrl": "https://th.bing.com/th?id=OLC.3zqOTWFletI4xw480x360&w=92&h=112&c=8&rs=1&qlt=80&cdv=1&pid=Local"
  },
  {
    "name": "The Beauty Clinique by Dr Viveksri Aditya Gupta",
    "address": "Hariom Tower, First Floor, Dastur Nagar Road, Rajapeth, Amravati, Maharashtra 444606",
    "phone": "The Beauty Clinique by Dr Viveksri Aditya Gupta",
    "hours": "Open 24 hours",
    "imageUrl": "https://th.bing.com/th?id=OLC.e8mMrs08FZXFQw480x360&w=92&h=134&c=8&rs=1&qlt=80&cdv=1&pid=Local"
  },
  {
    "name": "Dr. Ashish Saboo",
    "address": "2nd Floor, Vidarbha Plaza, Near Panchsheel Cinema, Amravati, Maharashtra",
    "phone": "Dr. Ashish Saboo",
    "hours": null,
    "imageUrl": "https://www.bing.com/maps/geoplat/REST/v1/Imagery/Map/RoadVibrant?ms=92,112&key=AnTcaqBi2ypp0xI-OZNi4W_ik2KhjgpqioTAtXLC8GzkMBQRMlyxvxyTnd5b73im&c=en-US&ur=in&da=n&logo=n&fmt=png&od=1&shading=hill&pp=20.927254,77.755302;dfp"
  },
  {
    "name": "Dr. Subhash Chandra Bhagat Clinic",
    "address": "Vijay Colony Road, Rukhmini Nagar, Amravati, Maharashtra 444606",
    "phone": "Dr. Subhash Chandra Bhagat Clinic",
    "hours": null,
    "imageUrl": "https://www.bing.com/maps/geoplat/REST/v1/Imagery/Map/RoadVibrant?ms=92,112&key=AnTcaqBi2ypp0xI-OZNi4W_ik2KhjgpqioTAtXLC8GzkMBQRMlyxvxyTnd5b73im&c=en-US&ur=in&da=n&logo=n&fmt=png&od=1&shading=hill&pp=20.926752,77.766731;dfp"
  },
  {
    "name": "Shree Multispeciality Clinic",
    "address": "AMC Sankul, Below Hotel Grace Inn, Near Rajapeth Police Station, Amravati, Maharashtra 444601",
    "phone": "Shree Multispeciality Clinic",
    "hours": "Closed · Opens 10:30",
    "imageUrl": "https://th.bing.com/th?id=OLC.6VEgeo0%2fBq3VjA480x360&w=92&h=134&c=8&rs=1&qlt=80&cdv=1&pid=Local"
  },
  {
    "name": "Vighnaharta Hemeo Clinic Dr.Pooja Sunil Joshi",
    "address": "Balaji Plot, Agrasen Chowk, Behind Shree Ram Finance, Khamgaon, Maharashtra",
    "phone": "Vighnaharta Hemeo Clinic Dr.Pooja Sunil Joshi",
    "hours": null,
    "imageUrl": "https://www.bing.com/maps/geoplat/REST/v1/Imagery/Map/RoadVibrant?ms=92,112&key=AnTcaqBi2ypp0xI-OZNi4W_ik2KhjgpqioTAtXLC8GzkMBQRMlyxvxyTnd5b73im&c=en-US&ur=in&da=n&logo=n&fmt=png&od=1&shading=hill&pp=20.936815,77.754662;dfp"
  },
  {
    "name": "Dr. Abhijeet Pawar- Dermatalogist",
    "address": "Global Cosmetics Skin & Hair Clinic, Near Nagpuri Gate Police Station, Pathan Chowk, Amravati, Maharashtra 4…",
    "phone": "Dr. Abhijeet Pawar- Dermatalogist",
    "hours": "Closed · Opens 12:00",
    "imageUrl": "https://www.bing.com/maps/geoplat/REST/v1/Imagery/Map/RoadVibrant?ms=92,134&key=AnTcaqBi2ypp0xI-OZNi4W_ik2KhjgpqioTAtXLC8GzkMBQRMlyxvxyTnd5b73im&c=en-US&ur=in&da=n&logo=n&fmt=png&od=1&shading=hill&pp=20.922392,77.755272;dfp"
  },
  {
    "name": "Gurukunja Clinic",
    "address": "VMV Rd, Near to Madhu Prabha Complex, Gade Nagar, Amravati, Maharashtra",
    "phone": "Gurukunja Clinic",
    "hours": null,
    "imageUrl": "https://th.bing.com/th?id=OLC.VMxq8lGzrhSvbQ480x360&w=92&h=112&c=8&rs=1&qlt=80&cdv=1&pid=Local"
  },
  {
    "name": "Shri Manmukund Hospital Ayurveda Panchakarma Piles and Surgery Unit",
    "address": "Besides Ahilya Mangal Karyalaya, Near Yawalkar Mess, Vivekanand Colony to Radient Hospital Road, Bapatwa…",
    "phone": "Shri Manmukund Hospital Ayurveda Panchakarma Piles and Surgery Unit",
    "hours": "Closed · Opens 07:30",
    "imageUrl": "https://th.bing.com/th?id=OLC.wRICcs09PT%2bfxQ480x360&w=92&h=134&c=8&rs=1&qlt=80&cdv=1&pid=Local"
  },
  {
    "name": "Tirupati Clinic and Dialysis Center",
    "address": "Rajendra Colony, Prashant Nagar Road, Amravati, Maharashtra, Maharashtra 444606",
    "phone": "Tirupati Clinic and Dialysis Center",
    "hours": null,
    "imageUrl": "https://th.bing.com/th?id=OLC.5hWVljzDUg68SQ480x360&w=92&h=112&c=8&rs=1&qlt=80&cdv=1&pid=Local"
  },
  {
    "name": "PREDICTIVE HOMOEOPATHY CLINIC Panel Doctor Dr.MANOJ CHITHORE",
    "address": "Samruddhi Arcade, Near Rathod (HP) Petrol Pump, Congress Nagar Rd, Below Life Fitness GYM, Rukhmin…",
    "phone": "PREDICTIVE HOMOEOPATHY CLINIC Panel Doctor Dr.MANOJ CHITHORE",
    "hours": null,
    "imageUrl": "https://www.bing.com/maps/geoplat/REST/v1/Imagery/Map/RoadVibrant?ms=92,112&key=AnTcaqBi2ypp0xI-OZNi4W_ik2KhjgpqioTAtXLC8GzkMBQRMlyxvxyTnd5b73im&c=en-US&ur=in&da=n&logo=n&fmt=png&od=1&shading=hill&pp=20.926357,77.771118;dfp"
  },
  {
    "name": "Dahikar Clinic",
    "address": "Mahakali Devi Temple, Nai Basti Badnera, Amravati, Maharashtra 444606",
    "phone": "Dahikar Clinic",
    "hours": null,
    "imageUrl": "https://www.bing.com/maps/geoplat/REST/v1/Imagery/Map/RoadVibrant?ms=92,112&key=AnTcaqBi2ypp0xI-OZNi4W_ik2KhjgpqioTAtXLC8GzkMBQRMlyxvxyTnd5b73im&c=en-US&ur=in&da=n&logo=n&fmt=png&od=1&shading=hill&pp=20.852678,77.731201;dfp"
  },
  {
    "name": "Dr. Suresh Deotale- General Physician In Amravati",
    "address": "Dr. Suresh Deotale's Clinic, Amt, Amravati Ho, Amravati, Maharashtra 444601",
    "phone": "Dr. Suresh Deotale- General Physician In Amravati",
    "hours": "Closed · Opens 10:00",
    "imageUrl": "https://www.bing.com/maps/geoplat/REST/v1/Imagery/Map/RoadVibrant?ms=92,134&key=AnTcaqBi2ypp0xI-OZNi4W_ik2KhjgpqioTAtXLC8GzkMBQRMlyxvxyTnd5b73im&c=en-US&ur=in&da=n&logo=n&fmt=png&od=1&shading=hill&pp=20.930296,77.740334;dfp"
  },
  {
    "name": "Ambadekar's Clinic",
    "address": "Near Bhartiya Mahavidyalaya, Amravati, Maharashtra, Maharashtra 444601",
    "phone": "Ambadekar's Clinic",
    "hours": "Closed · Opens 11:00",
    "imageUrl": "https://www.bing.com/th?id=OLC.adhBIa6zlvGljg480x360&w=92&h=134&c=8&rs=1&qlt=80&cdv=1&pid=Local"
  }
]