[
  {
    "name": "Dr. Vikas Kakkar",
    "address": "564 B Block Ranjeet Avenue, Amritsar 143001",
    "phone": "Dr. Vikas Kakkar",
    "hours": null,
    "imageUrl": "https://www.bing.com/th?id=OLC.Z6a7H5b6T176ZA480x360&w=92&h=112&c=8&rs=1&qlt=80&cdv=1&pid=Local"
  },
  {
    "name": "Dr. Avneet's Health Clinic - Dr. Avneet Singh Kalsi",
    "address": "Post Office, 4901/5 or 24, Amarkot, Near Nav Bharat School, Opp. Chawla Karyana Store, Putligarh, Amritsa…",
    "phone": "Dr. Avneet's Health Clinic - Dr. Avneet Singh Kalsi",
    "hours": null,
    "imageUrl": "https://www.bing.com/maps/geoplat/REST/v1/Imagery/Map/RoadVibrant?ms=92,112&key=AnTcaqBi2ypp0xI-OZNi4W_ik2KhjgpqioTAtXLC8GzkMBQRMlyxvxyTnd5b73im&c=en-US&ur=in&da=n&logo=n&fmt=png&od=1&shading=hill&pp=31.631832,74.839844;dfp"
  },
  {
    "name": "Doctors Hospital & Medical Centre",
    "address": "152-g-1, Canal Bank, Johar Town,, Lahore, Punjab, Lahore 54590",
    "phone": "Doctors Hospital & Medical Centre",
    "hours": "Closed · Opens 09:00",
    "imageUrl": "https://www.bing.com/th?id=OLC.6qmPaA6k1wkSeg480x360&w=92&h=134&c=8&rs=1&qlt=80&cdv=1&pid=Local"
  },
  {
    "name": "Dr",
    "address": "Jvp8+jp2, Apollo Cradle, Naushera House, Court Road, Ina Colony, Punjab 143001",
    "phone": "Dr",
    "hours": "Closed · Opens 16:30",
    "imageUrl": "https://www.bing.com/th?id=OLC.GSOaY4vRGAJRxw480x360&w=92&h=134&c=8&rs=1&qlt=80&cdv=1&pid=Local"
  },
  {
    "name": "Dr. Monga Clinic Reviews",
    "address": "3-a Lawrence Road, Amritsar, Punjab 143001",
    "phone": "Dr. Monga Clinic Reviews",
    "hours": null,
    "imageUrl": "https://www.bing.com/th?id=OLC.ZNVuc9zrecA4mA480x360&w=92&h=112&c=8&rs=1&qlt=80&cdv=1&pid=Local"
  },
  {
    "name": "Dr. Dilraj Kaur Kahlon",
    "address": "858 -d, Ranjit Avenue, Amritsar 143501",
    "phone": "Dr. Dilraj Kaur Kahlon",
    "hours": "Closed · Opens 09:00",
    "imageUrl": "https://www.bing.com/th?id=OLC.C83XLVU4VtUzfA480x360&w=92&h=134&c=8&rs=1&qlt=80&cdv=1&pid=Local"
  },
  {
    "name": "Dr. Anuj Ved Gupta",
    "address": "Dr. Ved Gupta Hospital, 355 - The Mall Road - Amritsar, Amritsar, Punjab",
    "phone": "Dr. Anuj Ved Gupta",
    "hours": "Closed · Opens 10:00",
    "imageUrl": "https://th.bing.com/th?id=OLC.%2fOFdyj8r8qeGAg480x360&w=92&h=112&c=8&rs=1&qlt=80&cdv=1&pid=Local"
  },
  {
    "name": "Dr Karam Singh Memorial Orthopaedic Hospital",
    "address": "16 A Circular Road, Amritsar 143001",
    "phone": "Dr Karam Singh Memorial Orthopaedic Hospital",
    "hours": null,
    "imageUrl": "https://th.bing.com/th?id=OLC.XcV8OsNHztBkJg480x360&w=92&h=112&c=8&rs=1&qlt=80&cdv=1&pid=Local"
  },
  {
    "name": "Dr. HP SINGH",
    "address": "Inside Uppal Neuro Hospital 4, Rani Ka Bagh, Amritsar Cantonment, Amritsar, Punjab 143001, Amritsar 143001",
    "phone": "Dr. HP SINGH",
    "hours": null,
    "imageUrl": "https://th.bing.com/th?id=OLC.85H5C4ymPNh2Sg480x360&w=92&h=112&c=8&rs=1&qlt=80&cdv=1&pid=Local"
  },
  {
    "name": "Dr Rajiv Gupta's Children Hospital",
    "address": "167, Shivala Colony Amritsar, Amritsar, Amritsar 143001",
    "phone": "Dr Rajiv Gupta's Children Hospital",
    "hours": "Closed · Opens 10:00",
    "imageUrl": "https://th.bing.com/th?id=OLC.%2fKaAr%2buyvz9rsQ480x360&w=92&h=134&c=8&rs=1&qlt=80&cdv=1&pid=Local"
  },
  {
    "name": "Dr. Vikas Kakkar",
    "address": "564, B-Block, Ranjit Avenue, Amritsar, Punjab 143001",
    "phone": "Dr. Vikas Kakkar",
    "hours": "Closed · Opens 09:00",
    "imageUrl": "https://th.bing.com/th?id=OLC.982Z2h6bVf0ZTg480x360&w=92&h=134&c=8&rs=1&qlt=80&cdv=1&pid=Local"
  },
  {
    "name": "Dr. Ruchika Grover",
    "address": "Circular Road 102, Amritsar, Amritsar 143004",
    "phone": "Dr. Ruchika Grover",
    "hours": "Closed · Opens 11:00",
    "imageUrl": "https://th.bing.com/th?id=OLC.%2fpko5QkBNKpNLw480x360&w=92&h=134&c=8&rs=1&qlt=80&cdv=1&pid=Local"
  },
  {
    "name": "Shagun Randhawa",
    "address": "12 Queens Road, Amritsar, Punjab 143001",
    "phone": "Shagun Randhawa",
    "hours": "Closed · Opens 11:00",
    "imageUrl": "https://th.bing.com/th?id=OLC.7Q6eG8tsnTN40Q480x360&w=92&h=134&c=8&rs=1&qlt=80&cdv=1&pid=Local"
  },
  {
    "name": "Dr. Rajneesh Kapoor",
    "address": "630, Basant Avenue, Amritsar, Punjab 143001",
    "phone": "Dr. Rajneesh Kapoor",
    "hours": "Closed · Opens 09:00",
    "imageUrl": "https://th.bing.com/th?id=OLC.%2foYfX94ZsGZKUQ480x360&w=92&h=112&c=8&rs=1&qlt=80&cdv=1&pid=Local"
  },
  {
    "name": "Dr. Rajan Punj",
    "address": "Dr Punj's Artemis Hospital, 890-8, Circular Road, Amritsar, Punjab",
    "phone": "Dr. Rajan Punj",
    "hours": "Closed · Opens 09:00",
    "imageUrl": "https://www.bing.com/maps/geoplat/REST/v1/Imagery/Map/RoadVibrant?ms=92,112&key=AnTcaqBi2ypp0xI-OZNi4W_ik2KhjgpqioTAtXLC8GzkMBQRMlyxvxyTnd5b73im&c=en-US&ur=in&da=n&logo=n&fmt=png&od=1&shading=hill&pp=31.65383,74.881844;dfp"
  },
  {
    "name": "Dr. Pooja Homeopathic Clinic -Best Homeopathic Doctor In Amritsar",
    "address": "48 Albert Road, Next To S. K Regency, .Opposite Canal Office, Amritsar, Punjab Region 143001",
    "phone": "Dr. Pooja Homeopathic Clinic -Best Homeopathic Doctor In Amritsar",
    "hours": null,
    "imageUrl": "https://th.bing.com/th?id=OLC.EELEmmCLW1jIvA480x360&w=92&h=112&c=8&rs=1&qlt=80&cdv=1&pid=Local"
  },
  {
    "name": "Dr. Gurmeet Singh",
    "address": "77-79, Ajit Hospital, Amritsar, Punjab",
    "phone": "Dr. Gurmeet Singh",
    "hours": "Closed · Opens 17:30",
    "imageUrl": "https://www.bing.com/maps/geoplat/REST/v1/Imagery/Map/RoadVibrant?ms=92,134&key=AnTcaqBi2ypp0xI-OZNi4W_ik2KhjgpqioTAtXLC8GzkMBQRMlyxvxyTnd5b73im&c=en-US&ur=in&da=n&logo=n&fmt=png&od=1&shading=hill&pp=31.637529,74.858139;dfp"
  },
  {
    "name": "Dr. Jagtesh Singh Sidhu",
    "address": "Smt.Paarvati Devi Hospital, A-Block, Amritsar, Punjab",
    "phone": "Dr. Jagtesh Singh Sidhu",
    "hours": "Closed · Opens 10:00",
    "imageUrl": "https://www.bing.com/maps/geoplat/REST/v1/Imagery/Map/RoadVibrant?ms=92,112&key=AnTcaqBi2ypp0xI-OZNi4W_ik2KhjgpqioTAtXLC8GzkMBQRMlyxvxyTnd5b73im&c=en-US&ur=in&da=n&logo=n&fmt=png&od=1&shading=hill&pp=31.646135,74.857948;dfp"
  },
  {
    "name": "Dr. Vikas Kakkar",
    "address": "564 B Block Ranjeet Avenue, Amritsar 143001",
    "phone": "Dr. Vikas Kakkar",
    "hours": null,
    "imageUrl": "https://www.bing.com/th?id=OLC.Z6a7H5b6T176ZA480x360&w=92&h=112&c=8&rs=1&qlt=80&cdv=1&pid=Local"
  },
  {
    "name": "Dr. Avneet's Health Clinic - Dr. Avneet Singh Kalsi",
    "address": "Post Office, 4901/5 or 24, Amarkot, Near Nav Bharat School, Opp. Chawla Karyana Store, Putligarh, Amritsa…",
    "phone": "Dr. Avneet's Health Clinic - Dr. Avneet Singh Kalsi",
    "hours": null,
    "imageUrl": "https://www.bing.com/maps/geoplat/REST/v1/Imagery/Map/RoadVibrant?ms=92,112&key=AnTcaqBi2ypp0xI-OZNi4W_ik2KhjgpqioTAtXLC8GzkMBQRMlyxvxyTnd5b73im&c=en-US&ur=in&da=n&logo=n&fmt=png&od=1&shading=hill&pp=31.631832,74.839844;dfp"
  }
]