[
  {
    "name": "Dr. Javaid Ahmad Bhat | Surgery",
    "address": "Moomin Abad, Anantnag, Jammu and Kashmir, India, 192101, Anantnag, Madhya Pradesh 192101",
    "phone": "Dr. Javaid Ahmad Bhat | Surgery",
    "hours": "Closed · Opens 10:00",
    "imageUrl": "https://www.bing.com/th?id=OLC.Osl1Rk5wdSHfbg480x360&w=92&h=134&c=8&rs=1&qlt=80&cdv=1&pid=Local"
  },
  {
    "name": "Dr.Mufeed Bhat",
    "address": "Near Hanfia Eidgah, Near Iraj Complex, Janglat Mandi, Anantnag",
    "phone": "Dr.Mufeed Bhat",
    "hours": null,
    "imageUrl": "https://www.bing.com/maps/geoplat/REST/v1/Imagery/Map/RoadVibrant?ms=92,112&key=AnTcaqBi2ypp0xI-OZNi4W_ik2KhjgpqioTAtXLC8GzkMBQRMlyxvxyTnd5b73im&c=en-US&ur=in&da=n&logo=n&fmt=png&od=1&shading=hill&pp=33.729794,75.15033;dfp"
  },
  {
    "name": "Dr. Talid Nazir Reshi",
    "address": "Old Kmd Adda, Near Masjid Shareef, Mehandi Kadal, Anantnag 192101",
    "phone": "Dr. Talid Nazir Reshi",
    "hours": "Closed · Opens 10:00",
    "imageUrl": "https://www.bing.com/th?id=OLC.m%2bnwEFctncb7Jw480x360&w=92&h=134&c=8&rs=1&qlt=80&cdv=1&pid=Local"
  },
  {
    "name": "Azka health care clinic",
    "address": "K.P Road Anantnag, Anantnag, Jammu and Kashmir 192123",
    "phone": "Azka health care clinic",
    "hours": "Closed · Opens 08:00",
    "imageUrl": "https://www.bing.com/th?id=OLC.5mLfj8IFZFWVPQ480x360&w=92&h=134&c=8&rs=1&qlt=80&cdv=1&pid=Local"
  },
  {
    "name": "Dr. Parvaiz Ahmad Misgar | Diabetalogist",
    "address": "Ganjiwara Anantnag Ksshmir, Anantnag, Jammu and Kashmir, India, 192101, Anantnag, Madhya Pradesh 19…",
    "phone": "Dr. Parvaiz Ahmad Misgar | Diabetalogist",
    "hours": "Closed · Opens 10:00",
    "imageUrl": "https://www.bing.com/maps/geoplat/REST/v1/Imagery/Map/RoadVibrant?ms=92,112&key=AnTcaqBi2ypp0xI-OZNi4W_ik2KhjgpqioTAtXLC8GzkMBQRMlyxvxyTnd5b73im&c=en-US&ur=in&da=n&logo=n&fmt=png&od=1&shading=hill&pp=33.72781,75.150169;dfp"
  },
  {
    "name": "Doctors Health Care",
    "address": "Al Aziz Complex, Khaja Bazar, Janglat Mandi, Anantnag",
    "phone": "Doctors Health Care",
    "hours": null,
    "imageUrl": "https://www.bing.com/th?id=OLC.FhuNbi%2fj2vsZkw480x360&w=92&h=112&c=8&rs=1&qlt=80&cdv=1&pid=Local"
  },
  {
    "name": "Al-Amin Dawakhana Shangus Anantang",
    "address": "Shangus Anantanag Jammu And Kashmir India, Anantnag, Jammu and Kashmir 192201",
    "phone": "Al-Amin Dawakhana Shangus Anantang",
    "hours": null,
    "imageUrl": "https://www.bing.com/maps/geoplat/REST/v1/Imagery/Map/RoadVibrant?ms=92,112&key=AnTcaqBi2ypp0xI-OZNi4W_ik2KhjgpqioTAtXLC8GzkMBQRMlyxvxyTnd5b73im&c=en-US&ur=in&da=n&logo=n&fmt=png&od=1&shading=hill&pp=33.733299,75.150002;dfp"
  },
  {
    "name": "Dr. Tariq Ahmad Bhat- Psychiatrist",
    "address": "Baba Medicate, Anantnag 192232",
    "phone": "Dr. Tariq Ahmad Bhat- Psychiatrist",
    "hours": "Closed · Opens 10:00",
    "imageUrl": "https://www.bing.com/maps/geoplat/REST/v1/Imagery/Map/RoadVibrant?ms=92,134&key=AnTcaqBi2ypp0xI-OZNi4W_ik2KhjgpqioTAtXLC8GzkMBQRMlyxvxyTnd5b73im&c=en-US&ur=in&da=n&logo=n&fmt=png&od=1&shading=hill&pp=33.731125,75.148705;dfp"
  },
  {
    "name": "Dr. Imran Khan Orthopaedic J&K",
    "address": "Valley Pharmacy opp GMC Anantnag, Anantnag 192101",
    "phone": "Dr. Imran Khan Orthopaedic J&K",
    "hours": "Closed · Opens 09:30",
    "imageUrl": "https://th.bing.com/th?id=OLC.h2EdBJIvxHVENQ480x360&w=92&h=134&c=8&rs=1&qlt=80&cdv=1&pid=Local"
  },
  {
    "name": "Dr. Nasti's Maxillofacial, Dental & Hair Clinic",
    "address": "Khaja Bazar, Hospital Road, Anantnag 192101",
    "phone": "Dr. Nasti's Maxillofacial, Dental & Hair Clinic",
    "hours": "Closed · Opens 10:30",
    "imageUrl": "https://th.bing.com/th?id=OLC.24nm%2fhGzx2qzPw480x360&w=92&h=134&c=8&rs=1&qlt=80&cdv=1&pid=Local"
  },
  {
    "name": "Dr. Mushtaq Ahmad",
    "address": "250, Near Highway Crossing, Mughal Bagh, Wanpoh, Anantnag 192124",
    "phone": "Dr. Mushtaq Ahmad",
    "hours": "Closed · Opens 09:00",
    "imageUrl": "https://th.bing.com/th?id=OLC.CEiNTlXyO9n9Og480x360&w=92&h=134&c=8&rs=1&qlt=80&cdv=1&pid=Local"
  },
  {
    "name": "Dr. Syed Asif Rafiq- Gastroenterologist in Pulwama",
    "address": "BHM Hospital Awantipora, Alnoor Medicate Harnag Anantnag, Awantipora, Anantnag 192122",
    "phone": "Dr. Syed Asif Rafiq- Gastroenterologist in Pulwama",
    "hours": "Closed · Opens 08:00",
    "imageUrl": "https://www.bing.com/maps/geoplat/REST/v1/Imagery/Map/RoadVibrant?ms=92,134&key=AnTcaqBi2ypp0xI-OZNi4W_ik2KhjgpqioTAtXLC8GzkMBQRMlyxvxyTnd5b73im&c=en-US&ur=in&da=n&logo=n&fmt=png&od=1&shading=hill&pp=33.736153,75.121506;dfp"
  },
  {
    "name": "Dr Ummer Yaseen’s Skin, Laser & Hair Transplant Centre",
    "address": "Near Shivala Mandir, Sheer Pora, Anantnag",
    "phone": "Dr Ummer Yaseen’s Skin, Laser & Hair Transplant Centre",
    "hours": null,
    "imageUrl": "https://www.bing.com/maps/geoplat/REST/v1/Imagery/Map/RoadVibrant?ms=92,112&key=AnTcaqBi2ypp0xI-OZNi4W_ik2KhjgpqioTAtXLC8GzkMBQRMlyxvxyTnd5b73im&c=en-US&ur=in&da=n&logo=n&fmt=png&od=1&shading=hill&pp=33.724728,75.155823;dfp"
  },
  {
    "name": "Dr Lal PathLabs",
    "address": "Saba Complex, Khah Bazar, Anantnag-192101-J&K, Khah Bazar",
    "phone": "Dr Lal PathLabs",
    "hours": null,
    "imageUrl": "https://www.bing.com/maps/geoplat/REST/v1/Imagery/Map/RoadVibrant?ms=92,112&key=AnTcaqBi2ypp0xI-OZNi4W_ik2KhjgpqioTAtXLC8GzkMBQRMlyxvxyTnd5b73im&c=en-US&ur=in&da=n&logo=n&fmt=png&od=1&shading=hill&pp=33.728172,75.153366;dfp"
  },
  {
    "name": "Reshi orthopedic clinic",
    "address": "Near New District Hospital Building Ashajipora, Road, Janglat Mandi, Anantnag",
    "phone": "Reshi orthopedic clinic",
    "hours": null,
    "imageUrl": "https://www.bing.com/maps/geoplat/REST/v1/Imagery/Map/RoadVibrant?ms=92,112&key=AnTcaqBi2ypp0xI-OZNi4W_ik2KhjgpqioTAtXLC8GzkMBQRMlyxvxyTnd5b73im&c=en-US&ur=in&da=n&logo=n&fmt=png&od=1&shading=hill&pp=33.733315,75.156815;dfp"
  },
  {
    "name": "Dr Aejaz's Skin and laser clinic",
    "address": "Floor K P Road, Anantnag 192101",
    "phone": "Dr Aejaz's Skin and laser clinic",
    "hours": null,
    "imageUrl": "https://www.bing.com/maps/geoplat/REST/v1/Imagery/Map/RoadVibrant?ms=92,112&key=AnTcaqBi2ypp0xI-OZNi4W_ik2KhjgpqioTAtXLC8GzkMBQRMlyxvxyTnd5b73im&c=en-US&ur=in&da=n&logo=n&fmt=png&od=1&shading=hill&pp=33.731125,75.148705;dfp"
  },
  {
    "name": "Dr Jahanzeb's Multispeciality Dental Clinic #Anantnag",
    "address": "Nazuk Mohalla, Achabal Adda (Adjacent to Icici Bank and Dr Ismail's Clinic), Anantnag, Jammu and Kashmir 192101",
    "phone": "Dr Jahanzeb's Multispeciality Dental Clinic #Anantnag",
    "hours": "Closed · Opens 10:00",
    "imageUrl": "https://th.bing.com/th?id=OLC.fiOX1OikRvzmVw480x360&w=92&h=134&c=8&rs=1&qlt=80&cdv=1&pid=Local"
  },
  {
    "name": "Shafat clinical lab E.C.G X-RAY Kochak Building New Market Anantnag",
    "address": "Kochak Building Old Mattan Chowk Anantnag, Srinigar, Jammu and Kashmir (State) 192101",
    "phone": "Shafat clinical lab E.C.G X-RAY Kochak Building New Market Anantnag",
    "hours": null,
    "imageUrl": "https://www.bing.com/maps/geoplat/REST/v1/Imagery/Map/RoadVibrant?ms=92,112&key=AnTcaqBi2ypp0xI-OZNi4W_ik2KhjgpqioTAtXLC8GzkMBQRMlyxvxyTnd5b73im&c=en-US&ur=in&da=n&logo=n&fmt=png&od=1&shading=hill&pp=33.733299,75.150002;dfp"
  },
  {
    "name": "Dr. Javaid Ahmad Bhat | Surgery",
    "address": "Moomin Abad, Anantnag, Jammu and Kashmir, India, 192101, Anantnag, Madhya Pradesh 192101",
    "phone": "Dr. Javaid Ahmad Bhat | Surgery",
    "hours": "Closed · Opens 10:00",
    "imageUrl": "https://www.bing.com/th?id=OLC.Osl1Rk5wdSHfbg480x360&w=92&h=134&c=8&rs=1&qlt=80&cdv=1&pid=Local"
  },
  {
    "name": "Dr.Mufeed Bhat",
    "address": "Near Hanfia Eidgah, Near Iraj Complex, Janglat Mandi, Anantnag",
    "phone": "Dr.Mufeed Bhat",
    "hours": null,
    "imageUrl": "https://www.bing.com/maps/geoplat/REST/v1/Imagery/Map/RoadVibrant?ms=92,112&key=AnTcaqBi2ypp0xI-OZNi4W_ik2KhjgpqioTAtXLC8GzkMBQRMlyxvxyTnd5b73im&c=en-US&ur=in&da=n&logo=n&fmt=png&od=1&shading=hill&pp=33.729794,75.15033;dfp"
  }
]