[
  {
    "name": "Zydus Hospitals",
    "address": "Anand-Lambhvel Road, Anand, Gujarat 388001",
    "phone": "Zydus Hospitals",
    "hours": "Open 24 hours",
    "imageUrl": "https://www.bing.com/th?id=OLC.LXQjyAh24%2bMcCA480x360&w=92&h=134&c=8&rs=1&qlt=80&cdv=1&pid=Local"
  },
  {
    "name": "Dr Mehul Prajapati | Physician",
    "address": "Zydus Hospital, Lambhvel Rd, Nanikhodiyar, Anand, Gujarat 388001",
    "phone": "Dr Mehul Prajapati | Physician",
    "hours": "Open 24 hours",
    "imageUrl": "https://www.bing.com/maps/geoplat/REST/v1/Imagery/Map/RoadVibrant?ms=92,134&key=AnTcaqBi2ypp0xI-OZNi4W_ik2KhjgpqioTAtXLC8GzkMBQRMlyxvxyTnd5b73im&c=en-US&ur=in&da=n&logo=n&fmt=png&od=1&shading=hill&pp=22.566744,72.945869;dfp"
  },
  {
    "name": "Dr Kamlesh Gohel | Dr Mihir Acharya | Team Of Emergency Physician",
    "address": "Zydus Hospital, Lambhvel Rd, Nanikhodiyar, Anand, Gujarat 388001",
    "phone": "Dr Kamlesh Gohel | Dr Mihir Acharya | Team Of Emergency Physician",
    "hours": "Open 24 hours",
    "imageUrl": "https://www.bing.com/maps/geoplat/REST/v1/Imagery/Map/RoadVibrant?ms=92,134&key=AnTcaqBi2ypp0xI-OZNi4W_ik2KhjgpqioTAtXLC8GzkMBQRMlyxvxyTnd5b73im&c=en-US&ur=in&da=n&logo=n&fmt=png&od=1&shading=hill&pp=22.566729,72.945847;dfp"
  },
  {
    "name": "Dr Gaurav Goel",
    "address": "Zydus Hospital, Lambhvel Rd, Nanikhodiyar, Anand, Gujarat 388001",
    "phone": "Dr Gaurav Goel",
    "hours": "Open 24 hours",
    "imageUrl": "https://www.bing.com/maps/geoplat/REST/v1/Imagery/Map/RoadVibrant?ms=92,134&key=AnTcaqBi2ypp0xI-OZNi4W_ik2KhjgpqioTAtXLC8GzkMBQRMlyxvxyTnd5b73im&c=en-US&ur=in&da=n&logo=n&fmt=png&od=1&shading=hill&pp=22.566736,72.945854;dfp"
  },
  {
    "name": "Arshvi Clinic",
    "address": "Shreenath Shoping Center G11 Ahinsha Chok, Vendor Road, Anand, Gujarat 388001",
    "phone": "Arshvi Clinic",
    "hours": "Closed · Opens 09:00",
    "imageUrl": "https://www.bing.com/th?id=OLC.AG4NuMNY1t7AkQ480x360&w=92&h=134&c=8&rs=1&qlt=80&cdv=1&pid=Local"
  },
  {
    "name": "Dr. Maulik Shah | Nephrologist | Kidney Specialist",
    "address": "Zydus Hospital, Lambhvel Rd, Nanikhodiyar, Anand, Gujarat 388001, Anand, Gujarat 388001",
    "phone": "Dr. Maulik Shah | Nephrologist | Kidney Specialist",
    "hours": "Closed · Opens 09:00",
    "imageUrl": "https://www.bing.com/th?id=OLC.BmJiq6RvVwyHQQ480x360&w=92&h=134&c=8&rs=1&qlt=80&cdv=1&pid=Local"
  },
  {
    "name": "Dr Darpan Gandhi |Pulmonologist, Allergy Specialist | Interventional Pulmonologist",
    "address": "Zydus Hospital, Lambhvel Rd, Anand, Gujarat 388001",
    "phone": "Dr Darpan Gandhi |Pulmonologist, Allergy Specialist | Interventional Pulmonologist",
    "hours": "Closed · Opens 09:00",
    "imageUrl": "https://th.bing.com/th?id=OLC.Aym%2frACCjI66PA480x360&w=92&h=134&c=8&rs=1&qlt=80&cdv=1&pid=Local"
  },
  {
    "name": "Dr. Deepak Parmar- Ayush",
    "address": "Kohinoor Health Care, Kohinoor Society, Bhalej Road, Landmark- Faizan Hospital, Anand, Gujarat 388001",
    "phone": "Dr. Deepak Parmar- Ayush",
    "hours": "Closed · Opens 10:00",
    "imageUrl": "https://www.bing.com/maps/geoplat/REST/v1/Imagery/Map/RoadVibrant?ms=92,134&key=AnTcaqBi2ypp0xI-OZNi4W_ik2KhjgpqioTAtXLC8GzkMBQRMlyxvxyTnd5b73im&c=en-US&ur=in&da=n&logo=n&fmt=png&od=1&shading=hill&pp=22.571838,72.965439;dfp"
  },
  {
    "name": "Dr. Apurv Vaidya | Heart Specialist | Aadicura Superspeciality Clinic",
    "address": "Shree Yogim Sankul, Bhalej Rd, Near New Bus Stand, Anand, Gujarat",
    "phone": "Dr. Apurv Vaidya | Heart Specialist | Aadicura Superspeciality Clinic",
    "hours": null,
    "imageUrl": "https://www.bing.com/maps/geoplat/REST/v1/Imagery/Map/RoadVibrant?ms=92,112&key=AnTcaqBi2ypp0xI-OZNi4W_ik2KhjgpqioTAtXLC8GzkMBQRMlyxvxyTnd5b73im&c=en-US&ur=in&da=n&logo=n&fmt=png&od=1&shading=hill&pp=22.561531,72.959557;dfp"
  },
  {
    "name": "Shaurya Clinic",
    "address": "58 Anand Industrial Estate, Jitodiya Road, Anand, Gujarat, Gujarat 388001",
    "phone": "Shaurya Clinic",
    "hours": "Closed · Opens 09:00",
    "imageUrl": "https://th.bing.com/th?id=OLC.CV7lMQSyQb7LxQ480x360&w=92&h=134&c=8&rs=1&qlt=80&cdv=1&pid=Local"
  },
  {
    "name": "Maa Clinic",
    "address": "Bakrol Square, Bakrol, Anand, Gujarat 388315",
    "phone": "Maa Clinic",
    "hours": null,
    "imageUrl": "https://th.bing.com/th?id=OLC.rEb4BUyo1E6IEA480x360&w=92&h=112&c=8&rs=1&qlt=80&cdv=1&pid=Local"
  },
  {
    "name": "Amit Hospital",
    "address": "Indira Gandhi Marg, Anand, Gujarat 388001",
    "phone": "Amit Hospital",
    "hours": null,
    "imageUrl": "https://www.bing.com/maps/geoplat/REST/v1/Imagery/Map/RoadVibrant?ms=92,112&key=AnTcaqBi2ypp0xI-OZNi4W_ik2KhjgpqioTAtXLC8GzkMBQRMlyxvxyTnd5b73im&c=en-US&ur=in&da=n&logo=n&fmt=png&od=1&shading=hill&pp=22.563578,72.959831;dfp"
  },
  {
    "name": "Skin Clinic, Dr Mukesh G Bhatt",
    "address": "C 204, Skin Clinic, Shree Ram Arcade, Near Arya Samaj Temple, Station Road, Anand, Gujarat, Gujarat 388001",
    "phone": "Skin Clinic, Dr Mukesh G Bhatt",
    "hours": "Open · Closes 14:00",
    "imageUrl": "https://th.bing.com/th?id=OLC.ZD8TMZVeYTUSPw480x360&w=92&h=134&c=8&rs=1&qlt=80&cdv=1&pid=Local"
  },
  {
    "name": "Shubham Homoeopathic Clinic",
    "address": "F-8, First Floor, Hariba Vyapar Bhuvan, Anand, Gujarat 388001",
    "phone": "Shubham Homoeopathic Clinic",
    "hours": "Closed · Opens 09:30",
    "imageUrl": "https://th.bing.com/th?id=OLC.WvMowL2HFyzuvQ480x360&w=92&h=134&c=8&rs=1&qlt=80&cdv=1&pid=Local"
  },
  {
    "name": "Dr. James Sebastian",
    "address": "D.No.25/535 A Paikkatt House Parijatham Road South Kalamassery",
    "phone": "Dr. James Sebastian",
    "hours": "Closed · Opens 08:00",
    "imageUrl": "https://th.bing.com/th?id=OLC.DWN3pv0LeO25GQ480x360&w=92&h=134&c=8&rs=1&qlt=80&cdv=1&pid=Local"
  },
  {
    "name": "Om Gayatri Homeopathic Clinic",
    "address": "Drashti Arcade, Sf/1, Opp. Hdfc Bank, Near Grid, Nh228, Anand, Gujarat 388001",
    "phone": "Om Gayatri Homeopathic Clinic",
    "hours": "Closed · Opens 10:00",
    "imageUrl": "https://th.bing.com/th?id=OLC.%2bTO9qBAltBlj3g480x360&w=92&h=134&c=8&rs=1&qlt=80&cdv=1&pid=Local"
  },
  {
    "name": "Vasad",
    "address": "Narol Naroda Road, Anand, Gujarat 388306",
    "phone": "Vasad",
    "hours": null,
    "imageUrl": "https://www.bing.com/maps/geoplat/REST/v1/Imagery/Map/RoadVibrant?ms=92,112&key=AnTcaqBi2ypp0xI-OZNi4W_ik2KhjgpqioTAtXLC8GzkMBQRMlyxvxyTnd5b73im&c=en-US&ur=in&da=n&logo=n&fmt=png&od=1&shading=hill&pp=22.450001,73.066704;dfp"
  },
  {
    "name": "Shivam Clinic",
    "address": "Teen Darwaja, Vadtal Road, Vadtal, Nadiad, Gujarat 387375",
    "phone": "Shivam Clinic",
    "hours": null,
    "imageUrl": "https://www.bing.com/maps/geoplat/REST/v1/Imagery/Map/RoadVibrant?ms=92,112&key=AnTcaqBi2ypp0xI-OZNi4W_ik2KhjgpqioTAtXLC8GzkMBQRMlyxvxyTnd5b73im&c=en-US&ur=in&da=n&logo=n&fmt=png&od=1&shading=hill&pp=22.592438,72.874123;dfp"
  },
  {
    "name": "Zydus Hospitals",
    "address": "Anand-Lambhvel Road, Anand, Gujarat 388001",
    "phone": "Zydus Hospitals",
    "hours": "Open 24 hours",
    "imageUrl": "https://www.bing.com/th?id=OLC.LXQjyAh24%2bMcCA480x360&w=92&h=134&c=8&rs=1&qlt=80&cdv=1&pid=Local"
  },
  {
    "name": "Dr Mehul Prajapati | Physician",
    "address": "Zydus Hospital, Lambhvel Rd, Nanikhodiyar, Anand, Gujarat 388001",
    "phone": "Dr Mehul Prajapati | Physician",
    "hours": "Open 24 hours",
    "imageUrl": "https://www.bing.com/maps/geoplat/REST/v1/Imagery/Map/RoadVibrant?ms=92,134&key=AnTcaqBi2ypp0xI-OZNi4W_ik2KhjgpqioTAtXLC8GzkMBQRMlyxvxyTnd5b73im&c=en-US&ur=in&da=n&logo=n&fmt=png&od=1&shading=hill&pp=22.566744,72.945869;dfp"
  }
]