[
  {
    "name": "Dr. Nagajyothi Batchu",
    "address": "3-142-1, Near Aaibaba Temple, Beside Prasad School, 3 Road, New Town, Rangaswamy Nagar, Anantapur, An…",
    "phone": "Dr. Nagajyothi Batchu",
    "hours": "Closed · Opens 09:00",
    "imageUrl": "https://www.bing.com/th?id=OLC.9mLtlDCBN6coCg480x360&w=92&h=134&c=8&rs=1&qlt=80&cdv=1&pid=Local"
  },
  {
    "name": "Dr. Saiswaroop G | Vijaya Polyclinic | General Physician",
    "address": "D no, Orthopaedic Center, 11-1-198, 1st Cross, opp. to Anathapur, Aravinda Nagar, Sharada Nagar, Anantapur…",
    "phone": "Dr. Saiswaroop G | Vijaya Polyclinic | General Physician",
    "hours": null,
    "imageUrl": "https://www.bing.com/maps/geoplat/REST/v1/Imagery/Map/RoadVibrant?ms=92,112&key=AnTcaqBi2ypp0xI-OZNi4W_ik2KhjgpqioTAtXLC8GzkMBQRMlyxvxyTnd5b73im&c=en-US&ur=in&da=n&logo=n&fmt=png&od=1&shading=hill&pp=14.669629,77.59288;dfp"
  },
  {
    "name": "Dr.G.V.Supraja Chowdary General Physician",
    "address": "Sree Varsha Hospitals, 12-109, 2nd Floor, Sai Nagar, 2nd Cross, Opp. Chinnari Hospital, Anantapur, Andhra Prad…",
    "phone": "Dr.G.V.Supraja Chowdary General Physician",
    "hours": "Open 24 hours",
    "imageUrl": "https://www.bing.com/th?id=OLC.1GjvUtX8UkU4%2fw480x360&w=92&h=134&c=8&rs=1&qlt=80&cdv=1&pid=Local"
  },
  {
    "name": "Dr. Am Reddy",
    "address": "House Number 13/426 Jaffar Hushen Complex, RTC Bustand Road, Anantapur, Andhra Pradesh",
    "phone": "Dr. Am Reddy",
    "hours": "Closed · Opens 10:30",
    "imageUrl": "https://www.bing.com/th?id=OLC.LZuzlwqP87CXYQ480x360&w=92&h=112&c=8&rs=1&qlt=80&cdv=1&pid=Local"
  },
  {
    "name": "Sri Krishna Clinic",
    "address": "Sai Nagar Road, Near Veterinary Hospital, Gulzarpet, Anantapur, Andhra Pradesh 515001",
    "phone": "Sri Krishna Clinic",
    "hours": null,
    "imageUrl": "https://www.bing.com/th?id=OLC.mIDWvVdnKsc%2frw480x360&w=92&h=112&c=8&rs=1&qlt=80&cdv=1&pid=Local"
  },
  {
    "name": "Dr. Sabitha Clinic",
    "address": "Mjf3+r34, 3rd Cross Rd, Ashoknagar, Sai Nagar, Andhra Pradesh 515001",
    "phone": "Dr. Sabitha Clinic",
    "hours": null,
    "imageUrl": "https://www.bing.com/th?id=OLC.RqXkkSI3Mi%2bORw480x360&w=92&h=112&c=8&rs=1&qlt=80&cdv=1&pid=Local"
  },
  {
    "name": "Dr Kethu Bhuchi Reddy Clinic",
    "address": "Pranithi Eye Hospital, Adhimurthi Nagar, Anantapur, Andhra Pradesh 515001",
    "phone": "Dr Kethu Bhuchi Reddy Clinic",
    "hours": null,
    "imageUrl": "https://www.bing.com/maps/geoplat/REST/v1/Imagery/Map/RoadVibrant?ms=92,112&key=AnTcaqBi2ypp0xI-OZNi4W_ik2KhjgpqioTAtXLC8GzkMBQRMlyxvxyTnd5b73im&c=en-US&ur=in&da=n&logo=n&fmt=png&od=1&shading=hill&pp=14.677504,77.599304;dfp"
  },
  {
    "name": "Dr Adinarayana Health Clinic",
    "address": "13-2-817, Sri Hanuman Hotel, Kamala Nagar, Anantapur, Andhra Pradesh 515001",
    "phone": "Dr Adinarayana Health Clinic",
    "hours": null,
    "imageUrl": null
  },
  {
    "name": "Madhavi Hospital",
    "address": "13\\600, Mahdavi Hospital, Near Railway Sation, Anantapur, Andhra Pradesh 515001",
    "phone": "Madhavi Hospital",
    "hours": null,
    "imageUrl": "https://www.bing.com/maps/geoplat/REST/v1/Imagery/Map/RoadVibrant?ms=92,112&key=AnTcaqBi2ypp0xI-OZNi4W_ik2KhjgpqioTAtXLC8GzkMBQRMlyxvxyTnd5b73im&c=en-US&ur=in&da=n&logo=n&fmt=png&od=1&shading=hill&pp=14.685632,77.595993;hp"
  },
  {
    "name": "KIMS - Saveera Hospital",
    "address": "1-1348, Near Crescent Function Hall, Opp Sakshi Office, Anantapur, Andhra Pradesh, Andhra Pradesh 515004",
    "phone": "KIMS - Saveera Hospital",
    "hours": null,
    "imageUrl": null
  },
  {
    "name": "Sri Mahima Multi Specality Homoeo Clinic",
    "address": "12-4-75, Vidyuth Nagar Circle, Ananthapur, Anantapur, Andhra Pradesh 515001",
    "phone": "Sri Mahima Multi Specality Homoeo Clinic",
    "hours": null,
    "imageUrl": null
  },
  {
    "name": "S.v.clinic",
    "address": "Rahamath Nagar Oposite, Anantapur, Andhra Pradesh 515001, India, Anantapur, Andhra Pradesh, Andhra Pra…",
    "phone": "S.v.clinic",
    "hours": null,
    "imageUrl": null
  },
  {
    "name": "Sai Clinic",
    "address": "Door Num : 4/806, Kalyandurgam Rd, Near Razak Hospital, Azad Nagar, Kovur Nagar, Andhra Pradesh 5…",
    "phone": "Sai Clinic",
    "hours": null,
    "imageUrl": null
  },
  {
    "name": "Sri Vidya Clinic",
    "address": "Banglore Road, Power Office, Old Town, Anantapur, Andhra Pradesh 515001",
    "phone": "Sri Vidya Clinic",
    "hours": null,
    "imageUrl": "https://www.bing.com/maps/geoplat/REST/v1/Imagery/Map/RoadVibrant?ms=92,112&key=AnTcaqBi2ypp0xI-OZNi4W_ik2KhjgpqioTAtXLC8GzkMBQRMlyxvxyTnd5b73im&c=en-US&ur=in&da=n&logo=n&fmt=png&od=1&shading=hill&pp=14.673423,77.608582;dfp"
  },
  {
    "name": "Dr. Charly Daniel D.L (pt)",
    "address": "11-145, 1st Main, Anantapur, Andhra Pradesh",
    "phone": "Dr. Charly Daniel D.L (pt)",
    "hours": "Closed · Opens 10:00",
    "imageUrl": "https://www.bing.com/maps/geoplat/REST/v1/Imagery/Map/RoadVibrant?ms=92,112&key=AnTcaqBi2ypp0xI-OZNi4W_ik2KhjgpqioTAtXLC8GzkMBQRMlyxvxyTnd5b73im&c=en-US&ur=in&da=n&logo=n&fmt=png&od=1&shading=hill&pp=14.666954,77.596809;dfp"
  },
  {
    "name": "Dr Jamruddin Homoeo Clinic",
    "address": "SH-30, Anantapur, Andhra Pradesh 515001",
    "phone": "Dr Jamruddin Homoeo Clinic",
    "hours": "Closed · Opens 10:30",
    "imageUrl": null
  },
  {
    "name": "Geetha Clinic",
    "address": "Nh544d, Mahatma Gandhi Statue, Old Town, Anantapur, Andhra Pradesh 515001",
    "phone": "Geetha Clinic",
    "hours": null,
    "imageUrl": "https://www.bing.com/maps/geoplat/REST/v1/Imagery/Map/RoadVibrant?ms=92,112&key=AnTcaqBi2ypp0xI-OZNi4W_ik2KhjgpqioTAtXLC8GzkMBQRMlyxvxyTnd5b73im&c=en-US&ur=in&da=n&logo=n&fmt=png&od=1&shading=hill&pp=14.680568,77.609413;dfp"
  },
  {
    "name": "Dr. M Sanjeevappa - Best Pediatrician | Child Doctor | Allergy testing and treatment",
    "address": "Dept Of Pediatrics, Aravinda Nagar, Anantapur, Andhra Pradesh",
    "phone": "Dr. M Sanjeevappa - Best Pediatrician | Child Doctor | Allergy testing and treatment",
    "hours": null,
    "imageUrl": "https://www.bing.com/maps/geoplat/REST/v1/Imagery/Map/RoadVibrant?ms=92,112&key=AnTcaqBi2ypp0xI-OZNi4W_ik2KhjgpqioTAtXLC8GzkMBQRMlyxvxyTnd5b73im&c=en-US&ur=in&da=n&logo=n&fmt=png&od=1&shading=hill&pp=14.668046,77.597183;dfp"
  },
  {
    "name": "Dr. Nagajyothi Batchu",
    "address": "3-142-1, Near Aaibaba Temple, Beside Prasad School, 3 Road, New Town, Rangaswamy Nagar, Anantapur, An…",
    "phone": "Dr. Nagajyothi Batchu",
    "hours": "Closed · Opens 09:00",
    "imageUrl": "https://www.bing.com/th?id=OLC.9mLtlDCBN6coCg480x360&w=92&h=134&c=8&rs=1&qlt=80&cdv=1&pid=Local"
  },
  {
    "name": "Dr. Saiswaroop G | Vijaya Polyclinic | General Physician",
    "address": "D no, Orthopaedic Center, 11-1-198, 1st Cross, opp. to Anathapur, Aravinda Nagar, Sharada Nagar, Anantapur…",
    "phone": "Dr. Saiswaroop G | Vijaya Polyclinic | General Physician",
    "hours": null,
    "imageUrl": "https://www.bing.com/maps/geoplat/REST/v1/Imagery/Map/RoadVibrant?ms=92,112&key=AnTcaqBi2ypp0xI-OZNi4W_ik2KhjgpqioTAtXLC8GzkMBQRMlyxvxyTnd5b73im&c=en-US&ur=in&da=n&logo=n&fmt=png&od=1&shading=hill&pp=14.669629,77.59288;dfp"
  }
]