[
  {
    "name": "Dr. Tarun Kumar Sahu- General & Laproscopic surgeon",
    "address": "Surendra Hospital Mishra Pada Angul Odisha, Anugul 759122",
    "phone": "Dr. Tarun Kumar Sahu- General & Laproscopic surgeon",
    "hours": "Closed · Opens 09:00",
    "imageUrl": "https://www.bing.com/maps/geoplat/REST/v1/Imagery/Map/RoadVibrant?ms=92,134&key=AnTcaqBi2ypp0xI-OZNi4W_ik2KhjgpqioTAtXLC8GzkMBQRMlyxvxyTnd5b73im&c=en-US&ur=in&da=n&logo=n&fmt=png&od=1&shading=hill&pp=20.829992,85.09346;dfp"
  },
  {
    "name": "Dr. Prafulla Kumar Sahu",
    "address": "Bus Stand Angul Near Santi Hotel, Angul, Odisha, India, 759122, Angul, Madhya Pradesh 759122",
    "phone": "Dr. Prafulla Kumar Sahu",
    "hours": "Closed · Opens 10:00",
    "imageUrl": "https://www.bing.com/maps/geoplat/REST/v1/Imagery/Map/RoadVibrant?ms=92,134&key=AnTcaqBi2ypp0xI-OZNi4W_ik2KhjgpqioTAtXLC8GzkMBQRMlyxvxyTnd5b73im&c=en-US&ur=in&da=n&logo=n&fmt=png&od=1&shading=hill&pp=20.840759,85.097549;dfp"
  },
  {
    "name": "Perfect Clinic",
    "address": "Angul H O, Angul, Near Bus Stand, Orrisa, Angul, Odisha 759122",
    "phone": "Perfect Clinic",
    "hours": null,
    "imageUrl": "https://www.bing.com/th?id=OLC.xix32fJC%2fRpR5A480x360&w=92&h=112&c=8&rs=1&qlt=80&cdv=1&pid=Local"
  },
  {
    "name": "Dr. Deepak Garnaik | Md Medicine",
    "address": "Angul, Odisha, India, 759122, Angul, Madhya Pradesh 759122",
    "phone": "Dr. Deepak Garnaik | Md Medicine",
    "hours": "Closed · Opens 10:00",
    "imageUrl": "https://www.bing.com/th?id=OLC.kLadQlbm2Mzsng480x360&w=92&h=134&c=8&rs=1&qlt=80&cdv=1&pid=Local"
  },
  {
    "name": "Dr Umesh Ch Das",
    "address": "Unnamed Road, Amalapada, Angul, Odisha 759122, Angul, Angul 759122",
    "phone": "Dr Umesh Ch Das",
    "hours": null,
    "imageUrl": "https://www.bing.com/maps/geoplat/REST/v1/Imagery/Map/RoadVibrant?ms=92,112&key=AnTcaqBi2ypp0xI-OZNi4W_ik2KhjgpqioTAtXLC8GzkMBQRMlyxvxyTnd5b73im&c=en-US&ur=in&da=n&logo=n&fmt=png&od=1&shading=hill&pp=20.805592,85.011162;dfp"
  },
  {
    "name": "Dr. Biswaranjita sahoo | Immunologist | Kamadhenu ayurvedic clinic",
    "address": "Kamadhenu Ayurvedic Clinic, Sankar Cinema Road, Angul, Odisha, India, 759122, Angul, Madhya Pradesh …",
    "phone": "Dr. Biswaranjita sahoo | Immunologist | Kamadhenu ayurvedic clinic",
    "hours": "Closed · Opens 09:30",
    "imageUrl": "https://www.bing.com/th?id=OLC.%2bLTSLwnMIAW8yg480x360&w=92&h=134&c=8&rs=1&qlt=80&cdv=1&pid=Local"
  },
  {
    "name": "Sury Clinic",
    "address": "Bus Stand Road, Raja Somnath Singh Jagdev Chowk, Amalapada, Anugul, Odisha 759122",
    "phone": "Sury Clinic",
    "hours": null,
    "imageUrl": "https://www.bing.com/maps/geoplat/REST/v1/Imagery/Map/RoadVibrant?ms=92,112&key=AnTcaqBi2ypp0xI-OZNi4W_ik2KhjgpqioTAtXLC8GzkMBQRMlyxvxyTnd5b73im&c=en-US&ur=in&da=n&logo=n&fmt=png&od=1&shading=hill&pp=20.839785,85.096954;dfp"
  },
  {
    "name": "Dr Ronak Choudhury Multispeciality Dental Clinic",
    "address": "147, Omm Tower, Shankar Cinema Road, Angul, Odisha 759122",
    "phone": "Dr Ronak Choudhury Multispeciality Dental Clinic",
    "hours": "Closed · Opens 09:00",
    "imageUrl": "https://th.bing.com/th?id=OLC.gxRmAjvdDgYu2g480x360&w=92&h=134&c=8&rs=1&qlt=80&cdv=1&pid=Local"
  },
  {
    "name": "Esi Dispensary Angul",
    "address": "Nalco Nagar, Kandasar Part, Odisha 759145, India, Angul, Odisha 759145",
    "phone": "Esi Dispensary Angul",
    "hours": null,
    "imageUrl": "https://www.bing.com/maps/geoplat/REST/v1/Imagery/Map/RoadVibrant?ms=92,112&key=AnTcaqBi2ypp0xI-OZNi4W_ik2KhjgpqioTAtXLC8GzkMBQRMlyxvxyTnd5b73im&c=en-US&ur=in&da=n&logo=n&fmt=png&od=1&shading=hill&pp=20.842375,85.140549;dfp"
  },
  {
    "name": "Patanjali Chikitsalaya",
    "address": "Shankar Cinema, Angul, Odisha 759122",
    "phone": "Patanjali Chikitsalaya",
    "hours": null,
    "imageUrl": "https://www.bing.com/maps/geoplat/REST/v1/Imagery/Map/RoadVibrant?ms=92,112&key=AnTcaqBi2ypp0xI-OZNi4W_ik2KhjgpqioTAtXLC8GzkMBQRMlyxvxyTnd5b73im&c=en-US&ur=in&da=n&logo=n&fmt=png&od=1&shading=hill&pp=20.835608,85.089417;dfp"
  },
  {
    "name": "Dr. Vikash Kumar Agarwal",
    "address": "120/2, Swami Swaroopanand Sarani, Near Phoolbagan Metro Station, Kolkata, West Bengal 700054",
    "phone": "Dr. Vikash Kumar Agarwal",
    "hours": "Closed · Opens 10:00",
    "imageUrl": "https://th.bing.com/th?id=OLC.5zdo0ta%2faT2mHw480x360&w=92&h=134&c=8&rs=1&qlt=80&cdv=1&pid=Local"
  },
  {
    "name": "Dr. Dr.satya ranjan routray. | Rheumatologist | Seva homoeo clinic",
    "address": "Seva Homoeo Clinic, Balanda, Odisha, India, 759116, Balanda, Madhya Pradesh 759116",
    "phone": "Dr. Dr.satya ranjan routray. | Rheumatologist | Seva homoeo clinic",
    "hours": "Closed · Opens 09:00",
    "imageUrl": "https://www.bing.com/maps/geoplat/REST/v1/Imagery/Map/RoadVibrant?ms=92,134&key=AnTcaqBi2ypp0xI-OZNi4W_ik2KhjgpqioTAtXLC8GzkMBQRMlyxvxyTnd5b73im&c=en-US&ur=in&da=n&logo=n&fmt=png&od=1&shading=hill&pp=20.923239,85.143951;dfp"
  },
  {
    "name": "Dr Lal PathLabs - Patient Service Centre",
    "address": "Jagannath Lodge Building, Nalco Township, Angul 759145",
    "phone": "Dr Lal PathLabs - Patient Service Centre",
    "hours": "Closed · Opens 07:30",
    "imageUrl": "https://www.bing.com/maps/geoplat/REST/v1/Imagery/Map/RoadVibrant?ms=92,134&key=AnTcaqBi2ypp0xI-OZNi4W_ik2KhjgpqioTAtXLC8GzkMBQRMlyxvxyTnd5b73im&c=en-US&ur=in&da=n&logo=n&fmt=png&od=1&shading=hill&pp=20.95166,85.098572;dfp"
  },
  {
    "name": "Dr. Tarun Kumar Sahu- General & Laproscopic surgeon",
    "address": "Surendra Hospital Mishra Pada Angul Odisha, Anugul 759122",
    "phone": "Dr. Tarun Kumar Sahu- General & Laproscopic surgeon",
    "hours": "Closed · Opens 09:00",
    "imageUrl": "https://www.bing.com/maps/geoplat/REST/v1/Imagery/Map/RoadVibrant?ms=92,134&key=AnTcaqBi2ypp0xI-OZNi4W_ik2KhjgpqioTAtXLC8GzkMBQRMlyxvxyTnd5b73im&c=en-US&ur=in&da=n&logo=n&fmt=png&od=1&shading=hill&pp=20.829992,85.09346;dfp"
  },
  {
    "name": "Dr. Prafulla Kumar Sahu",
    "address": "Bus Stand Angul Near Santi Hotel, Angul, Odisha, India, 759122, Angul, Madhya Pradesh 759122",
    "phone": "Dr. Prafulla Kumar Sahu",
    "hours": "Closed · Opens 10:00",
    "imageUrl": "https://www.bing.com/maps/geoplat/REST/v1/Imagery/Map/RoadVibrant?ms=92,134&key=AnTcaqBi2ypp0xI-OZNi4W_ik2KhjgpqioTAtXLC8GzkMBQRMlyxvxyTnd5b73im&c=en-US&ur=in&da=n&logo=n&fmt=png&od=1&shading=hill&pp=20.840759,85.097549;dfp"
  },
  {
    "name": "Perfect Clinic",
    "address": "Angul H O, Angul, Near Bus Stand, Orrisa, Angul, Odisha 759122",
    "phone": "Perfect Clinic",
    "hours": null,
    "imageUrl": "https://www.bing.com/th?id=OLC.xix32fJC%2fRpR5A480x360&w=92&h=112&c=8&rs=1&qlt=80&cdv=1&pid=Local"
  },
  {
    "name": "Dr. Deepak Garnaik | Md Medicine",
    "address": "Angul, Odisha, India, 759122, Angul, Madhya Pradesh 759122",
    "phone": "Dr. Deepak Garnaik | Md Medicine",
    "hours": "Closed · Opens 10:00",
    "imageUrl": "https://www.bing.com/th?id=OLC.kLadQlbm2Mzsng480x360&w=92&h=134&c=8&rs=1&qlt=80&cdv=1&pid=Local"
  },
  {
    "name": "Dr Umesh Ch Das",
    "address": "Unnamed Road, Amalapada, Angul, Odisha 759122, Angul, Angul 759122",
    "phone": "Dr Umesh Ch Das",
    "hours": null,
    "imageUrl": "https://www.bing.com/maps/geoplat/REST/v1/Imagery/Map/RoadVibrant?ms=92,112&key=AnTcaqBi2ypp0xI-OZNi4W_ik2KhjgpqioTAtXLC8GzkMBQRMlyxvxyTnd5b73im&c=en-US&ur=in&da=n&logo=n&fmt=png&od=1&shading=hill&pp=20.805592,85.011162;dfp"
  },
  {
    "name": "Dr. Biswaranjita sahoo | Immunologist | Kamadhenu ayurvedic clinic",
    "address": "Kamadhenu Ayurvedic Clinic, Sankar Cinema Road, Angul, Odisha, India, 759122, Angul, Madhya Pradesh …",
    "phone": "Dr. Biswaranjita sahoo | Immunologist | Kamadhenu ayurvedic clinic",
    "hours": "Closed · Opens 09:30",
    "imageUrl": "https://www.bing.com/th?id=OLC.%2bLTSLwnMIAW8yg480x360&w=92&h=134&c=8&rs=1&qlt=80&cdv=1&pid=Local"
  },
  {
    "name": "Sury Clinic",
    "address": "Bus Stand Road, Raja Somnath Singh Jagdev Chowk, Amalapada, Anugul, Odisha 759122",
    "phone": "Sury Clinic",
    "hours": null,
    "imageUrl": "https://www.bing.com/maps/geoplat/REST/v1/Imagery/Map/RoadVibrant?ms=92,112&key=AnTcaqBi2ypp0xI-OZNi4W_ik2KhjgpqioTAtXLC8GzkMBQRMlyxvxyTnd5b73im&c=en-US&ur=in&da=n&logo=n&fmt=png&od=1&shading=hill&pp=20.839785,85.096954;dfp"
  }
]