[
  {
    "name": "Dr Mansuori Clinic",
    "address": "Anuppur Road, Anuppur, Madhya Pradesh 484224",
    "phone": "Dr Mansuori Clinic",
    "hours": null,
    "imageUrl": "https://www.bing.com/maps/geoplat/REST/v1/Imagery/Map/RoadVibrant?ms=92,112&key=AnTcaqBi2ypp0xI-OZNi4W_ik2KhjgpqioTAtXLC8GzkMBQRMlyxvxyTnd5b73im&c=en-US&ur=in&da=n&logo=n&fmt=png&od=1&shading=hill&pp=23.119638,81.697098;dfp"
  },
  {
    "name": "Muskan Dental Dr.pramod",
    "address": "Amarkantak Rd, Chetna Nagar, Anuppur, Madhya Pradesh 484224, India, Anuppur, Madhya Pradesh 484…",
    "phone": "Muskan Dental Dr.pramod",
    "hours": null,
    "imageUrl": "https://www.bing.com/maps/geoplat/REST/v1/Imagery/Map/RoadVibrant?ms=92,112&key=AnTcaqBi2ypp0xI-OZNi4W_ik2KhjgpqioTAtXLC8GzkMBQRMlyxvxyTnd5b73im&c=en-US&ur=in&da=n&logo=n&fmt=png&od=1&shading=hill&pp=23.11488,81.699219;dfp"
  },
  {
    "name": "Dr. Rekha Shukla Best Obstretician and Gynaecologist",
    "address": "Reva Health Care Clinic, College Colony, Ward No. 1, Burhar Road, Dhanpuri, Shahdol, Madhya Pradesh 484…",
    "phone": "Dr. Rekha Shukla Best Obstretician and Gynaecologist",
    "hours": "Closed · Opens 08:00",
    "imageUrl": "https://www.bing.com/maps/geoplat/REST/v1/Imagery/Map/RoadVibrant?ms=92,134&key=AnTcaqBi2ypp0xI-OZNi4W_ik2KhjgpqioTAtXLC8GzkMBQRMlyxvxyTnd5b73im&c=en-US&ur=in&da=n&logo=n&fmt=png&od=1&shading=hill&pp=23.189318,81.560158;dfp"
  },
  {
    "name": "Dr Mansuori Clinic",
    "address": "Anuppur Road, Anuppur, Madhya Pradesh 484224",
    "phone": "Dr Mansuori Clinic",
    "hours": null,
    "imageUrl": "https://www.bing.com/maps/geoplat/REST/v1/Imagery/Map/RoadVibrant?ms=92,112&key=AnTcaqBi2ypp0xI-OZNi4W_ik2KhjgpqioTAtXLC8GzkMBQRMlyxvxyTnd5b73im&c=en-US&ur=in&da=n&logo=n&fmt=png&od=1&shading=hill&pp=23.119638,81.697098;dfp"
  },
  {
    "name": "Muskan Dental Dr.pramod",
    "address": "Amarkantak Rd, Chetna Nagar, Anuppur, Madhya Pradesh 484224, India, Anuppur, Madhya Pradesh 484…",
    "phone": "Muskan Dental Dr.pramod",
    "hours": null,
    "imageUrl": "https://www.bing.com/maps/geoplat/REST/v1/Imagery/Map/RoadVibrant?ms=92,112&key=AnTcaqBi2ypp0xI-OZNi4W_ik2KhjgpqioTAtXLC8GzkMBQRMlyxvxyTnd5b73im&c=en-US&ur=in&da=n&logo=n&fmt=png&od=1&shading=hill&pp=23.11488,81.699219;dfp"
  },
  {
    "name": "Dr. Rekha Shukla Best Obstretician and Gynaecologist",
    "address": "Reva Health Care Clinic, College Colony, Ward No. 1, Burhar Road, Dhanpuri, Shahdol, Madhya Pradesh 484…",
    "phone": "Dr. Rekha Shukla Best Obstretician and Gynaecologist",
    "hours": "Closed · Opens 08:00",
    "imageUrl": "https://www.bing.com/maps/geoplat/REST/v1/Imagery/Map/RoadVibrant?ms=92,134&key=AnTcaqBi2ypp0xI-OZNi4W_ik2KhjgpqioTAtXLC8GzkMBQRMlyxvxyTnd5b73im&c=en-US&ur=in&da=n&logo=n&fmt=png&od=1&shading=hill&pp=23.189318,81.560158;dfp"
  },
  {
    "name": "Dr Mansuori Clinic",
    "address": "Anuppur Road, Anuppur, Madhya Pradesh 484224",
    "phone": "Dr Mansuori Clinic",
    "hours": null,
    "imageUrl": "https://www.bing.com/maps/geoplat/REST/v1/Imagery/Map/RoadVibrant?ms=92,112&key=AnTcaqBi2ypp0xI-OZNi4W_ik2KhjgpqioTAtXLC8GzkMBQRMlyxvxyTnd5b73im&c=en-US&ur=in&da=n&logo=n&fmt=png&od=1&shading=hill&pp=23.119638,81.697098;dfp"
  },
  {
    "name": "Muskan Dental Dr.pramod",
    "address": "Amarkantak Rd, Chetna Nagar, Anuppur, Madhya Pradesh 484224, India, Anuppur, Madhya Pradesh 484…",
    "phone": "Muskan Dental Dr.pramod",
    "hours": null,
    "imageUrl": "https://www.bing.com/maps/geoplat/REST/v1/Imagery/Map/RoadVibrant?ms=92,112&key=AnTcaqBi2ypp0xI-OZNi4W_ik2KhjgpqioTAtXLC8GzkMBQRMlyxvxyTnd5b73im&c=en-US&ur=in&da=n&logo=n&fmt=png&od=1&shading=hill&pp=23.11488,81.699219;dfp"
  },
  {
    "name": "Dr. Rekha Shukla Best Obstretician and Gynaecologist",
    "address": "Reva Health Care Clinic, College Colony, Ward No. 1, Burhar Road, Dhanpuri, Shahdol, Madhya Pradesh 484…",
    "phone": "Dr. Rekha Shukla Best Obstretician and Gynaecologist",
    "hours": "Closed · Opens 08:00",
    "imageUrl": "https://www.bing.com/maps/geoplat/REST/v1/Imagery/Map/RoadVibrant?ms=92,134&key=AnTcaqBi2ypp0xI-OZNi4W_ik2KhjgpqioTAtXLC8GzkMBQRMlyxvxyTnd5b73im&c=en-US&ur=in&da=n&logo=n&fmt=png&od=1&shading=hill&pp=23.189318,81.560158;dfp"
  },
  {
    "name": "Dr Mansuori Clinic",
    "address": "Anuppur Road, Anuppur, Madhya Pradesh 484224",
    "phone": "Dr Mansuori Clinic",
    "hours": null,
    "imageUrl": "https://www.bing.com/maps/geoplat/REST/v1/Imagery/Map/RoadVibrant?ms=92,112&key=AnTcaqBi2ypp0xI-OZNi4W_ik2KhjgpqioTAtXLC8GzkMBQRMlyxvxyTnd5b73im&c=en-US&ur=in&da=n&logo=n&fmt=png&od=1&shading=hill&pp=23.119638,81.697098;dfp"
  },
  {
    "name": "Muskan Dental Dr.pramod",
    "address": "Amarkantak Rd, Chetna Nagar, Anuppur, Madhya Pradesh 484224, India, Anuppur, Madhya Pradesh 484…",
    "phone": "Muskan Dental Dr.pramod",
    "hours": null,
    "imageUrl": "https://www.bing.com/maps/geoplat/REST/v1/Imagery/Map/RoadVibrant?ms=92,112&key=AnTcaqBi2ypp0xI-OZNi4W_ik2KhjgpqioTAtXLC8GzkMBQRMlyxvxyTnd5b73im&c=en-US&ur=in&da=n&logo=n&fmt=png&od=1&shading=hill&pp=23.11488,81.699219;dfp"
  },
  {
    "name": "Dr. Rekha Shukla Best Obstretician and Gynaecologist",
    "address": "Reva Health Care Clinic, College Colony, Ward No. 1, Burhar Road, Dhanpuri, Shahdol, Madhya Pradesh 484…",
    "phone": "Dr. Rekha Shukla Best Obstretician and Gynaecologist",
    "hours": "Closed · Opens 08:00",
    "imageUrl": "https://www.bing.com/maps/geoplat/REST/v1/Imagery/Map/RoadVibrant?ms=92,134&key=AnTcaqBi2ypp0xI-OZNi4W_ik2KhjgpqioTAtXLC8GzkMBQRMlyxvxyTnd5b73im&c=en-US&ur=in&da=n&logo=n&fmt=png&od=1&shading=hill&pp=23.189318,81.560158;dfp"
  },
  {
    "name": "Dr Mansuori Clinic",
    "address": "Anuppur Road, Anuppur, Madhya Pradesh 484224",
    "phone": "Dr Mansuori Clinic",
    "hours": null,
    "imageUrl": "https://www.bing.com/maps/geoplat/REST/v1/Imagery/Map/RoadVibrant?ms=92,112&key=AnTcaqBi2ypp0xI-OZNi4W_ik2KhjgpqioTAtXLC8GzkMBQRMlyxvxyTnd5b73im&c=en-US&ur=in&da=n&logo=n&fmt=png&od=1&shading=hill&pp=23.119638,81.697098;dfp"
  },
  {
    "name": "Muskan Dental Dr.pramod",
    "address": "Amarkantak Rd, Chetna Nagar, Anuppur, Madhya Pradesh 484224, India, Anuppur, Madhya Pradesh 484…",
    "phone": "Muskan Dental Dr.pramod",
    "hours": null,
    "imageUrl": "https://www.bing.com/maps/geoplat/REST/v1/Imagery/Map/RoadVibrant?ms=92,112&key=AnTcaqBi2ypp0xI-OZNi4W_ik2KhjgpqioTAtXLC8GzkMBQRMlyxvxyTnd5b73im&c=en-US&ur=in&da=n&logo=n&fmt=png&od=1&shading=hill&pp=23.11488,81.699219;dfp"
  },
  {
    "name": "Dr. Rekha Shukla Best Obstretician and Gynaecologist",
    "address": "Reva Health Care Clinic, College Colony, Ward No. 1, Burhar Road, Dhanpuri, Shahdol, Madhya Pradesh 484…",
    "phone": "Dr. Rekha Shukla Best Obstretician and Gynaecologist",
    "hours": "Closed · Opens 08:00",
    "imageUrl": "https://www.bing.com/maps/geoplat/REST/v1/Imagery/Map/RoadVibrant?ms=92,134&key=AnTcaqBi2ypp0xI-OZNi4W_ik2KhjgpqioTAtXLC8GzkMBQRMlyxvxyTnd5b73im&c=en-US&ur=in&da=n&logo=n&fmt=png&od=1&shading=hill&pp=23.189318,81.560158;dfp"
  },
  {
    "name": "Dr Mansuori Clinic",
    "address": "Anuppur Road, Anuppur, Madhya Pradesh 484224",
    "phone": "Dr Mansuori Clinic",
    "hours": null,
    "imageUrl": "https://www.bing.com/maps/geoplat/REST/v1/Imagery/Map/RoadVibrant?ms=92,112&key=AnTcaqBi2ypp0xI-OZNi4W_ik2KhjgpqioTAtXLC8GzkMBQRMlyxvxyTnd5b73im&c=en-US&ur=in&da=n&logo=n&fmt=png&od=1&shading=hill&pp=23.119638,81.697098;dfp"
  },
  {
    "name": "Muskan Dental Dr.pramod",
    "address": "Amarkantak Rd, Chetna Nagar, Anuppur, Madhya Pradesh 484224, India, Anuppur, Madhya Pradesh 484…",
    "phone": "Muskan Dental Dr.pramod",
    "hours": null,
    "imageUrl": "https://www.bing.com/maps/geoplat/REST/v1/Imagery/Map/RoadVibrant?ms=92,112&key=AnTcaqBi2ypp0xI-OZNi4W_ik2KhjgpqioTAtXLC8GzkMBQRMlyxvxyTnd5b73im&c=en-US&ur=in&da=n&logo=n&fmt=png&od=1&shading=hill&pp=23.11488,81.699219;dfp"
  },
  {
    "name": "Dr. Rekha Shukla Best Obstretician and Gynaecologist",
    "address": "Reva Health Care Clinic, College Colony, Ward No. 1, Burhar Road, Dhanpuri, Shahdol, Madhya Pradesh 484…",
    "phone": "Dr. Rekha Shukla Best Obstretician and Gynaecologist",
    "hours": "Closed · Opens 08:00",
    "imageUrl": "https://www.bing.com/maps/geoplat/REST/v1/Imagery/Map/RoadVibrant?ms=92,134&key=AnTcaqBi2ypp0xI-OZNi4W_ik2KhjgpqioTAtXLC8GzkMBQRMlyxvxyTnd5b73im&c=en-US&ur=in&da=n&logo=n&fmt=png&od=1&shading=hill&pp=23.189318,81.560158;dfp"
  },
  {
    "name": "Dr Mansuori Clinic",
    "address": "Anuppur Road, Anuppur, Madhya Pradesh 484224",
    "phone": "Dr Mansuori Clinic",
    "hours": null,
    "imageUrl": "https://www.bing.com/maps/geoplat/REST/v1/Imagery/Map/RoadVibrant?ms=92,112&key=AnTcaqBi2ypp0xI-OZNi4W_ik2KhjgpqioTAtXLC8GzkMBQRMlyxvxyTnd5b73im&c=en-US&ur=in&da=n&logo=n&fmt=png&od=1&shading=hill&pp=23.119638,81.697098;dfp"
  },
  {
    "name": "Muskan Dental Dr.pramod",
    "address": "Amarkantak Rd, Chetna Nagar, Anuppur, Madhya Pradesh 484224, India, Anuppur, Madhya Pradesh 484…",
    "phone": "Muskan Dental Dr.pramod",
    "hours": null,
    "imageUrl": "https://www.bing.com/maps/geoplat/REST/v1/Imagery/Map/RoadVibrant?ms=92,112&key=AnTcaqBi2ypp0xI-OZNi4W_ik2KhjgpqioTAtXLC8GzkMBQRMlyxvxyTnd5b73im&c=en-US&ur=in&da=n&logo=n&fmt=png&od=1&shading=hill&pp=23.11488,81.699219;dfp"
  }
]