[
  {
    "name": "Dr. Santha Kumar",
    "address": "159/B, Bazaar Street. Landmark: Near Anna Statue, Ariyalur, Tamil Nadu",
    "phone": "Dr. Santha Kumar",
    "hours": "Closed · Opens 09:00",
    "imageUrl": "https://www.bing.com/th?id=OLC.oDtnE88HDYINWQ480x360&w=92&h=112&c=8&rs=1&qlt=80&cdv=1&pid=Local"
  },
  {
    "name": "Dr. S. Nagakeerthana M.D. DVL Dermatologist NK SKIN HAIR & LASER CENTRE Skin doctor",
    "address": "No.10, Kasiviswanathar North Street, Near Manikundu, Kumbakonam, Tamil Nadu 612001",
    "phone": "Dr. S. Nagakeerthana M.D. DVL Dermatologist NK SKIN HAIR & LASER CENTRE Skin doctor",
    "hours": null,
    "imageUrl": "https://www.bing.com/th?id=OLC.Ypf2WdYnR95UcQ480x360&w=92&h=112&c=8&rs=1&qlt=80&cdv=1&pid=Local"
  },
  {
    "name": "Dr Padali Clinic",
    "address": "Bustand Road, Jayam Kondam, Jayankondam, Tamil Nadu 621801",
    "phone": "Dr Padali Clinic",
    "hours": null,
    "imageUrl": "https://www.bing.com/maps/geoplat/REST/v1/Imagery/Map/RoadVibrant?ms=92,112&key=AnTcaqBi2ypp0xI-OZNi4W_ik2KhjgpqioTAtXLC8GzkMBQRMlyxvxyTnd5b73im&c=en-US&ur=in&da=n&logo=n&fmt=png&od=1&shading=hill&pp=11.211035,79.362068;dfp"
  },
  {
    "name": "Almaa Siddha Care Clinic",
    "address": "Arul Praksam Herbals And Siddha, No:118, John Selvaraj Nagar, Near Koteeswaran Lodge, Kumbakonam, Tamil …",
    "phone": "Almaa Siddha Care Clinic",
    "hours": "Closed · Opens 10:00",
    "imageUrl": "https://www.bing.com/th?id=OLC.XDVeQ3Jt3dNlWA480x360&w=92&h=134&c=8&rs=1&qlt=80&cdv=1&pid=Local"
  },
  {
    "name": "Dr Dhanam Clinic",
    "address": "Bazaar Street, Jayam Kondam, Jayankondam, Tamil Nadu 621802",
    "phone": "Dr Dhanam Clinic",
    "hours": null,
    "imageUrl": "https://www.bing.com/maps/geoplat/REST/v1/Imagery/Map/RoadVibrant?ms=92,112&key=AnTcaqBi2ypp0xI-OZNi4W_ik2KhjgpqioTAtXLC8GzkMBQRMlyxvxyTnd5b73im&c=en-US&ur=in&da=n&logo=n&fmt=png&od=1&shading=hill&pp=11.211341,79.364929;dfp"
  },
  {
    "name": "Vs Speciality Clinic",
    "address": "21, Marutham, New Housing Unit, Thanjavur, Tamil Nadu, Tamil Nadu 613005",
    "phone": "Vs Speciality Clinic",
    "hours": null,
    "imageUrl": "https://www.bing.com/th?id=OLC.XCMB2XYhCIMlww480x360&w=92&h=112&c=8&rs=1&qlt=80&cdv=1&pid=Local"
  },
  {
    "name": "Sujay Clinic",
    "address": "84, Near Bus Nilayam, Tanjore Main Road Thuvakudi, Thuvakudi, Tamil Nadu",
    "phone": "Sujay Clinic",
    "hours": null,
    "imageUrl": "https://www.bing.com/maps/geoplat/REST/v1/Imagery/Map/RoadVibrant?ms=92,112&key=AnTcaqBi2ypp0xI-OZNi4W_ik2KhjgpqioTAtXLC8GzkMBQRMlyxvxyTnd5b73im&c=en-US&ur=in&da=n&logo=n&fmt=png&od=1&shading=hill&pp=10.957853,79.369812;dfp"
  },
  {
    "name": "Anbu Clinic, Jayankondam",
    "address": "Jubilee Road Jayankondam & Po, Taluk, Udayarpalayam, Tamil Nadu",
    "phone": "Anbu Clinic, Jayankondam",
    "hours": null,
    "imageUrl": "https://www.bing.com/maps/geoplat/REST/v1/Imagery/Map/RoadVibrant?ms=92,112&key=AnTcaqBi2ypp0xI-OZNi4W_ik2KhjgpqioTAtXLC8GzkMBQRMlyxvxyTnd5b73im&c=en-US&ur=in&da=n&logo=n&fmt=png&od=1&shading=hill&pp=11.041982,79.03302;dfp"
  },
  {
    "name": "Dr P Kumar M.D, D.D Consultant physician and Dermatologist | Diabetics And Skin Care Clinic",
    "address": "17-c, Kamakodi Nagar Old Palakarai Melacavery po, Kumbakonam, Tamil Nadu",
    "phone": "Dr P Kumar M.D, D.D Consultant physician and Dermatologist | Diabetics And Skin Care Clinic",
    "hours": null,
    "imageUrl": "https://th.bing.com/th?id=OLC.wu1wDkHVcWVfjw480x360&w=92&h=112&c=8&rs=1&qlt=80&cdv=1&pid=Local"
  },
  {
    "name": "Dr Agarwals Eye Clinic",
    "address": "Door No 36, Melaagraharam, Ariyalur, Tamil Nadu 621704",
    "phone": "Dr Agarwals Eye Clinic",
    "hours": "Closed · Opens 10:00",
    "imageUrl": "https://www.bing.com/maps/geoplat/REST/v1/Imagery/Map/RoadVibrant?ms=92,134&key=AnTcaqBi2ypp0xI-OZNi4W_ik2KhjgpqioTAtXLC8GzkMBQRMlyxvxyTnd5b73im&c=en-US&ur=in&da=n&logo=n&fmt=png&od=1&shading=hill&pp=11.136722,79.070969;dfp"
  },
  {
    "name": "Raja Lakshmi Clinic",
    "address": "Sh140, Virudhachalam Tholudur Road Jayamkondan Madhanathur Road, Jayankondam, Tamil Nadu 621802",
    "phone": "Raja Lakshmi Clinic",
    "hours": null,
    "imageUrl": "https://www.bing.com/maps/geoplat/REST/v1/Imagery/Map/RoadVibrant?ms=92,112&key=AnTcaqBi2ypp0xI-OZNi4W_ik2KhjgpqioTAtXLC8GzkMBQRMlyxvxyTnd5b73im&c=en-US&ur=in&da=n&logo=n&fmt=png&od=1&shading=hill&pp=11.210411,79.36245;dfp"
  },
  {
    "name": "Dr. E.Sriramraj",
    "address": "Villangara Street, Ariyalur, Tamil Nadu",
    "phone": "Dr. E.Sriramraj",
    "hours": "Closed · Opens 10:00",
    "imageUrl": "https://th.bing.com/th?id=OLC.bFRCK0phy%2f1UeA480x360&w=92&h=112&c=8&rs=1&qlt=80&cdv=1&pid=Local"
  },
  {
    "name": "Dr. Gnanasundaram",
    "address": "2Nd Street, Alagappa Nagar, Sendurai Road, Ariyalur, Tamil Nadu",
    "phone": "Dr. Gnanasundaram",
    "hours": "Closed · Opens 09:00",
    "imageUrl": "https://www.bing.com/maps/geoplat/REST/v1/Imagery/Map/RoadVibrant?ms=92,112&key=AnTcaqBi2ypp0xI-OZNi4W_ik2KhjgpqioTAtXLC8GzkMBQRMlyxvxyTnd5b73im&c=en-US&ur=in&da=n&logo=n&fmt=png&od=1&shading=hill&pp=11.139571,79.074821;dfp"
  },
  {
    "name": "Arun Children Clinic",
    "address": "Madhavapuram Thirupananthal Road, Thiruppanandal, Tamil Nadu 612504",
    "phone": "Arun Children Clinic",
    "hours": null,
    "imageUrl": "https://www.bing.com/maps/geoplat/REST/v1/Imagery/Map/RoadVibrant?ms=92,112&key=AnTcaqBi2ypp0xI-OZNi4W_ik2KhjgpqioTAtXLC8GzkMBQRMlyxvxyTnd5b73im&c=en-US&ur=in&da=n&logo=n&fmt=png&od=1&shading=hill&pp=11.093486,79.453453;dfp"
  },
  {
    "name": "Adc Skin Hospital",
    "address": "Sendurai Main Road, Ariyalur, Tamil Nadu, Tamil Nadu 621704",
    "phone": "Adc Skin Hospital",
    "hours": null,
    "imageUrl": "https://th.bing.com/th?id=OLC.hCR009yCkYwJ5w480x360&w=92&h=112&c=8&rs=1&qlt=80&cdv=1&pid=Local"
  },
  {
    "name": "A.S.Physiotherapy Clinic",
    "address": "C58, Drugstore Complex, 1, Near Busstand, Ariyalur, Tamil Nadu 621704",
    "phone": "A.S.Physiotherapy Clinic",
    "hours": null,
    "imageUrl": "https://th.bing.com/th?id=OLC.NPbn4wo9SVSGLA480x360&w=92&h=112&c=8&rs=1&qlt=80&cdv=1&pid=Local"
  },
  {
    "name": "Deepam Homoeo Clinic",
    "address": "52/2., M.A.Aziz Complex, (Opp: Sundaram Theatre), No:2 Road (or) Gandhiji Road, Mayiladuthurai 609001",
    "phone": "Deepam Homoeo Clinic",
    "hours": null,
    "imageUrl": "https://www.bing.com/maps/geoplat/REST/v1/Imagery/Map/RoadVibrant?ms=92,112&key=AnTcaqBi2ypp0xI-OZNi4W_ik2KhjgpqioTAtXLC8GzkMBQRMlyxvxyTnd5b73im&c=en-US&ur=in&da=n&logo=n&fmt=png&od=1&shading=hill&pp=11.097525,79.642685;dfp"
  },
  {
    "name": "Almaa Siddha Care Clinic",
    "address": "No.1 Annamalai Complex, Maruthi Nagar, Mayiladuturai, District, Tamil Nadu 609001",
    "phone": "Almaa Siddha Care Clinic",
    "hours": "Closed · Opens 10:00",
    "imageUrl": "https://th.bing.com/th?id=OLC.yt3NRLFnEQqw6Q480x360&w=92&h=134&c=8&rs=1&qlt=80&cdv=1&pid=Local"
  },
  {
    "name": "Dr. Santha Kumar",
    "address": "159/B, Bazaar Street. Landmark: Near Anna Statue, Ariyalur, Tamil Nadu",
    "phone": "Dr. Santha Kumar",
    "hours": "Closed · Opens 09:00",
    "imageUrl": "https://www.bing.com/th?id=OLC.oDtnE88HDYINWQ480x360&w=92&h=112&c=8&rs=1&qlt=80&cdv=1&pid=Local"
  },
  {
    "name": "Dr. S. Nagakeerthana M.D. DVL Dermatologist NK SKIN HAIR & LASER CENTRE Skin doctor",
    "address": "No.10, Kasiviswanathar North Street, Near Manikundu, Kumbakonam, Tamil Nadu 612001",
    "phone": "Dr. S. Nagakeerthana M.D. DVL Dermatologist NK SKIN HAIR & LASER CENTRE Skin doctor",
    "hours": null,
    "imageUrl": "https://www.bing.com/th?id=OLC.Ypf2WdYnR95UcQ480x360&w=92&h=112&c=8&rs=1&qlt=80&cdv=1&pid=Local"
  }
]