[
  {
    "name": "Dr. Arif Qazi",
    "address": "Jublee Park, Near Pan Chakki, Aurangabad, Maharashtra",
    "phone": "Dr. Arif Qazi",
    "hours": "Closed · Opens 19:00",
    "imageUrl": "https://www.bing.com/th?id=OLC.iwPdOA0LfgbEpA480x360&w=92&h=112&c=8&rs=1&qlt=80&cdv=1&pid=Local"
  },
  {
    "name": "Dr. Ravi Manohar Phere- General Physician",
    "address": "Sai Clinic, Bhaghatsingh Nagar Road, Mayur Park, Aurangabad, Maharashtra 431003",
    "phone": "Dr. Ravi Manohar Phere- General Physician",
    "hours": "Closed · Opens 09:00",
    "imageUrl": "https://www.bing.com/maps/geoplat/REST/v1/Imagery/Map/RoadVibrant?ms=92,134&key=AnTcaqBi2ypp0xI-OZNi4W_ik2KhjgpqioTAtXLC8GzkMBQRMlyxvxyTnd5b73im&c=en-US&ur=in&da=n&logo=n&fmt=png&od=1&shading=hill&pp=19.884277,75.326675;dfp"
  },
  {
    "name": "Shuddhi Clinic Aurangabad",
    "address": "Shop No. 5, Dwarika Complex, Mahesh Nagar, Jalna Road, Opposite SFS School, Aurangabad, Maharashtr…",
    "phone": "Shuddhi Clinic Aurangabad",
    "hours": "Closed · Opens 09:00",
    "imageUrl": "https://www.bing.com/th?id=OLC.BaMbjygXPD%2fkrA480x360&w=92&h=134&c=8&rs=1&qlt=80&cdv=1&pid=Local"
  },
  {
    "name": "Rao Clinic. Dr Shriniwas Rao.",
    "address": "New Gulmandi Road, B/h Megdhoot Hotel, Dalalwadi, Aurangabad, Maharashtra, Maharashtra 431001",
    "phone": "Rao Clinic. Dr Shriniwas Rao.",
    "hours": null,
    "imageUrl": "https://www.bing.com/th?id=OLC.Cv7cpHf7XJ2vgA480x360&w=92&h=112&c=8&rs=1&qlt=80&cdv=1&pid=Local"
  },
  {
    "name": "Maroof clinic",
    "address": "Beside Baba Bakers Police Mess Road kat kat Gate, Aurangabad, Maharashtra 431001",
    "phone": "Maroof clinic",
    "hours": "Closed · Opens 09:00",
    "imageUrl": "https://www.bing.com/th?id=OLC.DXB6%2bSLRXv3PCw480x360&w=92&h=134&c=8&rs=1&qlt=80&cdv=1&pid=Local"
  },
  {
    "name": "Dr. Anand S Dank",
    "address": "SPS Square, NEW Usmanpura, Near Deogiri Bank, in Front of Kalash Mangal Karyalay, Aurangabad, Mahara…",
    "phone": "Dr. Anand S Dank",
    "hours": "Closed · Opens 18:00",
    "imageUrl": "https://www.bing.com/maps/geoplat/REST/v1/Imagery/Map/RoadVibrant?ms=92,134&key=AnTcaqBi2ypp0xI-OZNi4W_ik2KhjgpqioTAtXLC8GzkMBQRMlyxvxyTnd5b73im&c=en-US&ur=in&da=n&logo=n&fmt=png&od=1&shading=hill&pp=19.847496,75.362968;dfp"
  },
  {
    "name": "DR Krishna's Medi-Clinic",
    "address": "Shop no. 5, Chetna Tower, Zambad Estate, Near Roplekar Hospital, Aurangabad, Maharashtra 431005",
    "phone": "DR Krishna's Medi-Clinic",
    "hours": null,
    "imageUrl": "https://th.bing.com/th?id=OLC.ORlWHXeupzk9hw480x360&w=92&h=112&c=8&rs=1&qlt=80&cdv=1&pid=Local"
  },
  {
    "name": "Dr. Satyam Saurabh",
    "address": "Main Gali, Aurangabad, Maharashtra",
    "phone": "Dr. Satyam Saurabh",
    "hours": "Opens in 5 mins",
    "imageUrl": "https://www.bing.com/maps/geoplat/REST/v1/Imagery/Map/RoadVibrant?ms=92,112&key=AnTcaqBi2ypp0xI-OZNi4W_ik2KhjgpqioTAtXLC8GzkMBQRMlyxvxyTnd5b73im&c=en-US&ur=in&da=n&logo=n&fmt=png&od=1&shading=hill&pp=19.876165,75.343315;dfp"
  },
  {
    "name": "Dr Sachin Mohanrao Mukhedkar",
    "address": "No 43 Beed Bypass Road, Aurangabad, Maharashtra 431010",
    "phone": "Dr Sachin Mohanrao Mukhedkar",
    "hours": "Closed · Opens 09:00",
    "imageUrl": "https://th.bing.com/th?id=OLC.5itJ%2bc%2bXuARatw480x360&w=92&h=134&c=8&rs=1&qlt=80&cdv=1&pid=Local"
  },
  {
    "name": "Dr. Satish Mundada",
    "address": "Apna Bazaar, Building No. 1, First Floor, Opposite Bafna Jewellers, Beside T&T gym, Akashwani Chowk, Jalna …",
    "phone": "Dr. Satish Mundada",
    "hours": "Closed · Opens 10:30",
    "imageUrl": "https://th.bing.com/th?id=OLC.ioGEOTpT5%2fMcXA480x360&w=92&h=134&c=8&rs=1&qlt=80&cdv=1&pid=Local"
  },
  {
    "name": "Dr. Batra's Homeopathy Clinic",
    "address": "SN 213, 1st Floor, Tapadiya City Centre, Nirala Bazar, Aurangabad, Maharashtra 431001",
    "phone": "Dr. Batra's Homeopathy Clinic",
    "hours": "Closed · Opens 11:00",
    "imageUrl": "https://th.bing.com/th?id=OLC.l4XyTKGFsMrPjQ480x360&w=92&h=134&c=8&rs=1&qlt=80&cdv=1&pid=Local"
  },
  {
    "name": "Shuddhi Clinic By Acharya Manish - Best Ayurveda Doctor & Ayurvedic Treatment",
    "address": "Shop No. 5 Dwarika Complex, Mahesh Nagar, Jalna Road, Opp. S.F.S. School, Aurangabad, Maharashtra",
    "phone": "Shuddhi Clinic By Acharya Manish - Best Ayurveda Doctor & Ayurvedic Treatment",
    "hours": null,
    "imageUrl": "https://www.bing.com/maps/geoplat/REST/v1/Imagery/Map/RoadVibrant?ms=92,112&key=AnTcaqBi2ypp0xI-OZNi4W_ik2KhjgpqioTAtXLC8GzkMBQRMlyxvxyTnd5b73im&c=en-US&ur=in&da=n&logo=n&fmt=png&od=1&shading=hill&pp=19.873585,75.328781;dfp"
  },
  {
    "name": "Dr. Ramakant H. Bembde",
    "address": "14, Beed Bypass Road, Landmark: Near Renukamata Mandir, Aurangabad 431005",
    "phone": "Dr. Ramakant H. Bembde",
    "hours": "Closed · Opens 09:00",
    "imageUrl": "https://th.bing.com/th?id=OLC.VAeliDkTC%2bQH4Q480x360&w=92&h=134&c=8&rs=1&qlt=80&cdv=1&pid=Local"
  },
  {
    "name": "Dr. Milind K.Kulkarni",
    "address": "Emrald City Chowk, Aurangabad, Maharashtra",
    "phone": "Dr. Milind K.Kulkarni",
    "hours": "Closed · Opens 09:00",
    "imageUrl": "https://th.bing.com/th?id=OLC.4825pZFq552Dcw480x360&w=92&h=112&c=8&rs=1&qlt=80&cdv=1&pid=Local"
  },
  {
    "name": "Dr. Yashika Arora",
    "address": "Guru Ganesh Nagar, Aurangabad, Maharashtra",
    "phone": "Dr. Yashika Arora",
    "hours": "Closed · Opens 09:00",
    "imageUrl": "https://www.bing.com/maps/geoplat/REST/v1/Imagery/Map/RoadVibrant?ms=92,112&key=AnTcaqBi2ypp0xI-OZNi4W_ik2KhjgpqioTAtXLC8GzkMBQRMlyxvxyTnd5b73im&c=en-US&ur=in&da=n&logo=n&fmt=png&od=1&shading=hill&pp=19.895599,75.318649;dfp"
  },
  {
    "name": "Dr Madhu Singla (Hange) Best Neurologist | paralysis specialist doctor | Fits specialist doctor",
    "address": "Matrix Buisness Center, Kalda Corner, Chetana Nagar, Sindhi Colony, Aurangabad, Maharashtra",
    "phone": "Dr Madhu Singla (Hange) Best Neurologist | paralysis specialist doctor | Fits specialist doctor",
    "hours": null,
    "imageUrl": "https://www.bing.com/maps/geoplat/REST/v1/Imagery/Map/RoadVibrant?ms=92,112&key=AnTcaqBi2ypp0xI-OZNi4W_ik2KhjgpqioTAtXLC8GzkMBQRMlyxvxyTnd5b73im&c=en-US&ur=in&da=n&logo=n&fmt=png&od=1&shading=hill&pp=19.867695,75.336174;dfp"
  },
  {
    "name": "Vertigo Clinic",
    "address": "Dhan Laxmi Comples, Osmanpura, Aurangabad, Maharashtra 431005",
    "phone": "Vertigo Clinic",
    "hours": "Closed · Opens 10:00",
    "imageUrl": "https://th.bing.com/th?id=OLC.9%2fFbGi9XaoMHuA480x360&w=92&h=134&c=8&rs=1&qlt=80&cdv=1&pid=Local"
  },
  {
    "name": "Dr. Ram Mahadev Chilgar",
    "address": "43, Bajaj Marg, Beed Bypass Road, Satara Parisar, Aurangabad, Maharashtra 431005, Aurangabad, Mahar…",
    "phone": "Dr. Ram Mahadev Chilgar",
    "hours": "Closed · Opens 15:00",
    "imageUrl": "https://th.bing.com/th?id=OLC.zQwu%2bQebVLlWmw480x360&w=92&h=112&c=8&rs=1&qlt=80&cdv=1&pid=Local"
  },
  {
    "name": "Dr. Arif Qazi",
    "address": "Jublee Park, Near Pan Chakki, Aurangabad, Maharashtra",
    "phone": "Dr. Arif Qazi",
    "hours": "Closed · Opens 19:00",
    "imageUrl": "https://www.bing.com/th?id=OLC.iwPdOA0LfgbEpA480x360&w=92&h=112&c=8&rs=1&qlt=80&cdv=1&pid=Local"
  },
  {
    "name": "Dr. Ravi Manohar Phere- General Physician",
    "address": "Sai Clinic, Bhaghatsingh Nagar Road, Mayur Park, Aurangabad, Maharashtra 431003",
    "phone": "Dr. Ravi Manohar Phere- General Physician",
    "hours": "Closed · Opens 09:00",
    "imageUrl": "https://www.bing.com/maps/geoplat/REST/v1/Imagery/Map/RoadVibrant?ms=92,134&key=AnTcaqBi2ypp0xI-OZNi4W_ik2KhjgpqioTAtXLC8GzkMBQRMlyxvxyTnd5b73im&c=en-US&ur=in&da=n&logo=n&fmt=png&od=1&shading=hill&pp=19.884277,75.326675;dfp"
  }
]