[
  {
    "name": "Rao Clinic. Dr Shriniwas Rao.",
    "address": "New Gulmandi Road, B/h Megdhoot Hotel, Dalalwadi, Aurangabad, Maharashtra, Maharashtra 431001",
    "phone": "Rao Clinic. Dr Shriniwas Rao.",
    "hours": null,
    "imageUrl": "https://www.bing.com/th?id=OLC.Cv7cpHf7XJ2vgA480x360&w=92&h=112&c=8&rs=1&qlt=80&cdv=1&pid=Local"
  },
  {
    "name": "The Physician's Clinic - Best General Physician | Thyroid Specialist | Online Consultation | ICU Doctor",
    "address": "Office No. 4, 5, First Floor, Manasarovar Arcade., Near, Eknath Rang Mandir Rd, Above Ganga Medico, New U…",
    "phone": "The Physician's Clinic - Best General Physician | Thyroid Specialist | Online Consultation | ICU Doctor",
    "hours": null,
    "imageUrl": "https://www.bing.com/maps/geoplat/REST/v1/Imagery/Map/RoadVibrant?ms=92,112&key=AnTcaqBi2ypp0xI-OZNi4W_ik2KhjgpqioTAtXLC8GzkMBQRMlyxvxyTnd5b73im&c=en-US&ur=in&da=n&logo=n&fmt=png&od=1&shading=hill&pp=19.869806,75.32785;dfp"
  },
  {
    "name": "Dr. Ravi Manohar Phere- General Physician",
    "address": "Sai Clinic, Bhaghatsingh Nagar Road, Mayur Park, Aurangabad, Maharashtra 431003",
    "phone": "Dr. Ravi Manohar Phere- General Physician",
    "hours": "Closed · Opens 09:00",
    "imageUrl": "https://www.bing.com/maps/geoplat/REST/v1/Imagery/Map/RoadVibrant?ms=92,134&key=AnTcaqBi2ypp0xI-OZNi4W_ik2KhjgpqioTAtXLC8GzkMBQRMlyxvxyTnd5b73im&c=en-US&ur=in&da=n&logo=n&fmt=png&od=1&shading=hill&pp=19.884277,75.326675;dfp"
  },
  {
    "name": "Dr. Arif Qazi",
    "address": "Jublee Park, Near Pan Chakki, Aurangabad, Maharashtra",
    "phone": "Dr. Arif Qazi",
    "hours": "Closed · Opens 19:00",
    "imageUrl": "https://www.bing.com/th?id=OLC.iwPdOA0LfgbEpA480x360&w=92&h=112&c=8&rs=1&qlt=80&cdv=1&pid=Local"
  },
  {
    "name": "Maroof clinic",
    "address": "Beside Baba Bakers Police Mess Road kat kat Gate, Aurangabad, Maharashtra 431001",
    "phone": "Maroof clinic",
    "hours": "Closed · Opens 09:00",
    "imageUrl": "https://www.bing.com/th?id=OLC.DXB6%2bSLRXv3PCw480x360&w=92&h=134&c=8&rs=1&qlt=80&cdv=1&pid=Local"
  },
  {
    "name": "Dr. Suhas J Bardapurkar",
    "address": "Sai Vishav Bhawan, 15, Aurangabad, Maharashtra 431001",
    "phone": "Dr. Suhas J Bardapurkar",
    "hours": "Closed · Opens 10:30",
    "imageUrl": "https://www.bing.com/maps/geoplat/REST/v1/Imagery/Map/RoadVibrant?ms=92,134&key=AnTcaqBi2ypp0xI-OZNi4W_ik2KhjgpqioTAtXLC8GzkMBQRMlyxvxyTnd5b73im&c=en-US&ur=in&da=n&logo=n&fmt=png&od=1&shading=hill&pp=19.879313,75.325455;dfp"
  },
  {
    "name": "Dr. S. V. Santpure",
    "address": "Centre for Joint Replacement Seven Hill, Jalna Road, Shrinath Nagar, Near Soni Krishna Hospital, Behind Gu…",
    "phone": "Dr. S. V. Santpure",
    "hours": "Closed · Opens 19:00",
    "imageUrl": "https://www.bing.com/maps/geoplat/REST/v1/Imagery/Map/RoadVibrant?ms=92,112&key=AnTcaqBi2ypp0xI-OZNi4W_ik2KhjgpqioTAtXLC8GzkMBQRMlyxvxyTnd5b73im&c=en-US&ur=in&da=n&logo=n&fmt=png&od=1&shading=hill&pp=19.877464,75.349281;dfp"
  },
  {
    "name": "Dr Milind P Dunakhe",
    "address": "9/10, Adalat Road, Hotel Aurangabad Ashoka Parisar, Chintamani Colony, Aurangabad, Maharashtra",
    "phone": "Dr Milind P Dunakhe",
    "hours": "Closed · Opens 11:00",
    "imageUrl": "https://www.bing.com/maps/geoplat/REST/v1/Imagery/Map/RoadVibrant?ms=92,134&key=AnTcaqBi2ypp0xI-OZNi4W_ik2KhjgpqioTAtXLC8GzkMBQRMlyxvxyTnd5b73im&c=en-US&ur=in&da=n&logo=n&fmt=png&od=1&shading=hill&pp=19.8729,75.317802;dfp"
  },
  {
    "name": "DR Krishna's Medi-Clinic",
    "address": "Shop no. 5, Chetna Tower, Zambad Estate, Near Roplekar Hospital, Aurangabad, Maharashtra 431005",
    "phone": "DR Krishna's Medi-Clinic",
    "hours": null,
    "imageUrl": "https://th.bing.com/th?id=OLC.ORlWHXeupzk9hw480x360&w=92&h=112&c=8&rs=1&qlt=80&cdv=1&pid=Local"
  },
  {
    "name": "Dr. Satish Mundada",
    "address": "Apna Bazaar, Building No. 1, First Floor, Opposite Bafna Jewellers, Beside T&T gym, Akashwani Chowk, Jalna …",
    "phone": "Dr. Satish Mundada",
    "hours": "Closed · Opens 10:30",
    "imageUrl": "https://th.bing.com/th?id=OLC.ioGEOTpT5%2fMcXA480x360&w=92&h=134&c=8&rs=1&qlt=80&cdv=1&pid=Local"
  },
  {
    "name": "Dr. Chetan D Rathi",
    "address": "Motiwala Square, Aakashwani Signal, Jalna Road, Aurangabad, Maharashtra",
    "phone": "Dr. Chetan D Rathi",
    "hours": "Closed · Opens 08:00",
    "imageUrl": "https://www.bing.com/maps/geoplat/REST/v1/Imagery/Map/RoadVibrant?ms=92,112&key=AnTcaqBi2ypp0xI-OZNi4W_ik2KhjgpqioTAtXLC8GzkMBQRMlyxvxyTnd5b73im&c=en-US&ur=in&da=n&logo=n&fmt=png&od=1&shading=hill&pp=19.876095,75.345421;dfp"
  },
  {
    "name": "Dr. Ashish Bhattacharya",
    "address": "Shreya Nagar Road, New Osmanpura, Landmark: Near Utsav Mangal Karyalay, Aurangabad, Maharashtra",
    "phone": "Dr. Ashish Bhattacharya",
    "hours": "Closed · Opens 18:00",
    "imageUrl": "https://th.bing.com/th?id=OLC.AkNe%2br818ftcKA480x360&w=92&h=134&c=8&rs=1&qlt=80&cdv=1&pid=Local"
  },
  {
    "name": "Dr. Milind N Kharche - Best Cardiologist | Heart specialist",
    "address": "United Ciigma Hospital, Aurangabad, Maharashtra 431005",
    "phone": "Dr. Milind N Kharche - Best Cardiologist | Heart specialist",
    "hours": "Closed · Opens 09:30",
    "imageUrl": "https://th.bing.com/th?id=OLC.mbjRK0Hr%2fQonxg480x360&w=92&h=134&c=8&rs=1&qlt=80&cdv=1&pid=Local"
  },
  {
    "name": "Dr. Chandrashekhar Jagannath Tamane",
    "address": "6, Shivalaya, Ashok Nagar, Landmark: Near Jawahar Nagar Police Station, Aurangabad 431005",
    "phone": "Dr. Chandrashekhar Jagannath Tamane",
    "hours": "Closed · Opens 10:30",
    "imageUrl": "https://th.bing.com/th?id=OLC.6j4FQTKSvCCmtw480x360&w=92&h=112&c=8&rs=1&qlt=80&cdv=1&pid=Local"
  },
  {
    "name": "Dr Sachin Mohanrao Mukhedkar",
    "address": "No 43 Beed Bypass Road, Aurangabad, Maharashtra 431010",
    "phone": "Dr Sachin Mohanrao Mukhedkar",
    "hours": "Closed · Opens 09:00",
    "imageUrl": "https://th.bing.com/th?id=OLC.5itJ%2bc%2bXuARatw480x360&w=92&h=134&c=8&rs=1&qlt=80&cdv=1&pid=Local"
  },
  {
    "name": "Dr. Milind K.Kulkarni",
    "address": "Emrald City Chowk, Aurangabad, Maharashtra",
    "phone": "Dr. Milind K.Kulkarni",
    "hours": "Closed · Opens 09:00",
    "imageUrl": "https://th.bing.com/th?id=OLC.4825pZFq552Dcw480x360&w=92&h=112&c=8&rs=1&qlt=80&cdv=1&pid=Local"
  },
  {
    "name": "Dr. Vijay Sopanrao Dahiphale",
    "address": "Adalat Road, Near Baba Petrol Pump, Aurangabad, Maharashtra",
    "phone": "Dr. Vijay Sopanrao Dahiphale",
    "hours": "Closed · Opens tomorrow 12:00",
    "imageUrl": "https://www.bing.com/maps/geoplat/REST/v1/Imagery/Map/RoadVibrant?ms=92,112&key=AnTcaqBi2ypp0xI-OZNi4W_ik2KhjgpqioTAtXLC8GzkMBQRMlyxvxyTnd5b73im&c=en-US&ur=in&da=n&logo=n&fmt=png&od=1&shading=hill&pp=19.872339,75.321571;dfp"
  },
  {
    "name": "Dr. Batra's Homeopathy Clinic",
    "address": "SN 213, 1st Floor, Tapadiya City Centre, Nirala Bazar, Aurangabad, Maharashtra 431001",
    "phone": "Dr. Batra's Homeopathy Clinic",
    "hours": "Closed · Opens 11:00",
    "imageUrl": "https://th.bing.com/th?id=OLC.l4XyTKGFsMrPjQ480x360&w=92&h=134&c=8&rs=1&qlt=80&cdv=1&pid=Local"
  },
  {
    "name": "Rao Clinic. Dr Shriniwas Rao.",
    "address": "New Gulmandi Road, B/h Megdhoot Hotel, Dalalwadi, Aurangabad, Maharashtra, Maharashtra 431001",
    "phone": "Rao Clinic. Dr Shriniwas Rao.",
    "hours": null,
    "imageUrl": "https://www.bing.com/th?id=OLC.Cv7cpHf7XJ2vgA480x360&w=92&h=112&c=8&rs=1&qlt=80&cdv=1&pid=Local"
  },
  {
    "name": "The Physician's Clinic - Best General Physician | Thyroid Specialist | Online Consultation | ICU Doctor",
    "address": "Office No. 4, 5, First Floor, Manasarovar Arcade., Near, Eknath Rang Mandir Rd, Above Ganga Medico, New U…",
    "phone": "The Physician's Clinic - Best General Physician | Thyroid Specialist | Online Consultation | ICU Doctor",
    "hours": null,
    "imageUrl": "https://www.bing.com/maps/geoplat/REST/v1/Imagery/Map/RoadVibrant?ms=92,112&key=AnTcaqBi2ypp0xI-OZNi4W_ik2KhjgpqioTAtXLC8GzkMBQRMlyxvxyTnd5b73im&c=en-US&ur=in&da=n&logo=n&fmt=png&od=1&shading=hill&pp=19.869806,75.32785;dfp"
  }
]