[
  {
    "name": "Dr. B R Ambedkar Dalit Samiti",
    "address": "Moh Banarsidas Auraiya, Auraiya, Uttar Pradesh 206122",
    "phone": "Dr. B R Ambedkar Dalit Samiti",
    "hours": null,
    "imageUrl": "https://www.bing.com/maps/geoplat/REST/v1/Imagery/Map/RoadVibrant?ms=92,112&key=AnTcaqBi2ypp0xI-OZNi4W_ik2KhjgpqioTAtXLC8GzkMBQRMlyxvxyTnd5b73im&c=en-US&ur=in&da=n&logo=n&fmt=png&od=1&shading=hill&pp=26.469999,79.519997;dfp"
  },
  {
    "name": "Pushpanjali Hospital Auraiya",
    "address": "SH-21, Auraiya, Uttar Pradesh 206122",
    "phone": "Pushpanjali Hospital Auraiya",
    "hours": null,
    "imageUrl": "https://www.bing.com/th?id=OLC.j6cnDo4bzrIiug480x360&w=92&h=112&c=8&rs=1&qlt=80&cdv=1&pid=Local"
  },
  {
    "name": "Dr. Prashant Shukla Clinic",
    "address": "Rautiyapur, Sh21 Dibiyapur Auraiya Road, Auraiya, Uttar Pradesh 206122",
    "phone": "Dr. Prashant Shukla Clinic",
    "hours": null,
    "imageUrl": "https://www.bing.com/maps/geoplat/REST/v1/Imagery/Map/RoadVibrant?ms=92,112&key=AnTcaqBi2ypp0xI-OZNi4W_ik2KhjgpqioTAtXLC8GzkMBQRMlyxvxyTnd5b73im&c=en-US&ur=in&da=n&logo=n&fmt=png&od=1&shading=hill&pp=26.467493,79.516144;dfp"
  },
  {
    "name": "Dr. Roy Ayur Clinic - World Best & Top Sexologist",
    "address": "Satteshwar, Tilak Nagar, Auraiya, Uttar Pradesh",
    "phone": "Dr. Roy Ayur Clinic - World Best & Top Sexologist",
    "hours": null,
    "imageUrl": "https://www.bing.com/maps/geoplat/REST/v1/Imagery/Map/RoadVibrant?ms=92,112&key=AnTcaqBi2ypp0xI-OZNi4W_ik2KhjgpqioTAtXLC8GzkMBQRMlyxvxyTnd5b73im&c=en-US&ur=in&da=n&logo=n&fmt=png&od=1&shading=hill&pp=26.460701,79.510498;dfp"
  },
  {
    "name": "Pushpanjali Clinic",
    "address": "Phaphund Local Main Road, Hazi Bharat Petrolium, Tilak Nagar, Auraiya, Uttar Pradesh 206120",
    "phone": "Pushpanjali Clinic",
    "hours": null,
    "imageUrl": "https://www.bing.com/maps/geoplat/REST/v1/Imagery/Map/RoadVibrant?ms=92,112&key=AnTcaqBi2ypp0xI-OZNi4W_ik2KhjgpqioTAtXLC8GzkMBQRMlyxvxyTnd5b73im&c=en-US&ur=in&da=n&logo=n&fmt=png&od=1&shading=hill&pp=26.459772,79.501534;dfp"
  },
  {
    "name": "Shree Govind Hospital",
    "address": "Sh21 Road, Auraiya, Uttar Pradesh 206122",
    "phone": "Shree Govind Hospital",
    "hours": null,
    "imageUrl": "https://www.bing.com/th?id=OLC.xkzYm0rUpGf2kA480x360&w=92&h=112&c=8&rs=1&qlt=80&cdv=1&pid=Local"
  },
  {
    "name": "Divya Clinic",
    "address": "Purana Etawah Road, Shree Raghunath Mandir, Auraiya, Uttar Pradesh 206122",
    "phone": "Divya Clinic",
    "hours": null,
    "imageUrl": "https://www.bing.com/maps/geoplat/REST/v1/Imagery/Map/RoadVibrant?ms=92,112&key=AnTcaqBi2ypp0xI-OZNi4W_ik2KhjgpqioTAtXLC8GzkMBQRMlyxvxyTnd5b73im&c=en-US&ur=in&da=n&logo=n&fmt=png&od=1&shading=hill&pp=26.466106,79.504646;dfp"
  },
  {
    "name": "Baghel Clinic",
    "address": "Brahm Nagar, Nh2 Kanpur Agra Road, Auraiya, Uttar Pradesh 206122",
    "phone": "Baghel Clinic",
    "hours": null,
    "imageUrl": "https://www.bing.com/maps/geoplat/REST/v1/Imagery/Map/RoadVibrant?ms=92,112&key=AnTcaqBi2ypp0xI-OZNi4W_ik2KhjgpqioTAtXLC8GzkMBQRMlyxvxyTnd5b73im&c=en-US&ur=in&da=n&logo=n&fmt=png&od=1&shading=hill&pp=26.456131,79.517578;dfp"
  },
  {
    "name": "Sanjivni Clinic",
    "address": "Phaphund Road, City Complex, Govindnagar Auraiya, Auraiya, Uttar Pradesh 206122",
    "phone": "Sanjivni Clinic",
    "hours": null,
    "imageUrl": "https://www.bing.com/maps/geoplat/REST/v1/Imagery/Map/RoadVibrant?ms=92,112&key=AnTcaqBi2ypp0xI-OZNi4W_ik2KhjgpqioTAtXLC8GzkMBQRMlyxvxyTnd5b73im&c=en-US&ur=in&da=n&logo=n&fmt=png&od=1&shading=hill&pp=26.466061,79.515099;dfp"
  },
  {
    "name": "Niharika Clinic",
    "address": "Satteshwar Muhal, Auraiya, Uttar Pradesh 206122",
    "phone": "Niharika Clinic",
    "hours": null,
    "imageUrl": "https://www.bing.com/maps/geoplat/REST/v1/Imagery/Map/RoadVibrant?ms=92,112&key=AnTcaqBi2ypp0xI-OZNi4W_ik2KhjgpqioTAtXLC8GzkMBQRMlyxvxyTnd5b73im&c=en-US&ur=in&da=n&logo=n&fmt=png&od=1&shading=hill&pp=26.465809,79.504433;dfp"
  },
  {
    "name": "Dr Lal PathLabs - Patient Service Centre",
    "address": "Ground Floor, Hashmat Nagar, Auraiya, Uttar Pradesh 206122",
    "phone": "Dr Lal PathLabs - Patient Service Centre",
    "hours": "Opens in 5 mins",
    "imageUrl": "https://www.bing.com/maps/geoplat/REST/v1/Imagery/Map/RoadVibrant?ms=92,134&key=AnTcaqBi2ypp0xI-OZNi4W_ik2KhjgpqioTAtXLC8GzkMBQRMlyxvxyTnd5b73im&c=en-US&ur=in&da=n&logo=n&fmt=png&od=1&shading=hill&pp=26.460346,79.511253;dfp"
  },
  {
    "name": "Saumya Diagnostic Centre",
    "address": "Phaphund Road, Indian Overseas Bank, Munsif Court, Auraiya, Uttar Pradesh 206122",
    "phone": "Saumya Diagnostic Centre",
    "hours": null,
    "imageUrl": "https://www.bing.com/maps/geoplat/REST/v1/Imagery/Map/RoadVibrant?ms=92,112&key=AnTcaqBi2ypp0xI-OZNi4W_ik2KhjgpqioTAtXLC8GzkMBQRMlyxvxyTnd5b73im&c=en-US&ur=in&da=n&logo=n&fmt=png&od=1&shading=hill&pp=26.469427,79.503212;dfp"
  },
  {
    "name": "Gupta Pathology Centre",
    "address": "Yamuna Road, Khanpur Chowk, Om Nagar, Auraiya, Uttar Pradesh 206122",
    "phone": "Gupta Pathology Centre",
    "hours": null,
    "imageUrl": "https://www.bing.com/maps/geoplat/REST/v1/Imagery/Map/RoadVibrant?ms=92,112&key=AnTcaqBi2ypp0xI-OZNi4W_ik2KhjgpqioTAtXLC8GzkMBQRMlyxvxyTnd5b73im&c=en-US&ur=in&da=n&logo=n&fmt=png&od=1&shading=hill&pp=26.453438,79.504135;dfp"
  },
  {
    "name": "Jerath Path Labs & Allergy Testing Centre",
    "address": "Shop No.22, Ist Floor, Nagar Palika Super Market, Etawah Kanpur Hwy, Auraiya, Uttar Pradesh",
    "phone": "Jerath Path Labs & Allergy Testing Centre",
    "hours": null,
    "imageUrl": "https://th.bing.com/th?id=OLC.uwww%2b84bN261PA480x360&w=92&h=112&c=8&rs=1&qlt=80&cdv=1&pid=Local"
  },
  {
    "name": "Dr. Shyam Singh",
    "address": "Indra Nagar, Auraiya, Uttar Pradesh",
    "phone": "Dr. Shyam Singh",
    "hours": "Closed Â· Opens 10:00",
    "imageUrl": "https://th.bing.com/th?id=OLC.XcBqYuK6cnSBIw480x360&w=92&h=112&c=8&rs=1&qlt=80&cdv=1&pid=Local"
  },
  {
    "name": "Gyan Pathology",
    "address": "Purana Road, Lotus Valley School, Auraiya Road, Auraiya, Uttar Pradesh 206122",
    "phone": "Gyan Pathology",
    "hours": null,
    "imageUrl": "https://www.bing.com/maps/geoplat/REST/v1/Imagery/Map/RoadVibrant?ms=92,112&key=AnTcaqBi2ypp0xI-OZNi4W_ik2KhjgpqioTAtXLC8GzkMBQRMlyxvxyTnd5b73im&c=en-US&ur=in&da=n&logo=n&fmt=png&od=1&shading=hill&pp=26.458843,79.507622;dfp"
  },
  {
    "name": "Dr. B R Ambedkar Dalit Samiti",
    "address": "Moh Banarsidas Auraiya, Auraiya, Uttar Pradesh 206122",
    "phone": "Dr. B R Ambedkar Dalit Samiti",
    "hours": null,
    "imageUrl": "https://www.bing.com/maps/geoplat/REST/v1/Imagery/Map/RoadVibrant?ms=92,112&key=AnTcaqBi2ypp0xI-OZNi4W_ik2KhjgpqioTAtXLC8GzkMBQRMlyxvxyTnd5b73im&c=en-US&ur=in&da=n&logo=n&fmt=png&od=1&shading=hill&pp=26.469999,79.519997;dfp"
  },
  {
    "name": "Pushpanjali Hospital Auraiya",
    "address": "SH-21, Auraiya, Uttar Pradesh 206122",
    "phone": "Pushpanjali Hospital Auraiya",
    "hours": null,
    "imageUrl": "https://www.bing.com/th?id=OLC.j6cnDo4bzrIiug480x360&w=92&h=112&c=8&rs=1&qlt=80&cdv=1&pid=Local"
  },
  {
    "name": "Dr. Prashant Shukla Clinic",
    "address": "Rautiyapur, Sh21 Dibiyapur Auraiya Road, Auraiya, Uttar Pradesh 206122",
    "phone": "Dr. Prashant Shukla Clinic",
    "hours": null,
    "imageUrl": "https://www.bing.com/maps/geoplat/REST/v1/Imagery/Map/RoadVibrant?ms=92,112&key=AnTcaqBi2ypp0xI-OZNi4W_ik2KhjgpqioTAtXLC8GzkMBQRMlyxvxyTnd5b73im&c=en-US&ur=in&da=n&logo=n&fmt=png&od=1&shading=hill&pp=26.467493,79.516144;dfp"
  },
  {
    "name": "Dr. Roy Ayur Clinic - World Best & Top Sexologist",
    "address": "Satteshwar, Tilak Nagar, Auraiya, Uttar Pradesh",
    "phone": "Dr. Roy Ayur Clinic - World Best & Top Sexologist",
    "hours": null,
    "imageUrl": "https://www.bing.com/maps/geoplat/REST/v1/Imagery/Map/RoadVibrant?ms=92,112&key=AnTcaqBi2ypp0xI-OZNi4W_ik2KhjgpqioTAtXLC8GzkMBQRMlyxvxyTnd5b73im&c=en-US&ur=in&da=n&logo=n&fmt=png&od=1&shading=hill&pp=26.460701,79.510498;dfp"
  }
]