[
  {
    "name": "Dr Abdullah siddiqui",
    "address": "Roadways, Sanjeevini Medical Center, Opp- Civil Court Gate (North, Azamgarh, Uttar Pradesh",
    "phone": "Dr Abdullah siddiqui",
    "hours": null,
    "imageUrl": "https://www.bing.com/maps/geoplat/REST/v1/Imagery/Map/RoadVibrant?ms=92,112&key=AnTcaqBi2ypp0xI-OZNi4W_ik2KhjgpqioTAtXLC8GzkMBQRMlyxvxyTnd5b73im&c=en-US&ur=in&da=n&logo=n&fmt=png&od=1&shading=hill&pp=26.052935,83.180557;dfp"
  },
  {
    "name": "Alig Doctor Clinic",
    "address": "01, Hirnayi Gulleegadh, Post Jameen Rasulpur, Bilariyaganj, Azamgarh, Uttar Pradesh 276127",
    "phone": "Alig Doctor Clinic",
    "hours": null,
    "imageUrl": "https://www.bing.com/maps/geoplat/REST/v1/Imagery/Map/RoadVibrant?ms=92,112&key=AnTcaqBi2ypp0xI-OZNi4W_ik2KhjgpqioTAtXLC8GzkMBQRMlyxvxyTnd5b73im&c=en-US&ur=in&da=n&logo=n&fmt=png&od=1&shading=hill&pp=26.076839,83.186562;dfp"
  },
  {
    "name": "Dr. D.P Singh | General Physician | Apollo pharmacy Clinic",
    "address": "Rama Sadan Polyclinic, 294F+GGG, Sonpura, Uttar Pradesh, Azamgarh, Madhya Pradesh 276001",
    "phone": "Dr. D.P Singh | General Physician | Apollo pharmacy Clinic",
    "hours": "Closed · Opens 14:00",
    "imageUrl": "https://www.bing.com/th?id=OLC.d9R3InmWgn3QSA480x360&w=92&h=134&c=8&rs=1&qlt=80&cdv=1&pid=Local"
  },
  {
    "name": "Family Health Clinic",
    "address": "Chauk Road, Pahaalpur, Azamgarh, Uttar Pradesh 276001",
    "phone": "Family Health Clinic",
    "hours": null,
    "imageUrl": "https://www.bing.com/maps/geoplat/REST/v1/Imagery/Map/RoadVibrant?ms=92,112&key=AnTcaqBi2ypp0xI-OZNi4W_ik2KhjgpqioTAtXLC8GzkMBQRMlyxvxyTnd5b73im&c=en-US&ur=in&da=n&logo=n&fmt=png&od=1&shading=hill&pp=26.073841,83.185913;dfp"
  },
  {
    "name": "Dr. Vindhya Prakash Singh",
    "address": "Balrampur, Azamgarh, Uttar Pradesh",
    "phone": "Dr. Vindhya Prakash Singh",
    "hours": "Closed · Opens 09:30",
    "imageUrl": "https://www.bing.com/th?id=OLC.zKcQCkLjphq8Tw480x360&w=92&h=112&c=8&rs=1&qlt=80&cdv=1&pid=Local"
  },
  {
    "name": "Nisha Clinic",
    "address": "Bypass Road, Haraki Chungi, Azamgarh, Uttar Pradesh 276001",
    "phone": "Nisha Clinic",
    "hours": null,
    "imageUrl": "https://www.bing.com/maps/geoplat/REST/v1/Imagery/Map/RoadVibrant?ms=92,112&key=AnTcaqBi2ypp0xI-OZNi4W_ik2KhjgpqioTAtXLC8GzkMBQRMlyxvxyTnd5b73im&c=en-US&ur=in&da=n&logo=n&fmt=png&od=1&shading=hill&pp=26.079739,83.190536;dfp"
  },
  {
    "name": "Adarsh Clinic Dr Sharad Kumar Mishra",
    "address": "Elval Road, Nagar Palika Parishad, Azamgarh, Uttar Pradesh 276001",
    "phone": "Adarsh Clinic Dr Sharad Kumar Mishra",
    "hours": null,
    "imageUrl": "https://www.bing.com/maps/geoplat/REST/v1/Imagery/Map/RoadVibrant?ms=92,112&key=AnTcaqBi2ypp0xI-OZNi4W_ik2KhjgpqioTAtXLC8GzkMBQRMlyxvxyTnd5b73im&c=en-US&ur=in&da=n&logo=n&fmt=png&od=1&shading=hill&pp=26.063269,83.184418;dfp"
  },
  {
    "name": "Dr Randhir Singh # Sai Homoeopathic Clinic",
    "address": "(Bilariyaganj Road ) Heerapatti Azamgarh U.P, Azamgarh, Uttar Pradesh, Uttar Pradesh 276001",
    "phone": "Dr Randhir Singh # Sai Homoeopathic Clinic",
    "hours": null,
    "imageUrl": "https://www.bing.com/maps/geoplat/REST/v1/Imagery/Map/RoadVibrant?ms=92,112&key=AnTcaqBi2ypp0xI-OZNi4W_ik2KhjgpqioTAtXLC8GzkMBQRMlyxvxyTnd5b73im&c=en-US&ur=in&da=n&logo=n&fmt=png&od=1&shading=hill&pp=26.078129,83.186462;dfp"
  },
  {
    "name": "Azamgarh anika homeopathic clinic",
    "address": "Uttam Nagar, Hirapatti, Near Rahul Sanskrityan School, Azamgarh, Uttar Pradesh 276001",
    "phone": "Azamgarh anika homeopathic clinic",
    "hours": "Closed · Opens 10:00",
    "imageUrl": "https://www.bing.com/maps/geoplat/REST/v1/Imagery/Map/RoadVibrant?ms=92,112&key=AnTcaqBi2ypp0xI-OZNi4W_ik2KhjgpqioTAtXLC8GzkMBQRMlyxvxyTnd5b73im&c=en-US&ur=in&da=n&logo=n&fmt=png&od=1&shading=hill&pp=26.087053,83.186928;clcp"
  },
  {
    "name": "Shirin Clinic",
    "address": "Chauk Road, Khatri Tolla, Azamgarh, Uttar Pradesh 276001",
    "phone": "Shirin Clinic",
    "hours": null,
    "imageUrl": "https://www.bing.com/maps/geoplat/REST/v1/Imagery/Map/RoadVibrant?ms=92,112&key=AnTcaqBi2ypp0xI-OZNi4W_ik2KhjgpqioTAtXLC8GzkMBQRMlyxvxyTnd5b73im&c=en-US&ur=in&da=n&logo=n&fmt=png&od=1&shading=hill&pp=26.067518,83.181107;dfp"
  },
  {
    "name": "Prarthana Homoeopathic Clinic And Research Centre",
    "address": "Opp- Home Gaurd Office, Near Axis Bank Atm, Arazibagh, Azamgarh, Azamgarh, Uttar Pradesh, Uttar …",
    "phone": "Prarthana Homoeopathic Clinic And Research Centre",
    "hours": null,
    "imageUrl": "https://www.bing.com/maps/geoplat/REST/v1/Imagery/Map/RoadVibrant?ms=92,112&key=AnTcaqBi2ypp0xI-OZNi4W_ik2KhjgpqioTAtXLC8GzkMBQRMlyxvxyTnd5b73im&c=en-US&ur=in&da=n&logo=n&fmt=png&od=1&shading=hill&pp=26.075932,83.180099;dfp"
  },
  {
    "name": "Dr Pramod Gupta Homeopathic Clinic",
    "address": "Kaali Chaura Road, Dalalghat Chaurha, Azamgarh, Uttar Pradesh 276001",
    "phone": "Dr Pramod Gupta Homeopathic Clinic",
    "hours": null,
    "imageUrl": "https://www.bing.com/maps/geoplat/REST/v1/Imagery/Map/RoadVibrant?ms=92,112&key=AnTcaqBi2ypp0xI-OZNi4W_ik2KhjgpqioTAtXLC8GzkMBQRMlyxvxyTnd5b73im&c=en-US&ur=in&da=n&logo=n&fmt=png&od=1&shading=hill&pp=26.069969,83.187653;dfp"
  },
  {
    "name": "Dr D D Singh Child Care Clinic in front of Global Hospital, Jairampur, MAU Road, Sidhari",
    "address": "Child Care Clinic Dr D D Singh Opposite Global Hospital Jairampur, Mau Road, Sidhari, Azamgarh, Uttar Pradesh",
    "phone": "Dr D D Singh Child Care Clinic in front of Global Hospital, Jairampur, MAU Road, Sidhari",
    "hours": null,
    "imageUrl": "https://www.bing.com/maps/geoplat/REST/v1/Imagery/Map/RoadVibrant?ms=92,112&key=AnTcaqBi2ypp0xI-OZNi4W_ik2KhjgpqioTAtXLC8GzkMBQRMlyxvxyTnd5b73im&c=en-US&ur=in&da=n&logo=n&fmt=png&od=1&shading=hill&pp=26.047016,83.192101;dfp"
  },
  {
    "name": "Asha Homeopathic Clinic",
    "address": "Badarka Road, Badarka, Azamgarh, Uttar Pradesh 276001",
    "phone": "Asha Homeopathic Clinic",
    "hours": null,
    "imageUrl": "https://www.bing.com/maps/geoplat/REST/v1/Imagery/Map/RoadVibrant?ms=92,112&key=AnTcaqBi2ypp0xI-OZNi4W_ik2KhjgpqioTAtXLC8GzkMBQRMlyxvxyTnd5b73im&c=en-US&ur=in&da=n&logo=n&fmt=png&od=1&shading=hill&pp=26.071831,83.176361;dfp"
  },
  {
    "name": "Metropolis Healthcare Limited - Best Diagnostic Centre",
    "address": "Ground Floor, Narauli Sidhari Road, Near Bsp Office, Azamgarh, Uttar Pradesh 276001",
    "phone": "Metropolis Healthcare Limited - Best Diagnostic Centre",
    "hours": "Opens in 5 mins",
    "imageUrl": "https://www.bing.com/maps/geoplat/REST/v1/Imagery/Map/RoadVibrant?ms=92,134&key=AnTcaqBi2ypp0xI-OZNi4W_ik2KhjgpqioTAtXLC8GzkMBQRMlyxvxyTnd5b73im&c=en-US&ur=in&da=n&logo=n&fmt=png&od=1&shading=hill&pp=26.046124,83.179138;dfp"
  },
  {
    "name": "Sai Dental-A Complete Dental Material and Instrument Showroom",
    "address": "Mukeriganj, Below Kashi Gomti Bank, Near Vijaya Bank, Azamgarh, Uttar Pradesh 276001",
    "phone": "Sai Dental-A Complete Dental Material and Instrument Showroom",
    "hours": "Closed · Opens 10:00",
    "imageUrl": "https://th.bing.com/th?id=OLC.0x49u6yTiPDkcg480x360&w=92&h=134&c=8&rs=1&qlt=80&cdv=1&pid=Local"
  },
  {
    "name": "Dr.Seema Pandey",
    "address": "Main Road Atrauila, Dist, Azamgarh, Uttar Pradesh 223223",
    "phone": "Dr.Seema Pandey",
    "hours": null,
    "imageUrl": "https://th.bing.com/th?id=OLC.jvqbR7DJnn0tSw480x360&w=92&h=112&c=8&rs=1&qlt=80&cdv=1&pid=Local"
  },
  {
    "name": "Dr Abdullah siddiqui",
    "address": "Roadways, Sanjeevini Medical Center, Opp- Civil Court Gate (North, Azamgarh, Uttar Pradesh",
    "phone": "Dr Abdullah siddiqui",
    "hours": null,
    "imageUrl": "https://www.bing.com/maps/geoplat/REST/v1/Imagery/Map/RoadVibrant?ms=92,112&key=AnTcaqBi2ypp0xI-OZNi4W_ik2KhjgpqioTAtXLC8GzkMBQRMlyxvxyTnd5b73im&c=en-US&ur=in&da=n&logo=n&fmt=png&od=1&shading=hill&pp=26.052935,83.180557;dfp"
  },
  {
    "name": "Alig Doctor Clinic",
    "address": "01, Hirnayi Gulleegadh, Post Jameen Rasulpur, Bilariyaganj, Azamgarh, Uttar Pradesh 276127",
    "phone": "Alig Doctor Clinic",
    "hours": null,
    "imageUrl": "https://www.bing.com/maps/geoplat/REST/v1/Imagery/Map/RoadVibrant?ms=92,112&key=AnTcaqBi2ypp0xI-OZNi4W_ik2KhjgpqioTAtXLC8GzkMBQRMlyxvxyTnd5b73im&c=en-US&ur=in&da=n&logo=n&fmt=png&od=1&shading=hill&pp=26.076839,83.186562;dfp"
  },
  {
    "name": "Dr. D.P Singh | General Physician | Apollo pharmacy Clinic",
    "address": "Rama Sadan Polyclinic, 294F+GGG, Sonpura, Uttar Pradesh, Azamgarh, Madhya Pradesh 276001",
    "phone": "Dr. D.P Singh | General Physician | Apollo pharmacy Clinic",
    "hours": "Closed · Opens 14:00",
    "imageUrl": "https://www.bing.com/th?id=OLC.d9R3InmWgn3QSA480x360&w=92&h=134&c=8&rs=1&qlt=80&cdv=1&pid=Local"
  }
]