[
  {
    "name": "Dr Guled's Orthocare Hospital",
    "address": "Godi Building, Near Kerudi Hospital, Extension Area, Bagalkot, Karnataka, Karnataka 587101",
    "phone": "Dr Guled's Orthocare Hospital",
    "hours": null,
    "imageUrl": "https://www.bing.com/th?id=OLC.aFeFhOywHuWVCA480x360&w=92&h=112&c=8&rs=1&qlt=80&cdv=1&pid=Local"
  },
  {
    "name": "Dr Guled Hospital",
    "address": "Godi Building, Near Kerudi Hospital Extension Area, Kaulpet, Bagalkote, Karnataka",
    "phone": "Dr Guled Hospital",
    "hours": null,
    "imageUrl": "https://www.bing.com/maps/geoplat/REST/v1/Imagery/Map/RoadVibrant?ms=92,112&key=AnTcaqBi2ypp0xI-OZNi4W_ik2KhjgpqioTAtXLC8GzkMBQRMlyxvxyTnd5b73im&c=en-US&ur=in&da=n&logo=n&fmt=png&od=1&shading=hill&pp=16.184099,75.696144;dfp"
  },
  {
    "name": "Dr.halakatti Hospital",
    "address": "Extension Area, Kaulpet, Bagalkot, Karnataka",
    "phone": "Dr.halakatti Hospital",
    "hours": null,
    "imageUrl": "https://www.bing.com/maps/geoplat/REST/v1/Imagery/Map/RoadVibrant?ms=92,112&key=AnTcaqBi2ypp0xI-OZNi4W_ik2KhjgpqioTAtXLC8GzkMBQRMlyxvxyTnd5b73im&c=en-US&ur=in&da=n&logo=n&fmt=png&od=1&shading=hill&pp=16.179199,75.699402;dfp"
  },
  {
    "name": "Dr. Sameer Kumar- Cardiologist",
    "address": "Durga Vihar Medical Center, Sri Mahaveer Road, Bagalkot, Belagavi, Karnataka 587101",
    "phone": "Dr. Sameer Kumar- Cardiologist",
    "hours": "Open · Closes 12:00",
    "imageUrl": "https://www.bing.com/maps/geoplat/REST/v1/Imagery/Map/RoadVibrant?ms=92,134&key=AnTcaqBi2ypp0xI-OZNi4W_ik2KhjgpqioTAtXLC8GzkMBQRMlyxvxyTnd5b73im&c=en-US&ur=in&da=n&logo=n&fmt=png&od=1&shading=hill&pp=16.188021,75.700127;dfp"
  },
  {
    "name": "Dr Huilgol's Kidney Care",
    "address": "Near Lions School, Bagalkot, Madhya Pradesh 587101",
    "phone": "Dr Huilgol's Kidney Care",
    "hours": "Closed · Opens 12:00",
    "imageUrl": "https://www.bing.com/th?id=OLC.XmlUa0i%2bIGpS%2bw480x360&w=92&h=134&c=8&rs=1&qlt=80&cdv=1&pid=Local"
  },
  {
    "name": "Kerudi Hospital",
    "address": "Hospital Road, Bagalkot, Karnataka",
    "phone": "Kerudi Hospital",
    "hours": null,
    "imageUrl": "https://www.bing.com/th?id=OLC.kVpdgtHQOuLU%2bg480x360&w=92&h=112&c=8&rs=1&qlt=80&cdv=1&pid=Local"
  },
  {
    "name": "Naik Agri Clinic",
    "address": "Shop.no.26, B. V. V. S Complex, , Bagalkot, Karnataka",
    "phone": "Naik Agri Clinic",
    "hours": null,
    "imageUrl": "https://www.bing.com/maps/geoplat/REST/v1/Imagery/Map/RoadVibrant?ms=92,112&key=AnTcaqBi2ypp0xI-OZNi4W_ik2KhjgpqioTAtXLC8GzkMBQRMlyxvxyTnd5b73im&c=en-US&ur=in&da=n&logo=n&fmt=png&od=1&shading=hill&pp=16.18228,75.700302;dfp"
  },
  {
    "name": "Krupa Clinic",
    "address": "Pendari Masjid Road, Bagalkot, Karnataka 587101",
    "phone": "Krupa Clinic",
    "hours": null,
    "imageUrl": "https://www.bing.com/maps/geoplat/REST/v1/Imagery/Map/RoadVibrant?ms=92,112&key=AnTcaqBi2ypp0xI-OZNi4W_ik2KhjgpqioTAtXLC8GzkMBQRMlyxvxyTnd5b73im&c=en-US&ur=in&da=n&logo=n&fmt=png&od=1&shading=hill&pp=16.191133,75.704453;dfp"
  },
  {
    "name": "Sidramappa Danigond Memorial Trust's Padma Ayurvedic Hospital & Research Centre Terdal",
    "address": "Padmanagar, Terdal, Taluk Jamakhandi, Bagalkot, Karnataka",
    "phone": "Sidramappa Danigond Memorial Trust's Padma Ayurvedic Hospital & Research Centre Terdal",
    "hours": null,
    "imageUrl": "https://www.bing.com/maps/geoplat/REST/v1/Imagery/Map/RoadVibrant?ms=92,112&key=AnTcaqBi2ypp0xI-OZNi4W_ik2KhjgpqioTAtXLC8GzkMBQRMlyxvxyTnd5b73im&c=en-US&ur=in&da=n&logo=n&fmt=png&od=1&shading=hill&pp=16.169426,75.665482;dfp"
  },
  {
    "name": "Ms Hiremath Ayurvedic Hospital",
    "address": "Station Road, Masjid, Bagalkot, Karnataka 587101",
    "phone": "Ms Hiremath Ayurvedic Hospital",
    "hours": null,
    "imageUrl": "https://www.bing.com/maps/geoplat/REST/v1/Imagery/Map/RoadVibrant?ms=92,112&key=AnTcaqBi2ypp0xI-OZNi4W_ik2KhjgpqioTAtXLC8GzkMBQRMlyxvxyTnd5b73im&c=en-US&ur=in&da=n&logo=n&fmt=png&od=1&shading=hill&pp=16.186668,75.701851;dfp"
  },
  {
    "name": "Amrutha Skin Hospital",
    "address": "Ravi Kiran Hospital, Road, Ravulapalem 533238",
    "phone": "Amrutha Skin Hospital",
    "hours": null,
    "imageUrl": "https://www.bing.com/maps/geoplat/REST/v1/Imagery/Map/RoadVibrant?ms=92,112&key=AnTcaqBi2ypp0xI-OZNi4W_ik2KhjgpqioTAtXLC8GzkMBQRMlyxvxyTnd5b73im&c=en-US&ur=in&da=n&logo=n&fmt=png&od=1&shading=hill&pp=16.179483,75.692772;dfp"
  },
  {
    "name": "Sparsh Clinic",
    "address": "19Th Cross Road, Basaveswar Sahakara Bank, Vidayagiri, Bagalkot, Karnataka 587103",
    "phone": "Sparsh Clinic",
    "hours": null,
    "imageUrl": "https://www.bing.com/maps/geoplat/REST/v1/Imagery/Map/RoadVibrant?ms=92,112&key=AnTcaqBi2ypp0xI-OZNi4W_ik2KhjgpqioTAtXLC8GzkMBQRMlyxvxyTnd5b73im&c=en-US&ur=in&da=n&logo=n&fmt=png&od=1&shading=hill&pp=16.176201,75.659737;dfp"
  },
  {
    "name": "Laxmi Clinic",
    "address": "Sector 35 Road, Syndicate Bank, Navanagar, Bagalkot, Karnataka 587103",
    "phone": "Laxmi Clinic",
    "hours": null,
    "imageUrl": "https://www.bing.com/maps/geoplat/REST/v1/Imagery/Map/RoadVibrant?ms=92,112&key=AnTcaqBi2ypp0xI-OZNi4W_ik2KhjgpqioTAtXLC8GzkMBQRMlyxvxyTnd5b73im&c=en-US&ur=in&da=n&logo=n&fmt=png&od=1&shading=hill&pp=16.157061,75.667549;dfp"
  },
  {
    "name": "Ashwini Clinic",
    "address": "12Th Cross Road, Vidayagiri, Bagalkot, Karnataka 587102",
    "phone": "Ashwini Clinic",
    "hours": null,
    "imageUrl": "https://www.bing.com/maps/geoplat/REST/v1/Imagery/Map/RoadVibrant?ms=92,112&key=AnTcaqBi2ypp0xI-OZNi4W_ik2KhjgpqioTAtXLC8GzkMBQRMlyxvxyTnd5b73im&c=en-US&ur=in&da=n&logo=n&fmt=png&od=1&shading=hill&pp=16.179697,75.657776;dfp"
  },
  {
    "name": "Aarohi Clinic",
    "address": "1, Arohi Clinic, Hoolageri, Main Road, Bagalkot, Karnataka 587206",
    "phone": "Aarohi Clinic",
    "hours": null,
    "imageUrl": "https://www.bing.com/maps/geoplat/REST/v1/Imagery/Map/RoadVibrant?ms=92,112&key=AnTcaqBi2ypp0xI-OZNi4W_ik2KhjgpqioTAtXLC8GzkMBQRMlyxvxyTnd5b73im&c=en-US&ur=in&da=n&logo=n&fmt=png&od=1&shading=hill&pp=16.152588,75.645973;dfp"
  },
  {
    "name": "Datri Ayurveda Clinic",
    "address": "Sector 31 Road, Navanagar, Bagalkot, Karnataka 587103",
    "phone": "Datri Ayurveda Clinic",
    "hours": null,
    "imageUrl": "https://www.bing.com/maps/geoplat/REST/v1/Imagery/Map/RoadVibrant?ms=92,112&key=AnTcaqBi2ypp0xI-OZNi4W_ik2KhjgpqioTAtXLC8GzkMBQRMlyxvxyTnd5b73im&c=en-US&ur=in&da=n&logo=n&fmt=png&od=1&shading=hill&pp=16.157848,75.656586;dfp"
  },
  {
    "name": "BVVS Ayurveda Medical College and Hospital",
    "address": "Unnamed Road, Ward No 10, Bagalkot, Karnataka",
    "phone": "BVVS Ayurveda Medical College and Hospital",
    "hours": null,
    "imageUrl": "https://th.bing.com/th?id=OLC.p99SrFeb2VaVaA480x360&w=92&h=112&c=8&rs=1&qlt=80&cdv=1&pid=Local"
  },
  {
    "name": "Shree Vinayak Multi Speciality Dental Clinic",
    "address": "Sector NO 32 Shree Vinayak Multispeciality Clinic Bagalkot, Plot NO 7, 8 Near Navanagar Steduim, Bagal…",
    "phone": "Shree Vinayak Multi Speciality Dental Clinic",
    "hours": null,
    "imageUrl": "https://th.bing.com/th?id=OLC.qcoARlp1HtDFbQ480x360&w=92&h=112&c=8&rs=1&qlt=80&cdv=1&pid=Local"
  },
  {
    "name": "Dr Guled's Orthocare Hospital",
    "address": "Godi Building, Near Kerudi Hospital, Extension Area, Bagalkot, Karnataka, Karnataka 587101",
    "phone": "Dr Guled's Orthocare Hospital",
    "hours": null,
    "imageUrl": "https://www.bing.com/th?id=OLC.aFeFhOywHuWVCA480x360&w=92&h=112&c=8&rs=1&qlt=80&cdv=1&pid=Local"
  },
  {
    "name": "Dr Guled Hospital",
    "address": "Godi Building, Near Kerudi Hospital Extension Area, Kaulpet, Bagalkote, Karnataka",
    "phone": "Dr Guled Hospital",
    "hours": null,
    "imageUrl": "https://www.bing.com/maps/geoplat/REST/v1/Imagery/Map/RoadVibrant?ms=92,112&key=AnTcaqBi2ypp0xI-OZNi4W_ik2KhjgpqioTAtXLC8GzkMBQRMlyxvxyTnd5b73im&c=en-US&ur=in&da=n&logo=n&fmt=png&od=1&shading=hill&pp=16.184099,75.696144;dfp"
  }
]