[
  {
    "name": "Dr Sandeep Malkani Clinic",
    "address": "Near Sh56, Pratmik Swathya Kendra, Katipura Baghpat, Baghpat, Uttar Pradesh 250609",
    "phone": "Dr Sandeep Malkani Clinic",
    "hours": null,
    "imageUrl": "https://www.bing.com/maps/geoplat/REST/v1/Imagery/Map/RoadVibrant?ms=92,112&key=AnTcaqBi2ypp0xI-OZNi4W_ik2KhjgpqioTAtXLC8GzkMBQRMlyxvxyTnd5b73im&c=en-US&ur=in&da=n&logo=n&fmt=png&od=1&shading=hill&pp=28.942726,77.218559;dfp"
  },
  {
    "name": "Doctor Sunil Clinic",
    "address": "Sawan Kirpal Ruhani Mission, New Colony, Baghpat, Uttar Pradesh 250609",
    "phone": "Doctor Sunil Clinic",
    "hours": null,
    "imageUrl": "https://www.bing.com/maps/geoplat/REST/v1/Imagery/Map/RoadVibrant?ms=92,112&key=AnTcaqBi2ypp0xI-OZNi4W_ik2KhjgpqioTAtXLC8GzkMBQRMlyxvxyTnd5b73im&c=en-US&ur=in&da=n&logo=n&fmt=png&od=1&shading=hill&pp=28.946257,77.222221;dfp"
  },
  {
    "name": "Verma Medical Centre",
    "address": "Delhi Saharanpur ROA, Near Indian GAS Agency, Bagpat, Uttar Pradesh 250609",
    "phone": "Verma Medical Centre",
    "hours": null,
    "imageUrl": "https://www.bing.com/maps/geoplat/REST/v1/Imagery/Map/RoadVibrant?ms=92,112&key=AnTcaqBi2ypp0xI-OZNi4W_ik2KhjgpqioTAtXLC8GzkMBQRMlyxvxyTnd5b73im&c=en-US&ur=in&da=n&logo=n&fmt=png&od=1&shading=hill&pp=28.938892,77.222481;dfp"
  },
  {
    "name": "Raja Clinic",
    "address": "Goripur, Sh57, Baghpat, Uttar Pradesh 250601",
    "phone": "Raja Clinic",
    "hours": null,
    "imageUrl": "https://www.bing.com/maps/geoplat/REST/v1/Imagery/Map/RoadVibrant?ms=92,112&key=AnTcaqBi2ypp0xI-OZNi4W_ik2KhjgpqioTAtXLC8GzkMBQRMlyxvxyTnd5b73im&c=en-US&ur=in&da=n&logo=n&fmt=png&od=1&shading=hill&pp=28.981628,77.220253;dfp"
  },
  {
    "name": "Dr Deepak Jain Clinic",
    "address": "Tatiri, Sh14 Bhagvan Mahaveer Marg, Agarwal Mandi, Uttar Pradesh 250609",
    "phone": "Dr Deepak Jain Clinic",
    "hours": null,
    "imageUrl": "https://www.bing.com/maps/geoplat/REST/v1/Imagery/Map/RoadVibrant?ms=92,112&key=AnTcaqBi2ypp0xI-OZNi4W_ik2KhjgpqioTAtXLC8GzkMBQRMlyxvxyTnd5b73im&c=en-US&ur=in&da=n&logo=n&fmt=png&od=1&shading=hill&pp=28.950932,77.273186;dfp"
  },
  {
    "name": "Dr Lal Path Labs",
    "address": "Daula - Baraut Rd, Near Krishna Medical Centre, Bhajan Vihar, Baghpat, Uttar Pradesh",
    "phone": "Dr Lal Path Labs",
    "hours": null,
    "imageUrl": "https://www.bing.com/maps/geoplat/REST/v1/Imagery/Map/RoadVibrant?ms=92,112&key=AnTcaqBi2ypp0xI-OZNi4W_ik2KhjgpqioTAtXLC8GzkMBQRMlyxvxyTnd5b73im&c=en-US&ur=in&da=n&logo=n&fmt=png&od=1&shading=hill&pp=28.945662,77.216553;dfp"
  },
  {
    "name": "Patliputra Clinic",
    "address": "H.S.I.D.C., Grand Trunk Road, Near Indian Oil Petrol Pump, Kondli, Delhi 131028",
    "phone": "Patliputra Clinic",
    "hours": null,
    "imageUrl": "https://www.bing.com/maps/geoplat/REST/v1/Imagery/Map/RoadVibrant?ms=92,112&key=AnTcaqBi2ypp0xI-OZNi4W_ik2KhjgpqioTAtXLC8GzkMBQRMlyxvxyTnd5b73im&c=en-US&ur=in&da=n&logo=n&fmt=png&od=1&shading=hill&pp=28.874092,77.122643;dfp"
  },
  {
    "name": "Verma Clinic",
    "address": "Sh11, Indian Oil Petrol Pump, Bahalgarh, Haryana 131021",
    "phone": "Verma Clinic",
    "hours": null,
    "imageUrl": "https://www.bing.com/maps/geoplat/REST/v1/Imagery/Map/RoadVibrant?ms=92,112&key=AnTcaqBi2ypp0xI-OZNi4W_ik2KhjgpqioTAtXLC8GzkMBQRMlyxvxyTnd5b73im&c=en-US&ur=in&da=n&logo=n&fmt=png&od=1&shading=hill&pp=28.960974,77.093384;dfp"
  },
  {
    "name": "Shivji Multi Specialist Clinic",
    "address": "792, Bahalagrh, Rai, Khewra Road, Sonepat, Haryana 131021",
    "phone": "Shivji Multi Specialist Clinic",
    "hours": null,
    "imageUrl": "https://www.bing.com/maps/geoplat/REST/v1/Imagery/Map/RoadVibrant?ms=92,112&key=AnTcaqBi2ypp0xI-OZNi4W_ik2KhjgpqioTAtXLC8GzkMBQRMlyxvxyTnd5b73im&c=en-US&ur=in&da=n&logo=n&fmt=png&od=1&shading=hill&pp=28.962152,77.125221;dfp"
  },
  {
    "name": "Shri Vyas Enterprises",
    "address": "Doctor Rajendar Prasad Market, Shop No 14, Near Tehsil, Baghpat, Bagpat, Uttar Pradesh 250609",
    "phone": "Shri Vyas Enterprises",
    "hours": null,
    "imageUrl": "https://www.bing.com/maps/geoplat/REST/v1/Imagery/Map/RoadVibrant?ms=92,112&key=AnTcaqBi2ypp0xI-OZNi4W_ik2KhjgpqioTAtXLC8GzkMBQRMlyxvxyTnd5b73im&c=en-US&ur=in&da=n&logo=n&fmt=png&od=1&shading=hill&pp=28.945677,77.213715;dfp"
  },
  {
    "name": "Gorkha War Memorial",
    "address": "Court Rd, Baghpat Bangar, Baghpat, Uttar Pradesh 250609, India, Baghpat, Uttar Pradesh 250609",
    "phone": "Gorkha War Memorial",
    "hours": null,
    "imageUrl": "https://th.bing.com/th?id=OLC.zacYpwOah%2b74uQ480x360&w=92&h=112&c=8&rs=1&qlt=80&cdv=1&pid=Local"
  },
  {
    "name": "Vishuddhi Homeopathic Clinic",
    "address": "Bakhtawar Pur, Delhi 110036",
    "phone": "Vishuddhi Homeopathic Clinic",
    "hours": "Closed Â· Opens 17:00",
    "imageUrl": "https://th.bing.com/th?id=OLC.N%2bpEzOeSTkD7eg480x360&w=92&h=134&c=8&rs=1&qlt=80&cdv=1&pid=Local"
  },
  {
    "name": "Chauhan Clinic",
    "address": "Sh11, New Jeevan Hospital, Bahalgarh, Haryana 131021",
    "phone": "Chauhan Clinic",
    "hours": null,
    "imageUrl": "https://www.bing.com/maps/geoplat/REST/v1/Imagery/Map/RoadVibrant?ms=92,112&key=AnTcaqBi2ypp0xI-OZNi4W_ik2KhjgpqioTAtXLC8GzkMBQRMlyxvxyTnd5b73im&c=en-US&ur=in&da=n&logo=n&fmt=png&od=1&shading=hill&pp=28.961712,77.093575;dfp"
  },
  {
    "name": "Ray Clinic",
    "address": "Sh11, Indian Oil Petrol Pump, Bahalgarh, Haryana 131021",
    "phone": "Ray Clinic",
    "hours": null,
    "imageUrl": "https://www.bing.com/maps/geoplat/REST/v1/Imagery/Map/RoadVibrant?ms=92,112&key=AnTcaqBi2ypp0xI-OZNi4W_ik2KhjgpqioTAtXLC8GzkMBQRMlyxvxyTnd5b73im&c=en-US&ur=in&da=n&logo=n&fmt=png&od=1&shading=hill&pp=28.961203,77.093056;dfp"
  },
  {
    "name": "Janta Clinic",
    "address": "Government Dispensary, Nh1, Gt Karnal Road, Singhu, New Delhi, Delhi 131028",
    "phone": "Janta Clinic",
    "hours": null,
    "imageUrl": "https://www.bing.com/maps/geoplat/REST/v1/Imagery/Map/RoadVibrant?ms=92,112&key=AnTcaqBi2ypp0xI-OZNi4W_ik2KhjgpqioTAtXLC8GzkMBQRMlyxvxyTnd5b73im&c=en-US&ur=in&da=n&logo=n&fmt=png&od=1&shading=hill&pp=28.87248,77.117737;dfp"
  },
  {
    "name": "Shubham Clinic",
    "address": "Durga Colony, Grand Trunk Road, Near Mother Dairy, Kondli, Delhi 131028",
    "phone": "Shubham Clinic",
    "hours": null,
    "imageUrl": "https://www.bing.com/maps/geoplat/REST/v1/Imagery/Map/RoadVibrant?ms=92,112&key=AnTcaqBi2ypp0xI-OZNi4W_ik2KhjgpqioTAtXLC8GzkMBQRMlyxvxyTnd5b73im&c=en-US&ur=in&da=n&logo=n&fmt=png&od=1&shading=hill&pp=28.873663,77.124786;dfp"
  },
  {
    "name": "B.S.Care clinic",
    "address": "Gali Number 2 Sanjay Colony, New Delhi, Delhi 110040",
    "phone": "B.S.Care clinic",
    "hours": null,
    "imageUrl": "https://www.bing.com/maps/geoplat/REST/v1/Imagery/Map/RoadVibrant?ms=92,112&key=AnTcaqBi2ypp0xI-OZNi4W_ik2KhjgpqioTAtXLC8GzkMBQRMlyxvxyTnd5b73im&c=en-US&ur=in&da=n&logo=n&fmt=png&od=1&shading=hill&pp=28.856588,77.090111;dfp"
  },
  {
    "name": "Consultant physician and Diabetologist",
    "address": "180/1 Mamurpur Near Ramdev Chauk, Opposite Shivalay Temple, Narela, Delhi",
    "phone": "Consultant physician and Diabetologist",
    "hours": null,
    "imageUrl": "https://th.bing.com/th?id=OLC.%2b934XP3RAfTc4w480x360&w=92&h=112&c=8&rs=1&qlt=80&cdv=1&pid=Local"
  },
  {
    "name": "Dr Sandeep Malkani Clinic",
    "address": "Near Sh56, Pratmik Swathya Kendra, Katipura Baghpat, Baghpat, Uttar Pradesh 250609",
    "phone": "Dr Sandeep Malkani Clinic",
    "hours": null,
    "imageUrl": "https://www.bing.com/maps/geoplat/REST/v1/Imagery/Map/RoadVibrant?ms=92,112&key=AnTcaqBi2ypp0xI-OZNi4W_ik2KhjgpqioTAtXLC8GzkMBQRMlyxvxyTnd5b73im&c=en-US&ur=in&da=n&logo=n&fmt=png&od=1&shading=hill&pp=28.942726,77.218559;dfp"
  },
  {
    "name": "Doctor Sunil Clinic",
    "address": "Sawan Kirpal Ruhani Mission, New Colony, Baghpat, Uttar Pradesh 250609",
    "phone": "Doctor Sunil Clinic",
    "hours": null,
    "imageUrl": "https://www.bing.com/maps/geoplat/REST/v1/Imagery/Map/RoadVibrant?ms=92,112&key=AnTcaqBi2ypp0xI-OZNi4W_ik2KhjgpqioTAtXLC8GzkMBQRMlyxvxyTnd5b73im&c=en-US&ur=in&da=n&logo=n&fmt=png&od=1&shading=hill&pp=28.946257,77.222221;dfp"
  }
]