[
  {
    "name": "Masterdoctor Clinic -Balangir - Best Diabetes Clinic & Diabetologist Dr B Jagadish",
    "address": "Jyadurga Medical Store, Sudpada, Near Govt Headquarter Hospital, Balangir, Odisha 767001, MOB - …",
    "phone": "Masterdoctor Clinic -Balangir - Best Diabetes Clinic & Diabetologist Dr B Jagadish",
    "hours": "Opens in 4 mins",
    "imageUrl": "https://www.bing.com/th?id=OLC.aP68RBMzDdr8PA480x360&w=92&h=134&c=8&rs=1&qlt=80&cdv=1&pid=Local"
  },
  {
    "name": "OBGYN. Dr Mishra'clinic",
    "address": "PF4J+Q47, Balangir, Odisha",
    "phone": "OBGYN. Dr Mishra'clinic",
    "hours": null,
    "imageUrl": "https://www.bing.com/th?id=OLC.qdRBGb070VrBkQ480x360&w=92&h=112&c=8&rs=1&qlt=80&cdv=1&pid=Local"
  },
  {
    "name": "Maa Tarini Patho Clinic",
    "address": "Rugudi Para Road, Rugudipada, Balangir, Odisha 767001",
    "phone": "Maa Tarini Patho Clinic",
    "hours": null,
    "imageUrl": "https://www.bing.com/maps/geoplat/REST/v1/Imagery/Map/RoadVibrant?ms=92,112&key=AnTcaqBi2ypp0xI-OZNi4W_ik2KhjgpqioTAtXLC8GzkMBQRMlyxvxyTnd5b73im&c=en-US&ur=in&da=n&logo=n&fmt=png&od=1&shading=hill&pp=20.700241,83.484367;dfp"
  },
  {
    "name": "Dr. Rashmi Prakash Satapathy | Psychiatry",
    "address": "Bhaler, Odisha, India, 767002, Bhaler, Madhya Pradesh 767002",
    "phone": "Dr. Rashmi Prakash Satapathy | Psychiatry",
    "hours": "Closed · Opens 10:00",
    "imageUrl": "https://www.bing.com/th?id=OLC.JBSGl5594m4S5A480x360&w=92&h=134&c=8&rs=1&qlt=80&cdv=1&pid=Local"
  },
  {
    "name": "Dr. Ashis Narayan Mishra- Dentist",
    "address": "Perfect 32 Dental Clinic, Priyadarsani Talkis Road Balangir, Padampur 767001",
    "phone": "Dr. Ashis Narayan Mishra- Dentist",
    "hours": "Closed · Opens 09:30",
    "imageUrl": "https://www.bing.com/maps/geoplat/REST/v1/Imagery/Map/RoadVibrant?ms=92,134&key=AnTcaqBi2ypp0xI-OZNi4W_ik2KhjgpqioTAtXLC8GzkMBQRMlyxvxyTnd5b73im&c=en-US&ur=in&da=n&logo=n&fmt=png&od=1&shading=hill&pp=20.705601,83.485947;dfp"
  },
  {
    "name": "Primary Health Centre",
    "address": "Nh201 Boriguma Baragarh Highway, Balangir, Odisha 767001",
    "phone": "Primary Health Centre",
    "hours": null,
    "imageUrl": "https://www.bing.com/maps/geoplat/REST/v1/Imagery/Map/RoadVibrant?ms=92,112&key=AnTcaqBi2ypp0xI-OZNi4W_ik2KhjgpqioTAtXLC8GzkMBQRMlyxvxyTnd5b73im&c=en-US&ur=in&da=n&logo=n&fmt=png&od=1&shading=hill&pp=20.966255,83.534599;dfp"
  },
  {
    "name": "Parbati Pathology",
    "address": "Balangir Baudh Road, Radharanipara, Odisha 767001",
    "phone": "Parbati Pathology",
    "hours": null,
    "imageUrl": "https://www.bing.com/maps/geoplat/REST/v1/Imagery/Map/RoadVibrant?ms=92,112&key=AnTcaqBi2ypp0xI-OZNi4W_ik2KhjgpqioTAtXLC8GzkMBQRMlyxvxyTnd5b73im&c=en-US&ur=in&da=n&logo=n&fmt=png&od=1&shading=hill&pp=20.706499,83.495598;dfp"
  },
  {
    "name": "Dr. Durga Dutta Dash- Paediatrician",
    "address": "Durgadutta Clinic, Medical Campus, Patnagarh Bazar, Patnagarh, Balangir 767025",
    "phone": "Dr. Durga Dutta Dash- Paediatrician",
    "hours": "Closed · Opens 11:00",
    "imageUrl": "https://www.bing.com/maps/geoplat/REST/v1/Imagery/Map/RoadVibrant?ms=92,134&key=AnTcaqBi2ypp0xI-OZNi4W_ik2KhjgpqioTAtXLC8GzkMBQRMlyxvxyTnd5b73im&c=en-US&ur=in&da=n&logo=n&fmt=png&od=1&shading=hill&pp=20.71397,83.118065;dfp"
  },
  {
    "name": "Sai Srusti Ultrasound Clinic",
    "address": "085 AT-Baghmari, PO-Birmaharajpur, Baghmari Birmaharajpur, Balangir, Odisha 767018",
    "phone": "Sai Srusti Ultrasound Clinic",
    "hours": null,
    "imageUrl": "https://www.bing.com/maps/geoplat/REST/v1/Imagery/Map/RoadVibrant?ms=92,112&key=AnTcaqBi2ypp0xI-OZNi4W_ik2KhjgpqioTAtXLC8GzkMBQRMlyxvxyTnd5b73im&c=en-US&ur=in&da=n&logo=n&fmt=png&od=1&shading=hill&pp=20.705204,83.491394;dfp"
  },
  {
    "name": "Masterdoctor Clinic -Balangir - Best Diabetes Clinic & Diabetologist Dr B Jagadish",
    "address": "Jyadurga Medical Store, Sudpada, Near Govt Headquarter Hospital, Balangir, Odisha 767001, MOB - …",
    "phone": "Masterdoctor Clinic -Balangir - Best Diabetes Clinic & Diabetologist Dr B Jagadish",
    "hours": "Opens in 4 mins",
    "imageUrl": "https://www.bing.com/th?id=OLC.aP68RBMzDdr8PA480x360&w=92&h=134&c=8&rs=1&qlt=80&cdv=1&pid=Local"
  },
  {
    "name": "OBGYN. Dr Mishra'clinic",
    "address": "PF4J+Q47, Balangir, Odisha",
    "phone": "OBGYN. Dr Mishra'clinic",
    "hours": null,
    "imageUrl": "https://www.bing.com/th?id=OLC.qdRBGb070VrBkQ480x360&w=92&h=112&c=8&rs=1&qlt=80&cdv=1&pid=Local"
  },
  {
    "name": "Maa Tarini Patho Clinic",
    "address": "Rugudi Para Road, Rugudipada, Balangir, Odisha 767001",
    "phone": "Maa Tarini Patho Clinic",
    "hours": null,
    "imageUrl": "https://www.bing.com/maps/geoplat/REST/v1/Imagery/Map/RoadVibrant?ms=92,112&key=AnTcaqBi2ypp0xI-OZNi4W_ik2KhjgpqioTAtXLC8GzkMBQRMlyxvxyTnd5b73im&c=en-US&ur=in&da=n&logo=n&fmt=png&od=1&shading=hill&pp=20.700241,83.484367;dfp"
  },
  {
    "name": "Dr. Rashmi Prakash Satapathy | Psychiatry",
    "address": "Bhaler, Odisha, India, 767002, Bhaler, Madhya Pradesh 767002",
    "phone": "Dr. Rashmi Prakash Satapathy | Psychiatry",
    "hours": "Closed · Opens 10:00",
    "imageUrl": "https://www.bing.com/th?id=OLC.JBSGl5594m4S5A480x360&w=92&h=134&c=8&rs=1&qlt=80&cdv=1&pid=Local"
  },
  {
    "name": "Dr. Ashis Narayan Mishra- Dentist",
    "address": "Perfect 32 Dental Clinic, Priyadarsani Talkis Road Balangir, Padampur 767001",
    "phone": "Dr. Ashis Narayan Mishra- Dentist",
    "hours": "Closed · Opens 09:30",
    "imageUrl": "https://www.bing.com/maps/geoplat/REST/v1/Imagery/Map/RoadVibrant?ms=92,134&key=AnTcaqBi2ypp0xI-OZNi4W_ik2KhjgpqioTAtXLC8GzkMBQRMlyxvxyTnd5b73im&c=en-US&ur=in&da=n&logo=n&fmt=png&od=1&shading=hill&pp=20.705601,83.485947;dfp"
  },
  {
    "name": "Primary Health Centre",
    "address": "Nh201 Boriguma Baragarh Highway, Balangir, Odisha 767001",
    "phone": "Primary Health Centre",
    "hours": null,
    "imageUrl": "https://www.bing.com/maps/geoplat/REST/v1/Imagery/Map/RoadVibrant?ms=92,112&key=AnTcaqBi2ypp0xI-OZNi4W_ik2KhjgpqioTAtXLC8GzkMBQRMlyxvxyTnd5b73im&c=en-US&ur=in&da=n&logo=n&fmt=png&od=1&shading=hill&pp=20.966255,83.534599;dfp"
  },
  {
    "name": "Parbati Pathology",
    "address": "Balangir Baudh Road, Radharanipara, Odisha 767001",
    "phone": "Parbati Pathology",
    "hours": null,
    "imageUrl": "https://www.bing.com/maps/geoplat/REST/v1/Imagery/Map/RoadVibrant?ms=92,112&key=AnTcaqBi2ypp0xI-OZNi4W_ik2KhjgpqioTAtXLC8GzkMBQRMlyxvxyTnd5b73im&c=en-US&ur=in&da=n&logo=n&fmt=png&od=1&shading=hill&pp=20.706499,83.495598;dfp"
  },
  {
    "name": "Dr. Durga Dutta Dash- Paediatrician",
    "address": "Durgadutta Clinic, Medical Campus, Patnagarh Bazar, Patnagarh, Balangir 767025",
    "phone": "Dr. Durga Dutta Dash- Paediatrician",
    "hours": "Closed · Opens 11:00",
    "imageUrl": "https://www.bing.com/maps/geoplat/REST/v1/Imagery/Map/RoadVibrant?ms=92,134&key=AnTcaqBi2ypp0xI-OZNi4W_ik2KhjgpqioTAtXLC8GzkMBQRMlyxvxyTnd5b73im&c=en-US&ur=in&da=n&logo=n&fmt=png&od=1&shading=hill&pp=20.71397,83.118065;dfp"
  },
  {
    "name": "Sai Srusti Ultrasound Clinic",
    "address": "085 AT-Baghmari, PO-Birmaharajpur, Baghmari Birmaharajpur, Balangir, Odisha 767018",
    "phone": "Sai Srusti Ultrasound Clinic",
    "hours": null,
    "imageUrl": "https://www.bing.com/maps/geoplat/REST/v1/Imagery/Map/RoadVibrant?ms=92,112&key=AnTcaqBi2ypp0xI-OZNi4W_ik2KhjgpqioTAtXLC8GzkMBQRMlyxvxyTnd5b73im&c=en-US&ur=in&da=n&logo=n&fmt=png&od=1&shading=hill&pp=20.705204,83.491394;dfp"
  },
  {
    "name": "Masterdoctor Clinic -Balangir - Best Diabetes Clinic & Diabetologist Dr B Jagadish",
    "address": "Jyadurga Medical Store, Sudpada, Near Govt Headquarter Hospital, Balangir, Odisha 767001, MOB - …",
    "phone": "Masterdoctor Clinic -Balangir - Best Diabetes Clinic & Diabetologist Dr B Jagadish",
    "hours": "Opens in 4 mins",
    "imageUrl": "https://www.bing.com/th?id=OLC.aP68RBMzDdr8PA480x360&w=92&h=134&c=8&rs=1&qlt=80&cdv=1&pid=Local"
  },
  {
    "name": "OBGYN. Dr Mishra'clinic",
    "address": "PF4J+Q47, Balangir, Odisha",
    "phone": "OBGYN. Dr Mishra'clinic",
    "hours": null,
    "imageUrl": "https://www.bing.com/th?id=OLC.qdRBGb070VrBkQ480x360&w=92&h=112&c=8&rs=1&qlt=80&cdv=1&pid=Local"
  }
]