[
  {
    "name": "Arogya Multispeciality Hospital",
    "address": "Station Rd, Chitragupt Nagar, Balaghat, Madhya Pradesh 481001, India, Balaghat, Madhya Pradesh 481001",
    "phone": "Arogya Multispeciality Hospital",
    "hours": null,
    "imageUrl": "https://www.bing.com/maps/geoplat/REST/v1/Imagery/Map/RoadVibrant?ms=92,112&key=AnTcaqBi2ypp0xI-OZNi4W_ik2KhjgpqioTAtXLC8GzkMBQRMlyxvxyTnd5b73im&c=en-US&ur=in&da=n&logo=n&fmt=png&od=1&shading=hill&pp=21.814398,80.182297;dfp"
  },
  {
    "name": "Jeevak health care clinic (जीवक हेल्थकेयर क्लिनिक)",
    "address": "Balaghat Road, Near M.P Gramin Bank, Lanji, Madhya Pradesh",
    "phone": "Jeevak health care clinic (जीवक हेल्थकेयर क्लिनिक)",
    "hours": null,
    "imageUrl": "https://www.bing.com/maps/geoplat/REST/v1/Imagery/Map/RoadVibrant?ms=92,112&key=AnTcaqBi2ypp0xI-OZNi4W_ik2KhjgpqioTAtXLC8GzkMBQRMlyxvxyTnd5b73im&c=en-US&ur=in&da=n&logo=n&fmt=png&od=1&shading=hill&pp=21.812271,80.193771;dfp"
  },
  {
    "name": "Dr Ashok Lilhare Clinic",
    "address": "Pakija Traders, Rajghat Chowk, Balaghat, Madhya Pradesh 481001",
    "phone": "Dr Ashok Lilhare Clinic",
    "hours": null,
    "imageUrl": "https://www.bing.com/maps/geoplat/REST/v1/Imagery/Map/RoadVibrant?ms=92,112&key=AnTcaqBi2ypp0xI-OZNi4W_ik2KhjgpqioTAtXLC8GzkMBQRMlyxvxyTnd5b73im&c=en-US&ur=in&da=n&logo=n&fmt=png&od=1&shading=hill&pp=21.818802,80.186195;dfp"
  },
  {
    "name": "Shri mata sai accupressure and sujok - Dr J.N Sahare MD",
    "address": "Ward no 2, Pump House Rd, Bhatera Chowki, Balaghat, Madhya Pradesh",
    "phone": "Shri mata sai accupressure and sujok - Dr J.N Sahare MD",
    "hours": null,
    "imageUrl": "https://www.bing.com/maps/geoplat/REST/v1/Imagery/Map/RoadVibrant?ms=92,112&key=AnTcaqBi2ypp0xI-OZNi4W_ik2KhjgpqioTAtXLC8GzkMBQRMlyxvxyTnd5b73im&c=en-US&ur=in&da=n&logo=n&fmt=png&od=1&shading=hill&pp=21.819674,80.189606;dfp"
  },
  {
    "name": "Shivshakti Homoeopathy & Ayurvedic Clinic Balaghat & Ukwa MP",
    "address": "Dhanraj Complex Main Road, Balaghat, Madhya Pradesh, Madhya Pradesh 481001",
    "phone": "Shivshakti Homoeopathy & Ayurvedic Clinic Balaghat & Ukwa MP",
    "hours": null,
    "imageUrl": "https://www.bing.com/th?id=OLC.6i2Ow6YkLxgBlQ480x360&w=92&h=112&c=8&rs=1&qlt=80&cdv=1&pid=Local"
  },
  {
    "name": "Dr Vinay Rahangdale (Urosurgeon)",
    "address": "Mitali Hospital, Circuit Road, Chitragupt Nagar, Balaghat, Madhya Pradesh",
    "phone": "Dr Vinay Rahangdale (Urosurgeon)",
    "hours": null,
    "imageUrl": "https://www.bing.com/maps/geoplat/REST/v1/Imagery/Map/RoadVibrant?ms=92,112&key=AnTcaqBi2ypp0xI-OZNi4W_ik2KhjgpqioTAtXLC8GzkMBQRMlyxvxyTnd5b73im&c=en-US&ur=in&da=n&logo=n&fmt=png&od=1&shading=hill&pp=21.812208,80.194466;dfp"
  },
  {
    "name": "Dr Lal PathLabs",
    "address": "Main Road Moti Nagar Ward NO-33 Near Pitlewar Decoration Bala Ghat- 4810001, Balaghat, Madhya Pra…",
    "phone": "Dr Lal PathLabs",
    "hours": "Closed · Opens 07:30",
    "imageUrl": "https://www.bing.com/maps/geoplat/REST/v1/Imagery/Map/RoadVibrant?ms=92,134&key=AnTcaqBi2ypp0xI-OZNi4W_ik2KhjgpqioTAtXLC8GzkMBQRMlyxvxyTnd5b73im&c=en-US&ur=in&da=n&logo=n&fmt=png&od=1&shading=hill&pp=21.812876,80.18383;dfp"
  },
  {
    "name": "Dr.Gajendra Singh Pichhode Homoeopathic Clinic",
    "address": "Gondiya Road Kohkadibar, Deori, Madhya Pradesh",
    "phone": "Dr.Gajendra Singh Pichhode Homoeopathic Clinic",
    "hours": null,
    "imageUrl": "https://www.bing.com/maps/geoplat/REST/v1/Imagery/Map/RoadVibrant?ms=92,112&key=AnTcaqBi2ypp0xI-OZNi4W_ik2KhjgpqioTAtXLC8GzkMBQRMlyxvxyTnd5b73im&c=en-US&ur=in&da=n&logo=n&fmt=png&od=1&shading=hill&pp=21.811602,80.195831;dfp"
  },
  {
    "name": "Dr BS Katre Clinic",
    "address": "Bhimet Medical, Khairi, Balaghat, Madhya Pradesh 481001",
    "phone": "Dr BS Katre Clinic",
    "hours": null,
    "imageUrl": "https://www.bing.com/maps/geoplat/REST/v1/Imagery/Map/RoadVibrant?ms=92,112&key=AnTcaqBi2ypp0xI-OZNi4W_ik2KhjgpqioTAtXLC8GzkMBQRMlyxvxyTnd5b73im&c=en-US&ur=in&da=n&logo=n&fmt=png&od=1&shading=hill&pp=21.826653,80.18383;dfp"
  },
  {
    "name": "Baba Clinic",
    "address": "ITI Rd, Budhi, Balaghat, Madhya Pradesh",
    "phone": "Baba Clinic",
    "hours": null,
    "imageUrl": "https://th.bing.com/th?id=OLC.4vKxrQtNCiEYSQ480x360&w=92&h=112&c=8&rs=1&qlt=80&cdv=1&pid=Local"
  },
  {
    "name": "Tanushree Homeopathy & Ayurvedic Clinic",
    "address": "Tanushree Building SAI Computer College, Near Block Office Kirnapur Lanji Road, Balaghat, Madhya Pradesh …",
    "phone": "Tanushree Homeopathy & Ayurvedic Clinic",
    "hours": null,
    "imageUrl": "https://www.bing.com/maps/geoplat/REST/v1/Imagery/Map/RoadVibrant?ms=92,112&key=AnTcaqBi2ypp0xI-OZNi4W_ik2KhjgpqioTAtXLC8GzkMBQRMlyxvxyTnd5b73im&c=en-US&ur=in&da=n&logo=n&fmt=png&od=1&shading=hill&pp=21.811857,80.197166;dfp"
  },
  {
    "name": "Dr. Stuti Khare Shukla",
    "address": "Shukla Nursing Home, Infront of Shiv Sai Mandir, Chitragupt Nagar, Balaghat, Madhya Pradesh",
    "phone": "Dr. Stuti Khare Shukla",
    "hours": null,
    "imageUrl": "https://www.bing.com/maps/geoplat/REST/v1/Imagery/Map/RoadVibrant?ms=92,112&key=AnTcaqBi2ypp0xI-OZNi4W_ik2KhjgpqioTAtXLC8GzkMBQRMlyxvxyTnd5b73im&c=en-US&ur=in&da=n&logo=n&fmt=png&od=1&shading=hill&pp=21.464846,80.185623;dfp"
  },
  {
    "name": "suneri ayurved evam panchkarma Clinic",
    "address": "Panchkarma in Gayatri Mandirbroad, Balaghat, Madhya Pradesh",
    "phone": "suneri ayurved evam panchkarma Clinic",
    "hours": null,
    "imageUrl": "https://www.bing.com/maps/geoplat/REST/v1/Imagery/Map/RoadVibrant?ms=92,112&key=AnTcaqBi2ypp0xI-OZNi4W_ik2KhjgpqioTAtXLC8GzkMBQRMlyxvxyTnd5b73im&c=en-US&ur=in&da=n&logo=n&fmt=png&od=1&shading=hill&pp=21.823687,80.203857;dfp"
  },
  {
    "name": "Vatsalya Child Clinic",
    "address": "Gondia Road, Balaghat, Madhya Pradesh 481001",
    "phone": "Vatsalya Child Clinic",
    "hours": null,
    "imageUrl": "https://www.bing.com/maps/geoplat/REST/v1/Imagery/Map/RoadVibrant?ms=92,112&key=AnTcaqBi2ypp0xI-OZNi4W_ik2KhjgpqioTAtXLC8GzkMBQRMlyxvxyTnd5b73im&c=en-US&ur=in&da=n&logo=n&fmt=png&od=1&shading=hill&pp=21.812834,80.186775;dfp"
  },
  {
    "name": "Ayurved Panchkarma Chikitsalaya Center",
    "address": "Ward NO-24 Surbhi Nagar, Balaghat, Madhya Pradesh 481001",
    "phone": "Ayurved Panchkarma Chikitsalaya Center",
    "hours": null,
    "imageUrl": "https://www.bing.com/maps/geoplat/REST/v1/Imagery/Map/RoadVibrant?ms=92,112&key=AnTcaqBi2ypp0xI-OZNi4W_ik2KhjgpqioTAtXLC8GzkMBQRMlyxvxyTnd5b73im&c=en-US&ur=in&da=n&logo=n&fmt=png&od=1&shading=hill&pp=21.81286,80.184128;dfp"
  },
  {
    "name": "Dr Lal PathLabs - Patient Service Centre",
    "address": "No MIG 109, Ward No 25, Housing Board Colony, Prem Nagar, Balaghat, Madhya Pradesh 481001",
    "phone": "Dr Lal PathLabs - Patient Service Centre",
    "hours": "Opens in 4 mins",
    "imageUrl": "https://www.bing.com/maps/geoplat/REST/v1/Imagery/Map/RoadVibrant?ms=92,134&key=AnTcaqBi2ypp0xI-OZNi4W_ik2KhjgpqioTAtXLC8GzkMBQRMlyxvxyTnd5b73im&c=en-US&ur=in&da=n&logo=n&fmt=png&od=1&shading=hill&pp=21.81333,80.191345;dfp"
  },
  {
    "name": "Dr. Virendra Bisen",
    "address": "Main Road Lanji, Balaghat, Madhya Pradesh",
    "phone": "Dr. Virendra Bisen",
    "hours": "Closed · Opens 09:00",
    "imageUrl": "https://www.bing.com/maps/geoplat/REST/v1/Imagery/Map/RoadVibrant?ms=92,112&key=AnTcaqBi2ypp0xI-OZNi4W_ik2KhjgpqioTAtXLC8GzkMBQRMlyxvxyTnd5b73im&c=en-US&ur=in&da=n&logo=n&fmt=png&od=1&shading=hill&pp=21.624468,80.333199;dfp"
  },
  {
    "name": "Arogya Multispeciality Hospital",
    "address": "Station Rd, Chitragupt Nagar, Balaghat, Madhya Pradesh 481001, India, Balaghat, Madhya Pradesh 481001",
    "phone": "Arogya Multispeciality Hospital",
    "hours": null,
    "imageUrl": "https://www.bing.com/maps/geoplat/REST/v1/Imagery/Map/RoadVibrant?ms=92,112&key=AnTcaqBi2ypp0xI-OZNi4W_ik2KhjgpqioTAtXLC8GzkMBQRMlyxvxyTnd5b73im&c=en-US&ur=in&da=n&logo=n&fmt=png&od=1&shading=hill&pp=21.814398,80.182297;dfp"
  },
  {
    "name": "Jeevak health care clinic (जीवक हेल्थकेयर क्लिनिक)",
    "address": "Balaghat Road, Near M.P Gramin Bank, Lanji, Madhya Pradesh",
    "phone": "Jeevak health care clinic (जीवक हेल्थकेयर क्लिनिक)",
    "hours": null,
    "imageUrl": "https://www.bing.com/maps/geoplat/REST/v1/Imagery/Map/RoadVibrant?ms=92,112&key=AnTcaqBi2ypp0xI-OZNi4W_ik2KhjgpqioTAtXLC8GzkMBQRMlyxvxyTnd5b73im&c=en-US&ur=in&da=n&logo=n&fmt=png&od=1&shading=hill&pp=21.812271,80.193771;dfp"
  },
  {
    "name": "Dr Ashok Lilhare Clinic",
    "address": "Pakija Traders, Rajghat Chowk, Balaghat, Madhya Pradesh 481001",
    "phone": "Dr Ashok Lilhare Clinic",
    "hours": null,
    "imageUrl": "https://www.bing.com/maps/geoplat/REST/v1/Imagery/Map/RoadVibrant?ms=92,112&key=AnTcaqBi2ypp0xI-OZNi4W_ik2KhjgpqioTAtXLC8GzkMBQRMlyxvxyTnd5b73im&c=en-US&ur=in&da=n&logo=n&fmt=png&od=1&shading=hill&pp=21.818802,80.186195;dfp"
  }
]