[
  {
    "name": "Dr. Manish Rout Clinic",
    "address": "Police Line, PWD Quator, Balasore, Odisha, Baleshwar, Orissa, India, 756001, Baleshwar, Madhya Pradesh 75…",
    "phone": "Dr. Manish Rout Clinic",
    "hours": "Closed · Opens 16:00",
    "imageUrl": "https://www.bing.com/th?id=OLC.hTdrS9hv%2bBbOUA480x360&w=92&h=134&c=8&rs=1&qlt=80&cdv=1&pid=Local"
  },
  {
    "name": "CURE AND CARE MultiSpeciality Clinic",
    "address": "J K Niwas Vivekanand Marg, Baleshwar, Odisha 756001",
    "phone": "CURE AND CARE MultiSpeciality Clinic",
    "hours": "Closed · Opens 07:30",
    "imageUrl": "https://www.bing.com/th?id=OLC.Uh1NQCSBSgelGQ480x360&w=92&h=134&c=8&rs=1&qlt=80&cdv=1&pid=Local"
  },
  {
    "name": "Dr. Ratnakar Das- Consultant Physician & Diabetologist",
    "address": "Geeta Medical Clinic, Dt Road, Infront Of Station Club, Balasore 756001",
    "phone": "Dr. Ratnakar Das- Consultant Physician & Diabetologist",
    "hours": "Closed · Opens 10:00",
    "imageUrl": "https://www.bing.com/maps/geoplat/REST/v1/Imagery/Map/RoadVibrant?ms=92,112&key=AnTcaqBi2ypp0xI-OZNi4W_ik2KhjgpqioTAtXLC8GzkMBQRMlyxvxyTnd5b73im&c=en-US&ur=in&da=n&logo=n&fmt=png&od=1&shading=hill&pp=21.497381,86.922256;clcp"
  },
  {
    "name": "Dr. Dillip Kumar Mantry",
    "address": "Bhaskar Ganj A, Orissa",
    "phone": "Dr. Dillip Kumar Mantry",
    "hours": null,
    "imageUrl": "https://www.bing.com/th?id=OLC.W7lEI4tTNez5mw480x360&w=92&h=112&c=8&rs=1&qlt=80&cdv=1&pid=Local"
  },
  {
    "name": "Dr. Niranjan Mohapatra",
    "address": "Police Line Chwok, Orissa",
    "phone": "Dr. Niranjan Mohapatra",
    "hours": "Closed · Opens 17:30",
    "imageUrl": "https://www.bing.com/th?id=OLC.dwgx27hrRpxsXw480x360&w=92&h=112&c=8&rs=1&qlt=80&cdv=1&pid=Local"
  },
  {
    "name": "Jatania Clinic",
    "address": "756001, Town Hall Rd, Manikhamb, Balasore, Gopalgoan, Odisha",
    "phone": "Jatania Clinic",
    "hours": null,
    "imageUrl": "https://www.bing.com/maps/geoplat/REST/v1/Imagery/Map/RoadVibrant?ms=92,112&key=AnTcaqBi2ypp0xI-OZNi4W_ik2KhjgpqioTAtXLC8GzkMBQRMlyxvxyTnd5b73im&c=en-US&ur=in&da=n&logo=n&fmt=png&od=1&shading=hill&pp=21.496822,86.936508;dfp"
  },
  {
    "name": "Dr Sashank Sekher Das Clinic",
    "address": "Manurma Clinic, Bhaskar Ganja, Balasore, Baleshwar, Odisha 756001",
    "phone": "Dr Sashank Sekher Das Clinic",
    "hours": null,
    "imageUrl": "https://www.bing.com/maps/geoplat/REST/v1/Imagery/Map/RoadVibrant?ms=92,112&key=AnTcaqBi2ypp0xI-OZNi4W_ik2KhjgpqioTAtXLC8GzkMBQRMlyxvxyTnd5b73im&c=en-US&ur=in&da=n&logo=n&fmt=png&od=1&shading=hill&pp=21.498934,86.933434;dfp"
  },
  {
    "name": "Dr.B.S Pani Clinic",
    "address": "Gopalgaon, Balasore, Odisha",
    "phone": "Dr.B.S Pani Clinic",
    "hours": null,
    "imageUrl": "https://th.bing.com/th?id=OLC.DsbGxKDD7S0jmQ480x360&w=92&h=112&c=8&rs=1&qlt=80&cdv=1&pid=Local"
  },
  {
    "name": "Stree Clinic (a Clinic Of Parivar Seva Sanstha)",
    "address": "Neelam Motor, Bhaskar Ganja, Balasore, Baleshwar, Odisha 756001",
    "phone": "Stree Clinic (a Clinic Of Parivar Seva Sanstha)",
    "hours": null,
    "imageUrl": "https://www.bing.com/maps/geoplat/REST/v1/Imagery/Map/RoadVibrant?ms=92,112&key=AnTcaqBi2ypp0xI-OZNi4W_ik2KhjgpqioTAtXLC8GzkMBQRMlyxvxyTnd5b73im&c=en-US&ur=in&da=n&logo=n&fmt=png&od=1&shading=hill&pp=21.498291,86.931023;dfp"
  },
  {
    "name": "Dr Prafulla Acharya Clinic",
    "address": "Zilla School Road, Bharat Sanchar Nigam Ltd, Bhaskar Ganja, Balasore, Baleshwar, Odisha 756001",
    "phone": "Dr Prafulla Acharya Clinic",
    "hours": null,
    "imageUrl": "https://www.bing.com/maps/geoplat/REST/v1/Imagery/Map/RoadVibrant?ms=92,112&key=AnTcaqBi2ypp0xI-OZNi4W_ik2KhjgpqioTAtXLC8GzkMBQRMlyxvxyTnd5b73im&c=en-US&ur=in&da=n&logo=n&fmt=png&od=1&shading=hill&pp=21.497086,86.924232;dfp"
  },
  {
    "name": "Dr Sidhartha Nanda Clinic",
    "address": "Neelam Motor, Bhaskar Ganja, Balasore, Baleshwar, Odisha 756001",
    "phone": "Dr Sidhartha Nanda Clinic",
    "hours": null,
    "imageUrl": "https://www.bing.com/maps/geoplat/REST/v1/Imagery/Map/RoadVibrant?ms=92,112&key=AnTcaqBi2ypp0xI-OZNi4W_ik2KhjgpqioTAtXLC8GzkMBQRMlyxvxyTnd5b73im&c=en-US&ur=in&da=n&logo=n&fmt=png&od=1&shading=hill&pp=21.497561,86.931168;dfp"
  },
  {
    "name": "S.R. Healthcare, ayurvedic clinic",
    "address": "Police Station, Near Sahadevkhunta Police Beat House (Puruna Sahadevkhunta, Balasore, Odisha",
    "phone": "S.R. Healthcare, ayurvedic clinic",
    "hours": null,
    "imageUrl": "https://th.bing.com/th?id=OLC.zGghOrIrvmVjiQ480x360&w=92&h=112&c=8&rs=1&qlt=80&cdv=1&pid=Local"
  },
  {
    "name": "Masterdoctor Clinic - Balasore - Best Diabetes Clinic | Best Diabetes Doctor / Best Diabetologist Dr B Jagadish",
    "address": "Khirachora Medicine Store, Nuasahi, Balia, Near Maruti Suzuki Showroom, Balasore 756019",
    "phone": "Masterdoctor Clinic - Balasore - Best Diabetes Clinic | Best Diabetes Doctor / Best Diabetologist Dr B Jagadish",
    "hours": null,
    "imageUrl": "https://th.bing.com/th?id=OLC.fODlfecc0kAM3Q480x360&w=92&h=112&c=8&rs=1&qlt=80&cdv=1&pid=Local"
  },
  {
    "name": "Dr CS Nanda",
    "address": "Mirza Pokhari Road, Baleshwar, Odisha 756001",
    "phone": "Dr CS Nanda",
    "hours": null,
    "imageUrl": "https://www.bing.com/maps/geoplat/REST/v1/Imagery/Map/RoadVibrant?ms=92,112&key=AnTcaqBi2ypp0xI-OZNi4W_ik2KhjgpqioTAtXLC8GzkMBQRMlyxvxyTnd5b73im&c=en-US&ur=in&da=n&logo=n&fmt=png&od=1&shading=hill&pp=21.497055,86.939003;dfp"
  },
  {
    "name": "Dr K K Patra Clinic",
    "address": "Hospital Road, Studio Ruprekha, Bhaskar Ganja, Balasore, Baleshwar, Odisha 756001",
    "phone": "Dr K K Patra Clinic",
    "hours": null,
    "imageUrl": "https://www.bing.com/maps/geoplat/REST/v1/Imagery/Map/RoadVibrant?ms=92,112&key=AnTcaqBi2ypp0xI-OZNi4W_ik2KhjgpqioTAtXLC8GzkMBQRMlyxvxyTnd5b73im&c=en-US&ur=in&da=n&logo=n&fmt=png&od=1&shading=hill&pp=21.492186,86.935394;dfp"
  },
  {
    "name": "Homoeopathy And Acupuncture Clinic, Dr. Naresh Panda",
    "address": "Bm-16, Dl Chowk Rd, Dl Chowk, Basanti Nagar, Odisha 769012",
    "phone": "Homoeopathy And Acupuncture Clinic, Dr. Naresh Panda",
    "hours": null,
    "imageUrl": "https://www.bing.com/maps/geoplat/REST/v1/Imagery/Map/RoadVibrant?ms=92,112&key=AnTcaqBi2ypp0xI-OZNi4W_ik2KhjgpqioTAtXLC8GzkMBQRMlyxvxyTnd5b73im&c=en-US&ur=in&da=n&logo=n&fmt=png&od=1&shading=hill&pp=22.227415,84.837799;dfp"
  },
  {
    "name": "Dr. Aditya Das",
    "address": "Motigang Road, Bateswar, Orissa",
    "phone": "Dr. Aditya Das",
    "hours": "Closed · Opens Sep 28 at 09:00",
    "imageUrl": "https://www.bing.com/maps/geoplat/REST/v1/Imagery/Map/RoadVibrant?ms=92,112&key=AnTcaqBi2ypp0xI-OZNi4W_ik2KhjgpqioTAtXLC8GzkMBQRMlyxvxyTnd5b73im&c=en-US&ur=in&da=n&logo=n&fmt=png&od=1&shading=hill&pp=21.491932,86.941063;dfp"
  },
  {
    "name": "Maa Bhagabati Homoeo Clinic",
    "address": "Arad Bazar Road, रानी पटना, Odisha 756019",
    "phone": "Maa Bhagabati Homoeo Clinic",
    "hours": null,
    "imageUrl": "https://www.bing.com/maps/geoplat/REST/v1/Imagery/Map/RoadVibrant?ms=92,112&key=AnTcaqBi2ypp0xI-OZNi4W_ik2KhjgpqioTAtXLC8GzkMBQRMlyxvxyTnd5b73im&c=en-US&ur=in&da=n&logo=n&fmt=png&od=1&shading=hill&pp=21.509701,86.925903;dfp"
  },
  {
    "name": "Dr. Manish Rout Clinic",
    "address": "Police Line, PWD Quator, Balasore, Odisha, Baleshwar, Orissa, India, 756001, Baleshwar, Madhya Pradesh 75…",
    "phone": "Dr. Manish Rout Clinic",
    "hours": "Closed · Opens 16:00",
    "imageUrl": "https://www.bing.com/th?id=OLC.hTdrS9hv%2bBbOUA480x360&w=92&h=134&c=8&rs=1&qlt=80&cdv=1&pid=Local"
  },
  {
    "name": "CURE AND CARE MultiSpeciality Clinic",
    "address": "J K Niwas Vivekanand Marg, Baleshwar, Odisha 756001",
    "phone": "CURE AND CARE MultiSpeciality Clinic",
    "hours": "Closed · Opens 07:30",
    "imageUrl": "https://www.bing.com/th?id=OLC.Uh1NQCSBSgelGQ480x360&w=92&h=134&c=8&rs=1&qlt=80&cdv=1&pid=Local"
  }
]