[
  {
    "name": "Dr Mahaveer Singh Hospital",
    "address": "National Highway 19, Ballia, 277001, India, Ballia, Bihar 277001",
    "phone": "Dr Mahaveer Singh Hospital",
    "hours": null,
    "imageUrl": "https://www.bing.com/maps/geoplat/REST/v1/Imagery/Map/RoadVibrant?ms=92,112&key=AnTcaqBi2ypp0xI-OZNi4W_ik2KhjgpqioTAtXLC8GzkMBQRMlyxvxyTnd5b73im&c=en-US&ur=in&da=n&logo=n&fmt=png&od=1&shading=hill&pp=25.756729,84.167839;dfp"
  },
  {
    "name": "Dr. A K Shukla | MBBS",
    "address": "Near Kunwar Singh Chauraha Ballia UP, Ballia, Uttar Pradesh, India, 277001, Ballia, Madhya Pradesh 277001",
    "phone": "Dr. A K Shukla | MBBS",
    "hours": "Closed · Opens 10:00",
    "imageUrl": "https://www.bing.com/th?id=OLC.hmjoBmL5hv59Hw480x360&w=92&h=134&c=8&rs=1&qlt=80&cdv=1&pid=Local"
  },
  {
    "name": "Vaishnavi poly clinic",
    "address": "Garwar Nagara Road, Ballia, Uttar Pradesh 277121",
    "phone": "Vaishnavi poly clinic",
    "hours": "Closed · Opens 09:00",
    "imageUrl": "https://www.bing.com/th?id=OLC.e7SvTEWt7Y9qxg480x360&w=92&h=134&c=8&rs=1&qlt=80&cdv=1&pid=Local"
  },
  {
    "name": "Pragya Clinic",
    "address": "Vishunipur Hospital Road, Oriental Bank Atm, Balia, Ballia, Uttar Pradesh 277001",
    "phone": "Pragya Clinic",
    "hours": null,
    "imageUrl": "https://www.bing.com/maps/geoplat/REST/v1/Imagery/Map/RoadVibrant?ms=92,112&key=AnTcaqBi2ypp0xI-OZNi4W_ik2KhjgpqioTAtXLC8GzkMBQRMlyxvxyTnd5b73im&c=en-US&ur=in&da=n&logo=n&fmt=png&od=1&shading=hill&pp=25.754807,84.147209;dfp"
  },
  {
    "name": "Dr Anil Kumar Singh",
    "address": "Loha Patti Road, Bank Of Baroda, Balia, Ballia, Uttar Pradesh 277001",
    "phone": "Dr Anil Kumar Singh",
    "hours": null,
    "imageUrl": "https://www.bing.com/maps/geoplat/REST/v1/Imagery/Map/RoadVibrant?ms=92,112&key=AnTcaqBi2ypp0xI-OZNi4W_ik2KhjgpqioTAtXLC8GzkMBQRMlyxvxyTnd5b73im&c=en-US&ur=in&da=n&logo=n&fmt=png&od=1&shading=hill&pp=25.767542,84.151321;dfp"
  },
  {
    "name": "Isha Clinic",
    "address": "Bahadurpur Main Road, Vijya Bank Branch Baliya, Parikhara Bahadurpur, Ballia, Uttar Pradesh 277001",
    "phone": "Isha Clinic",
    "hours": null,
    "imageUrl": "https://www.bing.com/maps/geoplat/REST/v1/Imagery/Map/RoadVibrant?ms=92,112&key=AnTcaqBi2ypp0xI-OZNi4W_ik2KhjgpqioTAtXLC8GzkMBQRMlyxvxyTnd5b73im&c=en-US&ur=in&da=n&logo=n&fmt=png&od=1&shading=hill&pp=25.777332,84.141068;dfp"
  },
  {
    "name": "Dr Suresh Chand Clinic",
    "address": "Aarya Samaj Road, Post Office Atm, Balia, Ballia, Uttar Pradesh 277001",
    "phone": "Dr Suresh Chand Clinic",
    "hours": null,
    "imageUrl": "https://www.bing.com/maps/geoplat/REST/v1/Imagery/Map/RoadVibrant?ms=92,112&key=AnTcaqBi2ypp0xI-OZNi4W_ik2KhjgpqioTAtXLC8GzkMBQRMlyxvxyTnd5b73im&c=en-US&ur=in&da=n&logo=n&fmt=png&od=1&shading=hill&pp=25.756952,84.15081;dfp"
  },
  {
    "name": "Dr Jay Kumar",
    "address": "Behind Greenland Hospital Karim Nagar Gorakhpur, Gorakhpur, Uttar Pradesh 273013",
    "phone": "Dr Jay Kumar",
    "hours": null,
    "imageUrl": "https://th.bing.com/th?id=OLC.ScLSayZpkqNHbg480x360&w=92&h=112&c=8&rs=1&qlt=80&cdv=1&pid=Local"
  },
  {
    "name": "Sana Clinic",
    "address": "Mdr150e Road, Union Bankof India Csp, Nidhria, Ballia, Uttar Pradesh 277001",
    "phone": "Sana Clinic",
    "hours": null,
    "imageUrl": "https://www.bing.com/maps/geoplat/REST/v1/Imagery/Map/RoadVibrant?ms=92,112&key=AnTcaqBi2ypp0xI-OZNi4W_ik2KhjgpqioTAtXLC8GzkMBQRMlyxvxyTnd5b73im&c=en-US&ur=in&da=n&logo=n&fmt=png&od=1&shading=hill&pp=25.761944,84.136971;dfp"
  },
  {
    "name": "Dr. Satya Prakash Kushwaha General Physician in Ballia",
    "address": "Girija Bhawan, Near Maheshwari Cold Storage, Madhopur, Ballia, Uttar Pradesh 277001",
    "phone": "Dr. Satya Prakash Kushwaha General Physician in Ballia",
    "hours": "Closed · Opens 09:00",
    "imageUrl": "https://www.bing.com/maps/geoplat/REST/v1/Imagery/Map/RoadVibrant?ms=92,134&key=AnTcaqBi2ypp0xI-OZNi4W_ik2KhjgpqioTAtXLC8GzkMBQRMlyxvxyTnd5b73im&c=en-US&ur=in&da=n&logo=n&fmt=png&od=1&shading=hill&pp=25.590981,83.573639;dfp"
  },
  {
    "name": "Shanti Ayurvedic Medical Collage and Hospital",
    "address": "Majhauli, Near Thana, Bansdih Road, Uttar Pradesh 277203, India, Bansdih, Uttar Pradesh 277203",
    "phone": "Shanti Ayurvedic Medical Collage and Hospital",
    "hours": null,
    "imageUrl": "https://th.bing.com/th?id=OLC.kybSlwlonU%2by8Q480x360&w=92&h=112&c=8&rs=1&qlt=80&cdv=1&pid=Local"
  },
  {
    "name": "Dr Bhupesh Singh",
    "address": "Ghazipur - Hajipur Rd, Bariya, Uttar Pradesh",
    "phone": "Dr Bhupesh Singh",
    "hours": null,
    "imageUrl": "https://www.bing.com/maps/geoplat/REST/v1/Imagery/Map/RoadVibrant?ms=92,112&key=AnTcaqBi2ypp0xI-OZNi4W_ik2KhjgpqioTAtXLC8GzkMBQRMlyxvxyTnd5b73im&c=en-US&ur=in&da=n&logo=n&fmt=png&od=1&shading=hill&pp=25.757826,84.146873;dfp"
  },
  {
    "name": "Ballia Trauma Centre Dr Manoj",
    "address": "Civil Lines (Infront Of, District Court, Ballia, Uttar Pradesh",
    "phone": "Ballia Trauma Centre Dr Manoj",
    "hours": null,
    "imageUrl": "https://www.bing.com/maps/geoplat/REST/v1/Imagery/Map/RoadVibrant?ms=92,112&key=AnTcaqBi2ypp0xI-OZNi4W_ik2KhjgpqioTAtXLC8GzkMBQRMlyxvxyTnd5b73im&c=en-US&ur=in&da=n&logo=n&fmt=png&od=1&shading=hill&pp=25.758669,84.148743;dfp"
  },
  {
    "name": "City Clinic",
    "address": "Siṅh Sadan Awas Vikas Road, Nawabganj, Uttar Pradesh 225001",
    "phone": "City Clinic",
    "hours": null,
    "imageUrl": "https://www.bing.com/maps/geoplat/REST/v1/Imagery/Map/RoadVibrant?ms=92,112&key=AnTcaqBi2ypp0xI-OZNi4W_ik2KhjgpqioTAtXLC8GzkMBQRMlyxvxyTnd5b73im&c=en-US&ur=in&da=n&logo=n&fmt=png&od=1&shading=hill&pp=25.767561,84.156319;dfp"
  },
  {
    "name": "Apoorv Heart Care Clinic",
    "address": "Q582+xv6, Harpur, Ballia, Uttar Pradesh 277001, India, Ballia, Bihar 277001",
    "phone": "Apoorv Heart Care Clinic",
    "hours": null,
    "imageUrl": "https://www.bing.com/maps/geoplat/REST/v1/Imagery/Map/RoadVibrant?ms=92,112&key=AnTcaqBi2ypp0xI-OZNi4W_ik2KhjgpqioTAtXLC8GzkMBQRMlyxvxyTnd5b73im&c=en-US&ur=in&da=n&logo=n&fmt=png&od=1&shading=hill&pp=25.766712,84.153282;dfp"
  },
  {
    "name": "Amit Kumar Verma",
    "address": "Garwar Nagara Marg, Vill- Garwar, Ballia, Uttar Pradesh 277121",
    "phone": "Amit Kumar Verma",
    "hours": "Closed · Opens 09:00",
    "imageUrl": "https://th.bing.com/th?id=OLC.bSnsCXz3fL%2fydA480x360&w=92&h=134&c=8&rs=1&qlt=80&cdv=1&pid=Local"
  },
  {
    "name": "Dr Lal PathLabs - Patient Service Centre",
    "address": "Ground Floor, Bairia Manjhi Road, Bariya, Ballia, Uttar Pradesh 277208",
    "phone": "Dr Lal PathLabs - Patient Service Centre",
    "hours": "Closed · Opens 07:30",
    "imageUrl": "https://th.bing.com/th?id=OLC.PmZ%2fXlJ4hUTe7g480x360&w=92&h=134&c=8&rs=1&qlt=80&cdv=1&pid=Local"
  },
  {
    "name": "Dr Harish Kumar Singh Clinic",
    "address": "Suremanpur Road, Central Bank Of India Atm, Raniganj, Bairia, Uttar Pradesh 277208",
    "phone": "Dr Harish Kumar Singh Clinic",
    "hours": null,
    "imageUrl": "https://www.bing.com/maps/geoplat/REST/v1/Imagery/Map/RoadVibrant?ms=92,112&key=AnTcaqBi2ypp0xI-OZNi4W_ik2KhjgpqioTAtXLC8GzkMBQRMlyxvxyTnd5b73im&c=en-US&ur=in&da=n&logo=n&fmt=png&od=1&shading=hill&pp=25.78787,84.480064;dfp"
  },
  {
    "name": "Dr Mahaveer Singh Hospital",
    "address": "National Highway 19, Ballia, 277001, India, Ballia, Bihar 277001",
    "phone": "Dr Mahaveer Singh Hospital",
    "hours": null,
    "imageUrl": "https://www.bing.com/maps/geoplat/REST/v1/Imagery/Map/RoadVibrant?ms=92,112&key=AnTcaqBi2ypp0xI-OZNi4W_ik2KhjgpqioTAtXLC8GzkMBQRMlyxvxyTnd5b73im&c=en-US&ur=in&da=n&logo=n&fmt=png&od=1&shading=hill&pp=25.756729,84.167839;dfp"
  },
  {
    "name": "Dr. A K Shukla | MBBS",
    "address": "Near Kunwar Singh Chauraha Ballia UP, Ballia, Uttar Pradesh, India, 277001, Ballia, Madhya Pradesh 277001",
    "phone": "Dr. A K Shukla | MBBS",
    "hours": "Closed · Opens 10:00",
    "imageUrl": "https://www.bing.com/th?id=OLC.hmjoBmL5hv59Hw480x360&w=92&h=134&c=8&rs=1&qlt=80&cdv=1&pid=Local"
  }
]