[
  {
    "name": "Dr. Ravi Singh",
    "address": "Sh26, Tulsi Pur, Balrampur, Uttar Pradesh 271201",
    "phone": "Dr. Ravi Singh",
    "hours": "Closed · Opens Sep 27 at 11:00",
    "imageUrl": "https://www.bing.com/th?id=OLC.JlpZ4B5OHgj1lw480x360&w=92&h=112&c=8&rs=1&qlt=80&cdv=1&pid=Local"
  },
  {
    "name": "Z S Orthopaedic Maternity Hospital and Trauma Centre",
    "address": "Panitanki Rd, Near Girl College Chauraha, Balrampur, Uttar Pradesh",
    "phone": "Z S Orthopaedic Maternity Hospital and Trauma Centre",
    "hours": null,
    "imageUrl": "https://www.bing.com/th?id=OLC.YnFvVqVQN%2foSdg480x360&w=92&h=112&c=8&rs=1&qlt=80&cdv=1&pid=Local"
  },
  {
    "name": "Dr NK Pandey Clinic",
    "address": "Sh26, Tulsi Pur, Balrampur, Uttar Pradesh 271201",
    "phone": "Dr NK Pandey Clinic",
    "hours": null,
    "imageUrl": "https://www.bing.com/maps/geoplat/REST/v1/Imagery/Map/RoadVibrant?ms=92,112&key=AnTcaqBi2ypp0xI-OZNi4W_ik2KhjgpqioTAtXLC8GzkMBQRMlyxvxyTnd5b73im&c=en-US&ur=in&da=n&logo=n&fmt=png&od=1&shading=hill&pp=27.427444,82.189842;dfp"
  },
  {
    "name": "Dr Kaushalya Gupta Clinic",
    "address": "Sh26, Tulsi Pur, Balrampur, Uttar Pradesh 271201",
    "phone": "Dr Kaushalya Gupta Clinic",
    "hours": null,
    "imageUrl": "https://www.bing.com/maps/geoplat/REST/v1/Imagery/Map/RoadVibrant?ms=92,112&key=AnTcaqBi2ypp0xI-OZNi4W_ik2KhjgpqioTAtXLC8GzkMBQRMlyxvxyTnd5b73im&c=en-US&ur=in&da=n&logo=n&fmt=png&od=1&shading=hill&pp=27.428822,82.18528;dfp"
  },
  {
    "name": "Dr. Asif Hussain- Orthopedist",
    "address": "Z S Orthopaedic Maternity Hospital And Trauma Centre, Panitanki Rd, Near Girl College Chauraha, Balrampur, …",
    "phone": "Dr. Asif Hussain- Orthopedist",
    "hours": "Open 24 hours",
    "imageUrl": "https://www.bing.com/th?id=OLC.ks%2bISsjPrR4VyA480x360&w=92&h=134&c=8&rs=1&qlt=80&cdv=1&pid=Local"
  },
  {
    "name": "DR. Dileep Singh Homoeopathic Clinic",
    "address": "276\\20, Civil Lines, Behraich Road, Balrampur, Uttar Pradesh 271201",
    "phone": "DR. Dileep Singh Homoeopathic Clinic",
    "hours": null,
    "imageUrl": "https://www.bing.com/maps/geoplat/REST/v1/Imagery/Map/RoadVibrant?ms=92,112&key=AnTcaqBi2ypp0xI-OZNi4W_ik2KhjgpqioTAtXLC8GzkMBQRMlyxvxyTnd5b73im&c=en-US&ur=in&da=n&logo=n&fmt=png&od=1&shading=hill&pp=27.432919,82.176323;dfp"
  },
  {
    "name": "Dr. Abhishek Yadav Orthopaedic",
    "address": "Bhagwatiganj Near Maszid, Balrampur, Uttar Pradesh 271201",
    "phone": "Dr. Abhishek Yadav Orthopaedic",
    "hours": "Closed · Opens 08:00",
    "imageUrl": "https://www.bing.com/maps/geoplat/REST/v1/Imagery/Map/RoadVibrant?ms=92,134&key=AnTcaqBi2ypp0xI-OZNi4W_ik2KhjgpqioTAtXLC8GzkMBQRMlyxvxyTnd5b73im&c=en-US&ur=in&da=n&logo=n&fmt=png&od=1&shading=hill&pp=27.417759,82.167206;dfp"
  },
  {
    "name": "Dr Zabbar Clinic",
    "address": "Shankarpur, Mohammad Aslam House, Balrampur, Uttar Pradesh 271201",
    "phone": "Dr Zabbar Clinic",
    "hours": null,
    "imageUrl": "https://www.bing.com/maps/geoplat/REST/v1/Imagery/Map/RoadVibrant?ms=92,112&key=AnTcaqBi2ypp0xI-OZNi4W_ik2KhjgpqioTAtXLC8GzkMBQRMlyxvxyTnd5b73im&c=en-US&ur=in&da=n&logo=n&fmt=png&od=1&shading=hill&pp=27.428551,82.184746;dfp"
  },
  {
    "name": "Sai Poly Clinic",
    "address": "Sai Plyclinic, Nursing Hone, Jarwa Road, Tulsipur, Balrampur, Uttar Pradesh 271208",
    "phone": "Sai Poly Clinic",
    "hours": null,
    "imageUrl": "https://www.bing.com/maps/geoplat/REST/v1/Imagery/Map/RoadVibrant?ms=92,112&key=AnTcaqBi2ypp0xI-OZNi4W_ik2KhjgpqioTAtXLC8GzkMBQRMlyxvxyTnd5b73im&c=en-US&ur=in&da=n&logo=n&fmt=png&od=1&shading=hill&pp=27.427927,82.188644;dfp"
  },
  {
    "name": "FI Clinic",
    "address": "Women Hospital, Chowk Road, Balrampur, Uttar Pradesh 271201",
    "phone": "FI Clinic",
    "hours": null,
    "imageUrl": "https://www.bing.com/maps/geoplat/REST/v1/Imagery/Map/RoadVibrant?ms=92,112&key=AnTcaqBi2ypp0xI-OZNi4W_ik2KhjgpqioTAtXLC8GzkMBQRMlyxvxyTnd5b73im&c=en-US&ur=in&da=n&logo=n&fmt=png&od=1&shading=hill&pp=27.430038,82.185585;dfp"
  },
  {
    "name": "Neel Kamal Homeopathic Clinic",
    "address": "Government Hospital, Sh 26, Tulsi Pur, Balrampur, Uttar Pradesh 271201",
    "phone": "Neel Kamal Homeopathic Clinic",
    "hours": null,
    "imageUrl": "https://www.bing.com/maps/geoplat/REST/v1/Imagery/Map/RoadVibrant?ms=92,112&key=AnTcaqBi2ypp0xI-OZNi4W_ik2KhjgpqioTAtXLC8GzkMBQRMlyxvxyTnd5b73im&c=en-US&ur=in&da=n&logo=n&fmt=png&od=1&shading=hill&pp=27.431046,82.185844;dfp"
  },
  {
    "name": "Dr Deepak Kumar",
    "address": "Pahalwara, Dr. Deepak Clicnic, Balrampur, Uttar Pradesh 271201",
    "phone": "Dr Deepak Kumar",
    "hours": null,
    "imageUrl": "https://www.bing.com/maps/geoplat/REST/v1/Imagery/Map/RoadVibrant?ms=92,112&key=AnTcaqBi2ypp0xI-OZNi4W_ik2KhjgpqioTAtXLC8GzkMBQRMlyxvxyTnd5b73im&c=en-US&ur=in&da=n&logo=n&fmt=png&od=1&shading=hill&pp=27.431179,82.1931;dfp"
  },
  {
    "name": "Dr. Krishna Bhawan Tiwari",
    "address": "City Palace Road, Balrampur, Uttar Pradesh",
    "phone": "Dr. Krishna Bhawan Tiwari",
    "hours": "Closed · Opens 09:30",
    "imageUrl": "https://th.bing.com/th?id=OLC.9i3e1S1JDrTKIg480x360&w=92&h=112&c=8&rs=1&qlt=80&cdv=1&pid=Local"
  },
  {
    "name": "Dr Lal PathLabs",
    "address": "Peepal Tiraha, Bahraich Rd, Khalwa Mohalla, Pahalwara, Balrampur, Uttar Pradesh",
    "phone": "Dr Lal PathLabs",
    "hours": null,
    "imageUrl": "https://www.bing.com/maps/geoplat/REST/v1/Imagery/Map/RoadVibrant?ms=92,112&key=AnTcaqBi2ypp0xI-OZNi4W_ik2KhjgpqioTAtXLC8GzkMBQRMlyxvxyTnd5b73im&c=en-US&ur=in&da=n&logo=n&fmt=png&od=1&shading=hill&pp=27.431993,82.183212;dfp"
  },
  {
    "name": "Balrampur Ct Scan Centre & Hitech Laboratory",
    "address": "Opposite Geeta Nursing Home, Near Major Chauraha, Balrampur, Uttar Pradesh, Uttar Pradesh 271201",
    "phone": "Balrampur Ct Scan Centre & Hitech Laboratory",
    "hours": null,
    "imageUrl": "https://www.bing.com/maps/geoplat/REST/v1/Imagery/Map/RoadVibrant?ms=92,112&key=AnTcaqBi2ypp0xI-OZNi4W_ik2KhjgpqioTAtXLC8GzkMBQRMlyxvxyTnd5b73im&c=en-US&ur=in&da=n&logo=n&fmt=png&od=1&shading=hill&pp=27.429205,82.188354;dfp"
  },
  {
    "name": "Yadav Dental Care Clinic",
    "address": "Sh26, Bhagwati Ganj, Balrampur, Uttar Pradesh 271201",
    "phone": "Yadav Dental Care Clinic",
    "hours": "Closed · Opens 10:00",
    "imageUrl": "https://th.bing.com/th?id=OLC.raUXQi2i%2fTEF%2fw480x360&w=92&h=134&c=8&rs=1&qlt=80&cdv=1&pid=Local"
  },
  {
    "name": "Dr. Ravi Singh",
    "address": "Sh26, Tulsi Pur, Balrampur, Uttar Pradesh 271201",
    "phone": "Dr. Ravi Singh",
    "hours": "Closed · Opens Sep 27 at 11:00",
    "imageUrl": "https://www.bing.com/th?id=OLC.JlpZ4B5OHgj1lw480x360&w=92&h=112&c=8&rs=1&qlt=80&cdv=1&pid=Local"
  },
  {
    "name": "Z S Orthopaedic Maternity Hospital and Trauma Centre",
    "address": "Panitanki Rd, Near Girl College Chauraha, Balrampur, Uttar Pradesh",
    "phone": "Z S Orthopaedic Maternity Hospital and Trauma Centre",
    "hours": null,
    "imageUrl": "https://www.bing.com/th?id=OLC.YnFvVqVQN%2foSdg480x360&w=92&h=112&c=8&rs=1&qlt=80&cdv=1&pid=Local"
  },
  {
    "name": "Dr NK Pandey Clinic",
    "address": "Sh26, Tulsi Pur, Balrampur, Uttar Pradesh 271201",
    "phone": "Dr NK Pandey Clinic",
    "hours": null,
    "imageUrl": "https://www.bing.com/maps/geoplat/REST/v1/Imagery/Map/RoadVibrant?ms=92,112&key=AnTcaqBi2ypp0xI-OZNi4W_ik2KhjgpqioTAtXLC8GzkMBQRMlyxvxyTnd5b73im&c=en-US&ur=in&da=n&logo=n&fmt=png&od=1&shading=hill&pp=27.427444,82.189842;dfp"
  },
  {
    "name": "Dr Kaushalya Gupta Clinic",
    "address": "Sh26, Tulsi Pur, Balrampur, Uttar Pradesh 271201",
    "phone": "Dr Kaushalya Gupta Clinic",
    "hours": null,
    "imageUrl": "https://www.bing.com/maps/geoplat/REST/v1/Imagery/Map/RoadVibrant?ms=92,112&key=AnTcaqBi2ypp0xI-OZNi4W_ik2KhjgpqioTAtXLC8GzkMBQRMlyxvxyTnd5b73im&c=en-US&ur=in&da=n&logo=n&fmt=png&od=1&shading=hill&pp=27.428822,82.18528;dfp"
  }
]