[
  {
    "name": "Vyas Clinic",
    "address": "Kotwali - Banyota Rd, Chhoti Bazar, Banda, Uttar Pradesh",
    "phone": "Vyas Clinic",
    "hours": null,
    "imageUrl": "https://www.bing.com/th?id=OLC.20BQlBMuX4mwiQ480x360&w=92&h=112&c=8&rs=1&qlt=80&cdv=1&pid=Local"
  },
  {
    "name": "Raj Clinic",
    "address": "Chhawni Road, Banda, Uttar Pradesh 210001",
    "phone": "Raj Clinic",
    "hours": null,
    "imageUrl": "https://www.bing.com/maps/geoplat/REST/v1/Imagery/Map/RoadVibrant?ms=92,112&key=AnTcaqBi2ypp0xI-OZNi4W_ik2KhjgpqioTAtXLC8GzkMBQRMlyxvxyTnd5b73im&c=en-US&ur=in&da=n&logo=n&fmt=png&od=1&shading=hill&pp=25.474178,80.336113;dfp"
  },
  {
    "name": "Puspa Clinic",
    "address": "Allahabad Up Gramin Bank, National Highways 76, Kyotara, Banda, Uttar Pradesh 210001",
    "phone": "Puspa Clinic",
    "hours": null,
    "imageUrl": "https://www.bing.com/maps/geoplat/REST/v1/Imagery/Map/RoadVibrant?ms=92,112&key=AnTcaqBi2ypp0xI-OZNi4W_ik2KhjgpqioTAtXLC8GzkMBQRMlyxvxyTnd5b73im&c=en-US&ur=in&da=n&logo=n&fmt=png&od=1&shading=hill&pp=25.482405,80.326775;dfp"
  },
  {
    "name": "Aayush Clinic",
    "address": "Katra Banda, Nh76 Chitrakoot Banda Road, Banda, Uttar Pradesh 210001",
    "phone": "Aayush Clinic",
    "hours": null,
    "imageUrl": "https://www.bing.com/maps/geoplat/REST/v1/Imagery/Map/RoadVibrant?ms=92,112&key=AnTcaqBi2ypp0xI-OZNi4W_ik2KhjgpqioTAtXLC8GzkMBQRMlyxvxyTnd5b73im&c=en-US&ur=in&da=n&logo=n&fmt=png&od=1&shading=hill&pp=25.482494,80.32682;dfp"
  },
  {
    "name": "Dr. Vishnu Gupta",
    "address": "F8pm+4px, Banda, Uttar Pradesh, Uttar Pradesh 210001",
    "phone": "Dr. Vishnu Gupta",
    "hours": null,
    "imageUrl": "https://www.bing.com/maps/geoplat/REST/v1/Imagery/Map/RoadVibrant?ms=92,112&key=AnTcaqBi2ypp0xI-OZNi4W_ik2KhjgpqioTAtXLC8GzkMBQRMlyxvxyTnd5b73im&c=en-US&ur=in&da=n&logo=n&fmt=png&od=1&shading=hill&pp=25.472132,80.332367;clcp"
  },
  {
    "name": "Vyas Clinic",
    "address": "Park Road, Banda, Uttar Pradesh 210001",
    "phone": "Vyas Clinic",
    "hours": null,
    "imageUrl": "https://www.bing.com/maps/geoplat/REST/v1/Imagery/Map/RoadVibrant?ms=92,112&key=AnTcaqBi2ypp0xI-OZNi4W_ik2KhjgpqioTAtXLC8GzkMBQRMlyxvxyTnd5b73im&c=en-US&ur=in&da=n&logo=n&fmt=png&od=1&shading=hill&pp=25.458954,80.34893;dfp"
  },
  {
    "name": "Dr. Shiv Pratap Singh",
    "address": "Chilla Road, Swaraj Colony, Banda, Uttar Pradesh",
    "phone": "Dr. Shiv Pratap Singh",
    "hours": "Closed Â· Opens 10:00",
    "imageUrl": "https://www.bing.com/maps/geoplat/REST/v1/Imagery/Map/RoadVibrant?ms=92,112&key=AnTcaqBi2ypp0xI-OZNi4W_ik2KhjgpqioTAtXLC8GzkMBQRMlyxvxyTnd5b73im&c=en-US&ur=in&da=n&logo=n&fmt=png&od=1&shading=hill&pp=25.486387,80.333542;dfp"
  },
  {
    "name": "Metropolis Healthcare Limited - Pathology Lab, Diagnostic Centre",
    "address": "Shop No 45, Gate No 1, Indira Nagar, Infront of Bethel Church, Banda, Uttar Pradesh 210001",
    "phone": "Metropolis Healthcare Limited - Pathology Lab, Diagnostic Centre",
    "hours": "Opens in 3 mins",
    "imageUrl": "https://www.bing.com/maps/geoplat/REST/v1/Imagery/Map/RoadVibrant?ms=92,134&key=AnTcaqBi2ypp0xI-OZNi4W_ik2KhjgpqioTAtXLC8GzkMBQRMlyxvxyTnd5b73im&c=en-US&ur=in&da=n&logo=n&fmt=png&od=1&shading=hill&pp=25.493349,80.339027;dfp"
  },
  {
    "name": "Vikas Pathology Lab",
    "address": "Opp GIC, District Hospital Road, Banda Civil Lines Area, Uttar Pradesh",
    "phone": "Vikas Pathology Lab",
    "hours": null,
    "imageUrl": "https://www.bing.com/maps/geoplat/REST/v1/Imagery/Map/RoadVibrant?ms=92,112&key=AnTcaqBi2ypp0xI-OZNi4W_ik2KhjgpqioTAtXLC8GzkMBQRMlyxvxyTnd5b73im&c=en-US&ur=in&da=n&logo=n&fmt=png&od=1&shading=hill&pp=25.481537,80.333397;dfp"
  },
  {
    "name": "Sardar Enterprises",
    "address": "282/21, Mardan Naka, Banda, Uttar Pradesh 210001",
    "phone": "Sardar Enterprises",
    "hours": null,
    "imageUrl": "https://www.bing.com/maps/geoplat/REST/v1/Imagery/Map/RoadVibrant?ms=92,112&key=AnTcaqBi2ypp0xI-OZNi4W_ik2KhjgpqioTAtXLC8GzkMBQRMlyxvxyTnd5b73im&c=en-US&ur=in&da=n&logo=n&fmt=png&od=1&shading=hill&pp=25.471756,80.339539;dfp"
  },
  {
    "name": "Bajranga Diagnostic and Ct Scan Centre",
    "address": "Infront OF BSA Offive, Civil Line, Banda, Uttar Pradesh 210001",
    "phone": "Bajranga Diagnostic and Ct Scan Centre",
    "hours": null,
    "imageUrl": "https://www.bing.com/maps/geoplat/REST/v1/Imagery/Map/RoadVibrant?ms=92,112&key=AnTcaqBi2ypp0xI-OZNi4W_ik2KhjgpqioTAtXLC8GzkMBQRMlyxvxyTnd5b73im&c=en-US&ur=in&da=n&logo=n&fmt=png&od=1&shading=hill&pp=25.486511,80.334801;dfp"
  },
  {
    "name": "Indra Pathology Diagnostic Centre",
    "address": "Civil Lines, Chilla Road, Banda, Uttar Pradesh 210001",
    "phone": "Indra Pathology Diagnostic Centre",
    "hours": null,
    "imageUrl": "https://www.bing.com/maps/geoplat/REST/v1/Imagery/Map/RoadVibrant?ms=92,112&key=AnTcaqBi2ypp0xI-OZNi4W_ik2KhjgpqioTAtXLC8GzkMBQRMlyxvxyTnd5b73im&c=en-US&ur=in&da=n&logo=n&fmt=png&od=1&shading=hill&pp=25.481682,80.333191;dfp"
  },
  {
    "name": "Kamla Clinic and Maternity Home",
    "address": "257, Banda Road, Azad Nagar, Atarra, Banda, Uttar Pradesh 210201",
    "phone": "Kamla Clinic and Maternity Home",
    "hours": null,
    "imageUrl": "https://th.bing.com/th?id=OLC.Qw4xhdWHGvwaXQ480x360&w=92&h=112&c=8&rs=1&qlt=80&cdv=1&pid=Local"
  },
  {
    "name": "Chandra Pathology",
    "address": "Jama Masjid Road, Banda, Uttar Pradesh 210001",
    "phone": "Chandra Pathology",
    "hours": null,
    "imageUrl": "https://www.bing.com/maps/geoplat/REST/v1/Imagery/Map/RoadVibrant?ms=92,112&key=AnTcaqBi2ypp0xI-OZNi4W_ik2KhjgpqioTAtXLC8GzkMBQRMlyxvxyTnd5b73im&c=en-US&ur=in&da=n&logo=n&fmt=png&od=1&shading=hill&pp=25.469431,80.338867;dfp"
  },
  {
    "name": "Dr Pal Dentist",
    "address": "Station Road, Station, Banda, Uttar Pradesh 210001",
    "phone": "Dr Pal Dentist",
    "hours": null,
    "imageUrl": "https://www.bing.com/maps/geoplat/REST/v1/Imagery/Map/RoadVibrant?ms=92,112&key=AnTcaqBi2ypp0xI-OZNi4W_ik2KhjgpqioTAtXLC8GzkMBQRMlyxvxyTnd5b73im&c=en-US&ur=in&da=n&logo=n&fmt=png&od=1&shading=hill&pp=25.476082,80.334717;dfp"
  },
  {
    "name": "Dr. B R Ambedkar Law College Girwan (Banda)",
    "address": "Dr. Ambedkar Vidhi Mahavidyalaya, Girwan Banda, Uttar Pradesh",
    "phone": "Dr. B R Ambedkar Law College Girwan (Banda)",
    "hours": null,
    "imageUrl": "https://www.bing.com/maps/geoplat/REST/v1/Imagery/Map/RoadVibrant?ms=92,112&key=AnTcaqBi2ypp0xI-OZNi4W_ik2KhjgpqioTAtXLC8GzkMBQRMlyxvxyTnd5b73im&c=en-US&ur=in&da=n&logo=n&fmt=png&od=1&shading=hill&pp=25.480623,80.33419;dfp"
  },
  {
    "name": "Rayeen Pathology",
    "address": "Mardan Naka, Hazi Sardar Masjid Road, Banda, Uttar Pradesh 210001",
    "phone": "Rayeen Pathology",
    "hours": null,
    "imageUrl": "https://www.bing.com/maps/geoplat/REST/v1/Imagery/Map/RoadVibrant?ms=92,112&key=AnTcaqBi2ypp0xI-OZNi4W_ik2KhjgpqioTAtXLC8GzkMBQRMlyxvxyTnd5b73im&c=en-US&ur=in&da=n&logo=n&fmt=png&od=1&shading=hill&pp=25.467037,80.333618;dfp"
  },
  {
    "name": "Vyas Clinic",
    "address": "Kotwali - Banyota Rd, Chhoti Bazar, Banda, Uttar Pradesh",
    "phone": "Vyas Clinic",
    "hours": null,
    "imageUrl": "https://www.bing.com/th?id=OLC.20BQlBMuX4mwiQ480x360&w=92&h=112&c=8&rs=1&qlt=80&cdv=1&pid=Local"
  },
  {
    "name": "Raj Clinic",
    "address": "Chhawni Road, Banda, Uttar Pradesh 210001",
    "phone": "Raj Clinic",
    "hours": null,
    "imageUrl": "https://www.bing.com/maps/geoplat/REST/v1/Imagery/Map/RoadVibrant?ms=92,112&key=AnTcaqBi2ypp0xI-OZNi4W_ik2KhjgpqioTAtXLC8GzkMBQRMlyxvxyTnd5b73im&c=en-US&ur=in&da=n&logo=n&fmt=png&od=1&shading=hill&pp=25.474178,80.336113;dfp"
  },
  {
    "name": "Puspa Clinic",
    "address": "Allahabad Up Gramin Bank, National Highways 76, Kyotara, Banda, Uttar Pradesh 210001",
    "phone": "Puspa Clinic",
    "hours": null,
    "imageUrl": "https://www.bing.com/maps/geoplat/REST/v1/Imagery/Map/RoadVibrant?ms=92,112&key=AnTcaqBi2ypp0xI-OZNi4W_ik2KhjgpqioTAtXLC8GzkMBQRMlyxvxyTnd5b73im&c=en-US&ur=in&da=n&logo=n&fmt=png&od=1&shading=hill&pp=25.482405,80.326775;dfp"
  }
]