[
  {
    "name": "Dr. Thota Radhakrishna | BestInternal Medicine in Richmond | Fortis Hospital, Bangolre",
    "address": "Cabin No : 9, No:62, Richmond Road, Mother Teresa Rd, Near Near Near Near Behind Sacred Heart Church Entr…",
    "phone": "Dr. Thota Radhakrishna | BestInternal Medicine in Richmond | Fortis Hospital, Bangolre",
    "hours": "Closed · Opens 10:00",
    "imageUrl": "https://www.bing.com/maps/geoplat/REST/v1/Imagery/Map/RoadVibrant?ms=92,134&key=AnTcaqBi2ypp0xI-OZNi4W_ik2KhjgpqioTAtXLC8GzkMBQRMlyxvxyTnd5b73im&c=en-US&ur=in&da=n&logo=n&fmt=png&od=1&shading=hill&pp=12.96577,77.60186;dfp"
  },
  {
    "name": "Dr. Niranjan",
    "address": "23\\2\\23\\19, 96\\30, Seetha Building, Vidhyanagar Main Road, 3RD Cross, Uttara Kannada, Karnataka 581402",
    "phone": "Dr. Niranjan",
    "hours": "Closed · Opens 09:00",
    "imageUrl": "https://www.bing.com/maps/geoplat/REST/v1/Imagery/Map/RoadVibrant?ms=92,112&key=AnTcaqBi2ypp0xI-OZNi4W_ik2KhjgpqioTAtXLC8GzkMBQRMlyxvxyTnd5b73im&c=en-US&ur=in&da=n&logo=n&fmt=png&od=1&shading=hill&pp=12.97252,77.573799;dfp"
  },
  {
    "name": "Dr. Munireddy M",
    "address": "2, Vittal Mallya Road, Bengaluru, Karnataka",
    "phone": "Dr. Munireddy M",
    "hours": "Closed · Opens 08:00",
    "imageUrl": "https://www.bing.com/maps/geoplat/REST/v1/Imagery/Map/RoadVibrant?ms=92,112&key=AnTcaqBi2ypp0xI-OZNi4W_ik2KhjgpqioTAtXLC8GzkMBQRMlyxvxyTnd5b73im&c=en-US&ur=in&da=n&logo=n&fmt=png&od=1&shading=hill&pp=12.970826,77.597313;dfp"
  },
  {
    "name": "Dr. Ss Kumar",
    "address": "New Number 1, Old Number 28, Platform Road, Bengaluru, Karnataka",
    "phone": "Dr. Ss Kumar",
    "hours": "Closed · Opens 10:30",
    "imageUrl": "https://www.bing.com/maps/geoplat/REST/v1/Imagery/Map/RoadVibrant?ms=92,112&key=AnTcaqBi2ypp0xI-OZNi4W_ik2KhjgpqioTAtXLC8GzkMBQRMlyxvxyTnd5b73im&c=en-US&ur=in&da=n&logo=n&fmt=png&od=1&shading=hill&pp=12.987854,77.571869;dfp"
  },
  {
    "name": "Dr. Rajashekara Reddy Hv",
    "address": "31/32, Crescent Road, Madhava Nagar, Bangalore 560001",
    "phone": "Dr. Rajashekara Reddy Hv",
    "hours": "Closed · Opens 14:00",
    "imageUrl": "https://www.bing.com/th?id=OLC.ffchlVU9%2fjaSTg480x360&w=92&h=134&c=8&rs=1&qlt=80&cdv=1&pid=Local"
  },
  {
    "name": "Best General practitioner - Dr. Sharada | 30+ Yrs of Exp. | Bangalore",
    "address": "Apollo Hospitals Sheshadripuram, Old No. 28, 1, Platform Rd, Near Mantri Square Mall, Bangalore, Karnataka 56…",
    "phone": "Best General practitioner - Dr. Sharada | 30+ Yrs of Exp. | Bangalore",
    "hours": "Closed · Opens 09:00",
    "imageUrl": "https://www.bing.com/th?id=OLC.rR%2bYVC9VcGrR3A480x360&w=92&h=134&c=8&rs=1&qlt=80&cdv=1&pid=Local"
  },
  {
    "name": "Dr Guruprasad",
    "address": "Crescent Road, Bengaluru, Karnataka 560001",
    "phone": "Dr Guruprasad",
    "hours": "Closed · Opens 09:00",
    "imageUrl": "https://th.bing.com/th?id=OLC.90e4z9TIpOE3Kg480x360&w=92&h=134&c=8&rs=1&qlt=80&cdv=1&pid=Local"
  },
  {
    "name": "Dr. Dinesh V Kamath",
    "address": "Apollo Hospitals Seshadripuram, New No.1, old No.28, Platform Road, Near Mantri Mall, Seshadripuram, Beng…",
    "phone": "Dr. Dinesh V Kamath",
    "hours": "Closed · Opens 17:00",
    "imageUrl": "https://th.bing.com/th?id=OLC.zNH4anBpWBCY0Q480x360&w=92&h=134&c=8&rs=1&qlt=80&cdv=1&pid=Local"
  },
  {
    "name": "Dr. Bhaskar Balasundaram",
    "address": "29, 11th Main Road, Malleshwaram West, Bengaluru, Karnataka",
    "phone": "Dr. Bhaskar Balasundaram",
    "hours": "Closed · Opens 17:30",
    "imageUrl": "https://www.bing.com/maps/geoplat/REST/v1/Imagery/Map/RoadVibrant?ms=92,112&key=AnTcaqBi2ypp0xI-OZNi4W_ik2KhjgpqioTAtXLC8GzkMBQRMlyxvxyTnd5b73im&c=en-US&ur=in&da=n&logo=n&fmt=png&od=1&shading=hill&pp=13.001645,77.574631;dfp"
  },
  {
    "name": "Best Neurologist - Dr. Pramod M N, 10+ yrs of Exp | Nervous System Dr | Brain Specialist | Bangalore",
    "address": "Apollo Hospitals Sheshadripuram, Old No. 28, 1, Platform Rd, Near Mantri Square Mall, Bangalore, Karnataka 56…",
    "phone": "Best Neurologist - Dr. Pramod M N, 10+ yrs of Exp | Nervous System Dr | Brain Specialist | Bangalore",
    "hours": "Closed · Opens 08:30",
    "imageUrl": "https://th.bing.com/th?id=OLC.Lo3WMP4PrTUNbQ480x360&w=92&h=134&c=8&rs=1&qlt=80&cdv=1&pid=Local"
  },
  {
    "name": "Dr. K S V Babu",
    "address": "Sajjan Rao Circle, V.V Puram, Bengaluru, Karnataka",
    "phone": "Dr. K S V Babu",
    "hours": "Closed · Opens 10:00",
    "imageUrl": "https://www.bing.com/maps/geoplat/REST/v1/Imagery/Map/RoadVibrant?ms=92,134&key=AnTcaqBi2ypp0xI-OZNi4W_ik2KhjgpqioTAtXLC8GzkMBQRMlyxvxyTnd5b73im&c=en-US&ur=in&da=n&logo=n&fmt=png&od=1&shading=hill&pp=12.952441,77.577126;dfp"
  },
  {
    "name": "Dr. B R Naziulla",
    "address": "43/1, Charminar Masjid Road, Shivajinagar, Landmark: Near Mascot Company, Bengaluru, Karnataka",
    "phone": "Dr. B R Naziulla",
    "hours": "Closed · Opens 11:00",
    "imageUrl": "https://www.bing.com/maps/geoplat/REST/v1/Imagery/Map/RoadVibrant?ms=92,112&key=AnTcaqBi2ypp0xI-OZNi4W_ik2KhjgpqioTAtXLC8GzkMBQRMlyxvxyTnd5b73im&c=en-US&ur=in&da=n&logo=n&fmt=png&od=1&shading=hill&pp=12.984859,77.599243;dfp"
  },
  {
    "name": "Unique Healthcare Centre, Rajajinagar, Bangalore",
    "address": "1761 Navrang Circle, Dr Rajkumar Rd, Bangalore 560010",
    "phone": "Unique Healthcare Centre, Rajajinagar, Bangalore",
    "hours": null,
    "imageUrl": "https://th.bing.com/th?id=OLC.oDxEWb74OlqhTw480x360&w=92&h=112&c=8&rs=1&qlt=80&cdv=1&pid=Local"
  },
  {
    "name": "Dr. Vijay Kumar",
    "address": "75/c, Kempegowda Nagar., Landmark, Bangalore, Bangalore 560019",
    "phone": "Dr. Vijay Kumar",
    "hours": "Closed · Opens 10:00",
    "imageUrl": "https://th.bing.com/th?id=OLC.%2fAIpXEdTopZ2Pw480x360&w=92&h=134&c=8&rs=1&qlt=80&cdv=1&pid=Local"
  },
  {
    "name": "Dr. Sugandh",
    "address": "Golf Course Road, Gurugram, Haryana",
    "phone": "Dr. Sugandh",
    "hours": "Closed · Opens 10:00",
    "imageUrl": "https://www.bing.com/maps/geoplat/REST/v1/Imagery/Map/RoadVibrant?ms=92,112&key=AnTcaqBi2ypp0xI-OZNi4W_ik2KhjgpqioTAtXLC8GzkMBQRMlyxvxyTnd5b73im&c=en-US&ur=in&da=n&logo=n&fmt=png&od=1&shading=hill&pp=12.975001,77.600494;dfp"
  },
  {
    "name": "Dr. Ameet Oswal",
    "address": "18, Parvathipuram, Vishweshwarapura, Basavanagudi, Bangalore, Karnataka",
    "phone": "Dr. Ameet Oswal",
    "hours": null,
    "imageUrl": "https://www.bing.com/maps/geoplat/REST/v1/Imagery/Map/RoadVibrant?ms=92,112&key=AnTcaqBi2ypp0xI-OZNi4W_ik2KhjgpqioTAtXLC8GzkMBQRMlyxvxyTnd5b73im&c=en-US&ur=in&da=n&logo=n&fmt=png&od=1&shading=hill&pp=12.967358,77.577568;dfp"
  },
  {
    "name": "Dr. Basharat Nadeem",
    "address": "1St Cross Road, Nehuru Nagar, Seshadripuram, Bengaluru, Karnataka 560020",
    "phone": "Dr. Basharat Nadeem",
    "hours": "Closed · Opens 10:30",
    "imageUrl": "https://th.bing.com/th?id=OLC.WnSM5Ugr6TwFQg480x360&w=92&h=112&c=8&rs=1&qlt=80&cdv=1&pid=Local"
  },
  {
    "name": "Dr. Chetan Kumar.N.G",
    "address": "1A/87, Dr Raj Kumar Road, 4th N Block, Near Yamaha Show Room & Sujata Theater, Rajajinagar, Bengaluru, …",
    "phone": "Dr. Chetan Kumar.N.G",
    "hours": null,
    "imageUrl": "https://th.bing.com/th?id=OLC.C0riB6KSsUHZlQ480x360&w=92&h=112&c=8&rs=1&qlt=80&cdv=1&pid=Local"
  },
  {
    "name": "Dr. Thota Radhakrishna | BestInternal Medicine in Richmond | Fortis Hospital, Bangolre",
    "address": "Cabin No : 9, No:62, Richmond Road, Mother Teresa Rd, Near Near Near Near Behind Sacred Heart Church Entr…",
    "phone": "Dr. Thota Radhakrishna | BestInternal Medicine in Richmond | Fortis Hospital, Bangolre",
    "hours": "Closed · Opens 10:00",
    "imageUrl": "https://www.bing.com/maps/geoplat/REST/v1/Imagery/Map/RoadVibrant?ms=92,134&key=AnTcaqBi2ypp0xI-OZNi4W_ik2KhjgpqioTAtXLC8GzkMBQRMlyxvxyTnd5b73im&c=en-US&ur=in&da=n&logo=n&fmt=png&od=1&shading=hill&pp=12.96577,77.60186;dfp"
  },
  {
    "name": "Dr. Niranjan",
    "address": "23\\2\\23\\19, 96\\30, Seetha Building, Vidhyanagar Main Road, 3RD Cross, Uttara Kannada, Karnataka 581402",
    "phone": "Dr. Niranjan",
    "hours": "Closed · Opens 09:00",
    "imageUrl": "https://www.bing.com/maps/geoplat/REST/v1/Imagery/Map/RoadVibrant?ms=92,112&key=AnTcaqBi2ypp0xI-OZNi4W_ik2KhjgpqioTAtXLC8GzkMBQRMlyxvxyTnd5b73im&c=en-US&ur=in&da=n&logo=n&fmt=png&od=1&shading=hill&pp=12.97252,77.573799;dfp"
  }
]