[
  {
    "name": "Dr. Yasir Saleem | MBBS",
    "address": "Banki Barabanki, Barabanki, Uttar Pradesh, India, 225001, Barabanki, Madhya Pradesh 225001",
    "phone": "Dr. Yasir Saleem | MBBS",
    "hours": "Closed · Opens 10:00",
    "imageUrl": "https://www.bing.com/maps/geoplat/REST/v1/Imagery/Map/RoadVibrant?ms=92,134&key=AnTcaqBi2ypp0xI-OZNi4W_ik2KhjgpqioTAtXLC8GzkMBQRMlyxvxyTnd5b73im&c=en-US&ur=in&da=n&logo=n&fmt=png&od=1&shading=hill&pp=26.935116,81.218887;dfp"
  },
  {
    "name": "Swastik Clinic (DR.Shubham Dwivedi Mbbs",
    "address": "Makkah Tower, Opposite Canara Bank, Company Bagh, Barabanki, Madhya Pradesh 225001",
    "phone": "Swastik Clinic (DR.Shubham Dwivedi Mbbs",
    "hours": "Closed · Opens 10:00",
    "imageUrl": "https://www.bing.com/th?id=OLC.KaYsBzGEvOFNLA480x360&w=92&h=134&c=8&rs=1&qlt=80&cdv=1&pid=Local"
  },
  {
    "name": "Anupama Hospital (Dr. Anupama Tibrewal)",
    "address": "Dewa Road Barabanki, Company Abgh, Barabanki, Uttar Pradesh 225001",
    "phone": "Anupama Hospital (Dr. Anupama Tibrewal)",
    "hours": null,
    "imageUrl": "https://www.bing.com/maps/geoplat/REST/v1/Imagery/Map/RoadVibrant?ms=92,112&key=AnTcaqBi2ypp0xI-OZNi4W_ik2KhjgpqioTAtXLC8GzkMBQRMlyxvxyTnd5b73im&c=en-US&ur=in&da=n&logo=n&fmt=png&od=1&shading=hill&pp=26.930542,81.185394;dfp"
  },
  {
    "name": "Nisha Health Care Clinic, Dr M S Siddiqui",
    "address": "Station Rd, Near - Ultra Pathalogy, Ghosiyana, Preet Vihar Colony, Civil Lines, Barabanki, Uttar Pradesh",
    "phone": "Nisha Health Care Clinic, Dr M S Siddiqui",
    "hours": null,
    "imageUrl": "https://www.bing.com/maps/geoplat/REST/v1/Imagery/Map/RoadVibrant?ms=92,112&key=AnTcaqBi2ypp0xI-OZNi4W_ik2KhjgpqioTAtXLC8GzkMBQRMlyxvxyTnd5b73im&c=en-US&ur=in&da=n&logo=n&fmt=png&od=1&shading=hill&pp=26.930613,81.190048;dfp"
  },
  {
    "name": "Ansari Clinic",
    "address": "Main Market Road, Mankameshwar Temple, Saravagi Colony, Barabanki, Uttar Pradesh 225001",
    "phone": "Ansari Clinic",
    "hours": null,
    "imageUrl": "https://www.bing.com/maps/geoplat/REST/v1/Imagery/Map/RoadVibrant?ms=92,112&key=AnTcaqBi2ypp0xI-OZNi4W_ik2KhjgpqioTAtXLC8GzkMBQRMlyxvxyTnd5b73im&c=en-US&ur=in&da=n&logo=n&fmt=png&od=1&shading=hill&pp=26.930399,81.19841;dfp"
  },
  {
    "name": "Dr. Saurabh Kushwaha",
    "address": "Pharmawizz, Raviniketan, Azadnagar, Barabanki, Uttar Pradesh 225001",
    "phone": "Dr. Saurabh Kushwaha",
    "hours": null,
    "imageUrl": "https://www.bing.com/th?id=OLC.hdYg7VljMoXeew480x360&w=92&h=112&c=8&rs=1&qlt=80&cdv=1&pid=Local"
  },
  {
    "name": "Dr. Arun Verma (pt)",
    "address": "Pancham Das Kuti, Dasharabagh Barabanki, Barabanki, Uttar Pradesh",
    "phone": "Dr. Arun Verma (pt)",
    "hours": "Closed · Opens Sep 29 at 09:00",
    "imageUrl": "https://www.bing.com/maps/geoplat/REST/v1/Imagery/Map/RoadVibrant?ms=92,112&key=AnTcaqBi2ypp0xI-OZNi4W_ik2KhjgpqioTAtXLC8GzkMBQRMlyxvxyTnd5b73im&c=en-US&ur=in&da=n&logo=n&fmt=png&od=1&shading=hill&pp=26.921869,81.197556;dfp"
  },
  {
    "name": "Dr. M Khan",
    "address": "Infront of Kisan Union Office Near Afeem Kothi Raj Kamal Road, Chhaya Chauraha, Barabanki, Uttar Pradesh",
    "phone": "Dr. M Khan",
    "hours": null,
    "imageUrl": "https://www.bing.com/maps/geoplat/REST/v1/Imagery/Map/RoadVibrant?ms=92,112&key=AnTcaqBi2ypp0xI-OZNi4W_ik2KhjgpqioTAtXLC8GzkMBQRMlyxvxyTnd5b73im&c=en-US&ur=in&da=n&logo=n&fmt=png&od=1&shading=hill&pp=26.932549,81.191574;clcp"
  },
  {
    "name": "Dr Prem Prakash Clinic",
    "address": "Faizabad Road, Naka Satrik, Barabanki, Uttar Pradesh 225001",
    "phone": "Dr Prem Prakash Clinic",
    "hours": null,
    "imageUrl": "https://www.bing.com/maps/geoplat/REST/v1/Imagery/Map/RoadVibrant?ms=92,112&key=AnTcaqBi2ypp0xI-OZNi4W_ik2KhjgpqioTAtXLC8GzkMBQRMlyxvxyTnd5b73im&c=en-US&ur=in&da=n&logo=n&fmt=png&od=1&shading=hill&pp=26.926821,81.197151;dfp"
  },
  {
    "name": "EXCEL UROLOGY HOSPITAL Dr. RAVI PANDEY(Mch urology)- Best Urologist | Best Kidney Doctor in Baraba…",
    "address": "Haidergarh Rd, Near Satokhar Talab Dashrabagh, Gayas Nagar, Lakhpedabagh, Barabanki, Barel, Uttar Pradesh",
    "phone": "EXCEL UROLOGY HOSPITAL Dr. RAVI PANDEY(Mch urology)- Best Urologist | Best Kidney Doctor in Baraba…",
    "hours": null,
    "imageUrl": "https://www.bing.com/maps/geoplat/REST/v1/Imagery/Map/RoadVibrant?ms=92,112&key=AnTcaqBi2ypp0xI-OZNi4W_ik2KhjgpqioTAtXLC8GzkMBQRMlyxvxyTnd5b73im&c=en-US&ur=in&da=n&logo=n&fmt=png&od=1&shading=hill&pp=26.922445,81.196922;dfp"
  },
  {
    "name": "Dr. Srivastava Homoeopathy",
    "address": "Dr. Dharmendra Srivastava Homoeopathic Clinic, Barabanki, Uttar Pradesh 225001",
    "phone": "Dr. Srivastava Homoeopathy",
    "hours": "Closed · Opens 10:00",
    "imageUrl": "https://th.bing.com/th?id=OLC.X7YG8Co0nrrKgw480x360&w=92&h=134&c=8&rs=1&qlt=80&cdv=1&pid=Local"
  },
  {
    "name": "Dr Mohd Clinic",
    "address": "Begun Ganj, Civil Line, Barabanki, Uttar Pradesh 225001",
    "phone": "Dr Mohd Clinic",
    "hours": null,
    "imageUrl": "https://www.bing.com/maps/geoplat/REST/v1/Imagery/Map/RoadVibrant?ms=92,112&key=AnTcaqBi2ypp0xI-OZNi4W_ik2KhjgpqioTAtXLC8GzkMBQRMlyxvxyTnd5b73im&c=en-US&ur=in&da=n&logo=n&fmt=png&od=1&shading=hill&pp=26.928198,81.190468;dfp"
  },
  {
    "name": "Dr. RAHUL KUMAR",
    "address": "5\\541, Awas Vikas Colony, Sector 5, Barabanki, Uttar Pradesh 225001",
    "phone": "Dr. RAHUL KUMAR",
    "hours": null,
    "imageUrl": "https://www.bing.com/maps/geoplat/REST/v1/Imagery/Map/RoadVibrant?ms=92,112&key=AnTcaqBi2ypp0xI-OZNi4W_ik2KhjgpqioTAtXLC8GzkMBQRMlyxvxyTnd5b73im&c=en-US&ur=in&da=n&logo=n&fmt=png&od=1&shading=hill&pp=26.922085,81.17878;dfp"
  },
  {
    "name": "Joshi Clinic",
    "address": "A 326 NEW, Bajpur Rd, Awas Vikas Colony, Uttrakhand, Uttarakhand",
    "phone": "Joshi Clinic",
    "hours": null,
    "imageUrl": "https://www.bing.com/maps/geoplat/REST/v1/Imagery/Map/RoadVibrant?ms=92,112&key=AnTcaqBi2ypp0xI-OZNi4W_ik2KhjgpqioTAtXLC8GzkMBQRMlyxvxyTnd5b73im&c=en-US&ur=in&da=n&logo=n&fmt=png&od=1&shading=hill&pp=26.921892,81.178947;dfp"
  },
  {
    "name": "Hazira Homoeopathic Clinic",
    "address": "Lakhpedabagh, Barabanki, Uttar Pradesh",
    "phone": "Hazira Homoeopathic Clinic",
    "hours": null,
    "imageUrl": "https://www.bing.com/maps/geoplat/REST/v1/Imagery/Map/RoadVibrant?ms=92,112&key=AnTcaqBi2ypp0xI-OZNi4W_ik2KhjgpqioTAtXLC8GzkMBQRMlyxvxyTnd5b73im&c=en-US&ur=in&da=n&logo=n&fmt=png&od=1&shading=hill&pp=26.917236,81.187279;dfp"
  },
  {
    "name": "Dr. Mahendra Kumar Verma",
    "address": "Near Amit Gas Agency, Railway Crossing, Barabanki, Uttar Pradesh",
    "phone": "Dr. Mahendra Kumar Verma",
    "hours": "Closed · Opens 10:00",
    "imageUrl": "https://th.bing.com/th?id=OLC.nX%2fpxHMa%2bYPC6g480x360&w=92&h=112&c=8&rs=1&qlt=80&cdv=1&pid=Local"
  },
  {
    "name": "Ayushman Homeopathic Clinic",
    "address": "Near Police Station, Ramnagar, Barabanki, Uttar Pradesh, Uttar Pradesh 225205",
    "phone": "Ayushman Homeopathic Clinic",
    "hours": "Closed · Opens 09:00",
    "imageUrl": "https://th.bing.com/th?id=OLC.ANEf2w5vMw2CrA480x360&w=92&h=134&c=8&rs=1&qlt=80&cdv=1&pid=Local"
  },
  {
    "name": "Dr. Mohd. Shoaib",
    "address": "Zaifa Plaza, Naka Satrikh Chauraha, Faizabad Road, Barabanki, Uttar Pradesh",
    "phone": "Dr. Mohd. Shoaib",
    "hours": "Closed · Opens 10:00",
    "imageUrl": "https://th.bing.com/th?id=OLC.WOXUvQW0Mlwjjg480x360&w=92&h=134&c=8&rs=1&qlt=80&cdv=1&pid=Local"
  },
  {
    "name": "Dr. Yasir Saleem | MBBS",
    "address": "Banki Barabanki, Barabanki, Uttar Pradesh, India, 225001, Barabanki, Madhya Pradesh 225001",
    "phone": "Dr. Yasir Saleem | MBBS",
    "hours": "Closed · Opens 10:00",
    "imageUrl": "https://www.bing.com/maps/geoplat/REST/v1/Imagery/Map/RoadVibrant?ms=92,134&key=AnTcaqBi2ypp0xI-OZNi4W_ik2KhjgpqioTAtXLC8GzkMBQRMlyxvxyTnd5b73im&c=en-US&ur=in&da=n&logo=n&fmt=png&od=1&shading=hill&pp=26.935116,81.218887;dfp"
  },
  {
    "name": "Swastik Clinic (DR.Shubham Dwivedi Mbbs",
    "address": "Makkah Tower, Opposite Canara Bank, Company Bagh, Barabanki, Madhya Pradesh 225001",
    "phone": "Swastik Clinic (DR.Shubham Dwivedi Mbbs",
    "hours": "Closed · Opens 10:00",
    "imageUrl": "https://www.bing.com/th?id=OLC.KaYsBzGEvOFNLA480x360&w=92&h=134&c=8&rs=1&qlt=80&cdv=1&pid=Local"
  }
]