[
  {
    "name": "Dr. Hitesh Bardania- General Physician",
    "address": "Bardania Hospital, Pratap Chowk, Baran, Rajasthan 325205",
    "phone": "Dr. Hitesh Bardania- General Physician",
    "hours": "Closed · Opens 08:00",
    "imageUrl": "https://www.bing.com/maps/geoplat/REST/v1/Imagery/Map/RoadVibrant?ms=92,134&key=AnTcaqBi2ypp0xI-OZNi4W_ik2KhjgpqioTAtXLC8GzkMBQRMlyxvxyTnd5b73im&c=en-US&ur=in&da=n&logo=n&fmt=png&od=1&shading=hill&pp=25.099344,76.511757;dfp"
  },
  {
    "name": "Dr. Sanjay Kumar Mathur",
    "address": "Infront of Peepal Tree Pratap Chowk, Baran, Rajastahan, India, 325205, Baran, Madhya Pradesh 325205",
    "phone": "Dr. Sanjay Kumar Mathur",
    "hours": "Closed · Opens 10:00",
    "imageUrl": "https://www.bing.com/th?id=OLC.gVbQBE3ipmsv5A480x360&w=92&h=134&c=8&rs=1&qlt=80&cdv=1&pid=Local"
  },
  {
    "name": "Dr Taruna Singh",
    "address": "College Rd, Opposite SMB Steel, Gandhi Colony, Baran, Rajasthan",
    "phone": "Dr Taruna Singh",
    "hours": null,
    "imageUrl": "https://www.bing.com/th?id=OLC.ynVvSarFpEv9iQ480x360&w=92&h=112&c=8&rs=1&qlt=80&cdv=1&pid=Local"
  },
  {
    "name": "Dr. Alka Agarwal- Obstetrician & Gynecologist",
    "address": "Divine Hospital, Baran Ho, Near Govt Hospital Opp Ghanmandi, Baran, Rajasthan 325205",
    "phone": "Dr. Alka Agarwal- Obstetrician & Gynecologist",
    "hours": "Closed · Opens 10:00",
    "imageUrl": "https://www.bing.com/maps/geoplat/REST/v1/Imagery/Map/RoadVibrant?ms=92,134&key=AnTcaqBi2ypp0xI-OZNi4W_ik2KhjgpqioTAtXLC8GzkMBQRMlyxvxyTnd5b73im&c=en-US&ur=in&da=n&logo=n&fmt=png&od=1&shading=hill&pp=25.102652,76.502869;dfp"
  },
  {
    "name": "Dr Kamal Gupta Clinic",
    "address": "Hospital Road, Baran, Rajasthan 325205",
    "phone": "Dr Kamal Gupta Clinic",
    "hours": null,
    "imageUrl": "https://www.bing.com/maps/geoplat/REST/v1/Imagery/Map/RoadVibrant?ms=92,112&key=AnTcaqBi2ypp0xI-OZNi4W_ik2KhjgpqioTAtXLC8GzkMBQRMlyxvxyTnd5b73im&c=en-US&ur=in&da=n&logo=n&fmt=png&od=1&shading=hill&pp=25.101227,76.507401;dfp"
  },
  {
    "name": "Dr. Kriti Agrawal Gynecologist-Obstetrician",
    "address": "Dharmada Dharamshala Street, Baran, Rajasthan 325205",
    "phone": "Dr. Kriti Agrawal Gynecologist-Obstetrician",
    "hours": "Closed · Opens 10:00",
    "imageUrl": "https://www.bing.com/maps/geoplat/REST/v1/Imagery/Map/RoadVibrant?ms=92,134&key=AnTcaqBi2ypp0xI-OZNi4W_ik2KhjgpqioTAtXLC8GzkMBQRMlyxvxyTnd5b73im&c=en-US&ur=in&da=n&logo=n&fmt=png&od=1&shading=hill&pp=25.101152,76.513161;dfp"
  },
  {
    "name": "Lekhraj Clinic",
    "address": "Indira Market, Pratap Chowk, Sadar Bazar, Baran, Rajasthan 325205",
    "phone": "Lekhraj Clinic",
    "hours": null,
    "imageUrl": "https://www.bing.com/maps/geoplat/REST/v1/Imagery/Map/RoadVibrant?ms=92,112&key=AnTcaqBi2ypp0xI-OZNi4W_ik2KhjgpqioTAtXLC8GzkMBQRMlyxvxyTnd5b73im&c=en-US&ur=in&da=n&logo=n&fmt=png&od=1&shading=hill&pp=25.099762,76.513588;dfp"
  },
  {
    "name": "Ansari Clinic Center",
    "address": "Near Astha Medical Store, Shahbad Road, Baran, Rajasthan 325205",
    "phone": "Ansari Clinic Center",
    "hours": null,
    "imageUrl": "https://www.bing.com/maps/geoplat/REST/v1/Imagery/Map/RoadVibrant?ms=92,112&key=AnTcaqBi2ypp0xI-OZNi4W_ik2KhjgpqioTAtXLC8GzkMBQRMlyxvxyTnd5b73im&c=en-US&ur=in&da=n&logo=n&fmt=png&od=1&shading=hill&pp=25.102156,76.512146;dfp"
  },
  {
    "name": "Allan Homoeopathic clinic new nakoda baran",
    "address": "F116, New Nakoda Colony, Nakoda Colony, Baran, Rajasthan",
    "phone": "Allan Homoeopathic clinic new nakoda baran",
    "hours": null,
    "imageUrl": "https://th.bing.com/th?id=OLC.qz0jVTa49%2fUumA480x360&w=92&h=112&c=8&rs=1&qlt=80&cdv=1&pid=Local"
  },
  {
    "name": "Dr. Bholaram Dilawar's Clinic",
    "address": "39, Amritam, Civil Line, Baran, Rajasthan 325222, India, Baran, Rajasthan, Rajasthan 325222",
    "phone": "Dr. Bholaram Dilawar's Clinic",
    "hours": null,
    "imageUrl": "https://www.bing.com/maps/geoplat/REST/v1/Imagery/Map/RoadVibrant?ms=92,112&key=AnTcaqBi2ypp0xI-OZNi4W_ik2KhjgpqioTAtXLC8GzkMBQRMlyxvxyTnd5b73im&c=en-US&ur=in&da=n&logo=n&fmt=png&od=1&shading=hill&pp=25.114084,76.512718;dfp"
  },
  {
    "name": "Dr Kamal Thadhani Clinic",
    "address": "Near Petrol Pump, Melkheri Road, Baran, Rajasthan 325205",
    "phone": "Dr Kamal Thadhani Clinic",
    "hours": null,
    "imageUrl": "https://www.bing.com/maps/geoplat/REST/v1/Imagery/Map/RoadVibrant?ms=92,112&key=AnTcaqBi2ypp0xI-OZNi4W_ik2KhjgpqioTAtXLC8GzkMBQRMlyxvxyTnd5b73im&c=en-US&ur=in&da=n&logo=n&fmt=png&od=1&shading=hill&pp=25.112417,76.502258;dfp"
  },
  {
    "name": "Aayush Clinic",
    "address": "Near Mobile Towar, Jhalawar Road, Baran, Rajasthan 325205",
    "phone": "Aayush Clinic",
    "hours": null,
    "imageUrl": "https://www.bing.com/maps/geoplat/REST/v1/Imagery/Map/RoadVibrant?ms=92,112&key=AnTcaqBi2ypp0xI-OZNi4W_ik2KhjgpqioTAtXLC8GzkMBQRMlyxvxyTnd5b73im&c=en-US&ur=in&da=n&logo=n&fmt=png&od=1&shading=hill&pp=25.082975,76.504501;dfp"
  },
  {
    "name": "Shri Ram Clinic",
    "address": "Near Sahakar Bhang Tekha, Pratap Chok Road, Baran, Rajasthan 325205",
    "phone": "Shri Ram Clinic",
    "hours": null,
    "imageUrl": "https://www.bing.com/maps/geoplat/REST/v1/Imagery/Map/RoadVibrant?ms=92,112&key=AnTcaqBi2ypp0xI-OZNi4W_ik2KhjgpqioTAtXLC8GzkMBQRMlyxvxyTnd5b73im&c=en-US&ur=in&da=n&logo=n&fmt=png&od=1&shading=hill&pp=25.098986,76.511589;dfp"
  },
  {
    "name": "Dr. B. Lal Clinical Laboratory",
    "address": "Shop no. 11, College Road, Dhakad Chhatrawas, Baran, Rajasthan 325205",
    "phone": "Dr. B. Lal Clinical Laboratory",
    "hours": "Closed · Opens 07:30",
    "imageUrl": "https://www.bing.com/maps/geoplat/REST/v1/Imagery/Map/RoadVibrant?ms=92,134&key=AnTcaqBi2ypp0xI-OZNi4W_ik2KhjgpqioTAtXLC8GzkMBQRMlyxvxyTnd5b73im&c=en-US&ur=in&da=n&logo=n&fmt=png&od=1&shading=hill&pp=25.108578,76.50119;dfp"
  },
  {
    "name": "Bansal Medical Store",
    "address": "C/O Bansal Medical Store, Infront OF Govt Hospital, Baran, Rajasthan 325205",
    "phone": "Bansal Medical Store",
    "hours": null,
    "imageUrl": "https://th.bing.com/th?id=OLC.68V0X59qmPVb5A480x360&w=92&h=112&c=8&rs=1&qlt=80&cdv=1&pid=Local"
  },
  {
    "name": "Dr. Hitesh Bardania- General Physician",
    "address": "Bardania Hospital, Pratap Chowk, Baran, Rajasthan 325205",
    "phone": "Dr. Hitesh Bardania- General Physician",
    "hours": "Closed · Opens 08:00",
    "imageUrl": "https://www.bing.com/maps/geoplat/REST/v1/Imagery/Map/RoadVibrant?ms=92,134&key=AnTcaqBi2ypp0xI-OZNi4W_ik2KhjgpqioTAtXLC8GzkMBQRMlyxvxyTnd5b73im&c=en-US&ur=in&da=n&logo=n&fmt=png&od=1&shading=hill&pp=25.099344,76.511757;dfp"
  },
  {
    "name": "Dr. Sanjay Kumar Mathur",
    "address": "Infront of Peepal Tree Pratap Chowk, Baran, Rajastahan, India, 325205, Baran, Madhya Pradesh 325205",
    "phone": "Dr. Sanjay Kumar Mathur",
    "hours": "Closed · Opens 10:00",
    "imageUrl": "https://www.bing.com/th?id=OLC.gVbQBE3ipmsv5A480x360&w=92&h=134&c=8&rs=1&qlt=80&cdv=1&pid=Local"
  },
  {
    "name": "Dr Taruna Singh",
    "address": "College Rd, Opposite SMB Steel, Gandhi Colony, Baran, Rajasthan",
    "phone": "Dr Taruna Singh",
    "hours": null,
    "imageUrl": "https://www.bing.com/th?id=OLC.ynVvSarFpEv9iQ480x360&w=92&h=112&c=8&rs=1&qlt=80&cdv=1&pid=Local"
  },
  {
    "name": "Dr. Alka Agarwal- Obstetrician & Gynecologist",
    "address": "Divine Hospital, Baran Ho, Near Govt Hospital Opp Ghanmandi, Baran, Rajasthan 325205",
    "phone": "Dr. Alka Agarwal- Obstetrician & Gynecologist",
    "hours": "Closed · Opens 10:00",
    "imageUrl": "https://www.bing.com/maps/geoplat/REST/v1/Imagery/Map/RoadVibrant?ms=92,134&key=AnTcaqBi2ypp0xI-OZNi4W_ik2KhjgpqioTAtXLC8GzkMBQRMlyxvxyTnd5b73im&c=en-US&ur=in&da=n&logo=n&fmt=png&od=1&shading=hill&pp=25.102652,76.502869;dfp"
  },
  {
    "name": "Dr Kamal Gupta Clinic",
    "address": "Hospital Road, Baran, Rajasthan 325205",
    "phone": "Dr Kamal Gupta Clinic",
    "hours": null,
    "imageUrl": "https://www.bing.com/maps/geoplat/REST/v1/Imagery/Map/RoadVibrant?ms=92,112&key=AnTcaqBi2ypp0xI-OZNi4W_ik2KhjgpqioTAtXLC8GzkMBQRMlyxvxyTnd5b73im&c=en-US&ur=in&da=n&logo=n&fmt=png&od=1&shading=hill&pp=25.101227,76.507401;dfp"
  }
]