[
  {
    "name": "Dr. Sunil Kumar | Md Medicine",
    "address": "63 Civil Lines Chaupla Road Bareilly, Bareilly, Uttar Pradesh, India, 243003, Bareilly, Madhya Pradesh 243…",
    "phone": "Dr. Sunil Kumar | Md Medicine",
    "hours": "Closed · Opens 10:00",
    "imageUrl": "https://www.bing.com/th?id=OLC.SOiNw5kUxkp2uA480x360&w=92&h=134&c=8&rs=1&qlt=80&cdv=1&pid=Local"
  },
  {
    "name": "Dr. Rajesh Kashyap- General Physician",
    "address": "Dr. Rajesh Kumar, 241, Beharipur Civil Lines, Civil Lines, Bareilly, Uttar Pradesh 243003",
    "phone": "Dr. Rajesh Kashyap- General Physician",
    "hours": "Closed · Opens 08:30",
    "imageUrl": "https://www.bing.com/th?id=OLC.2AAxX%2bhNKKzvRg480x360&w=92&h=134&c=8&rs=1&qlt=80&cdv=1&pid=Local"
  },
  {
    "name": "Homoeo Care Clinic ( Dr. Rahul Srivastava) Homoeopathic Doctor |Homoeopathic paediatrics Doctor",
    "address": "Shop.no. 2, Ahuja Complex, Near Mahaveer Hotel, Janakpuri, Bareilly, Uttar Pradesh",
    "phone": "Homoeo Care Clinic ( Dr. Rahul Srivastava) Homoeopathic Doctor |Homoeopathic paediatrics Doctor",
    "hours": "Closed · Opens 08:30",
    "imageUrl": "https://www.bing.com/th?id=OLC.ylaOxmJ9YofAXw480x360&w=92&h=112&c=8&rs=1&qlt=80&cdv=1&pid=Local"
  },
  {
    "name": "Dr. Sudhanshu Arya",
    "address": "68, Anathalaya Marg, Kishore Bazar, Civil Lines, Bareilly, Uttar Pradesh",
    "phone": "Dr. Sudhanshu Arya",
    "hours": null,
    "imageUrl": "https://www.bing.com/maps/geoplat/REST/v1/Imagery/Map/RoadVibrant?ms=92,112&key=AnTcaqBi2ypp0xI-OZNi4W_ik2KhjgpqioTAtXLC8GzkMBQRMlyxvxyTnd5b73im&c=en-US&ur=in&da=n&logo=n&fmt=png&od=1&shading=hill&pp=28.357006,79.422363;dfp"
  },
  {
    "name": "Dr. Naseruddin Ansari",
    "address": "Jagatpur Road, Bisalpur Circle, Pilibhit Byepass, Bareilly, Uttar Pradesh",
    "phone": "Dr. Naseruddin Ansari",
    "hours": "Closed · Opens 10:00",
    "imageUrl": "https://www.bing.com/th?id=OLC.ToIEfcmcZTwa1g480x360&w=92&h=112&c=8&rs=1&qlt=80&cdv=1&pid=Local"
  },
  {
    "name": "Dr. Ravi Khanna's Vatsalya NBCC",
    "address": "35, Z-1, Rampur Garden, Bareilly, Uttar Pradesh 243001, India, Bareilly, Uttar Pradesh 243001",
    "phone": "Dr. Ravi Khanna's Vatsalya NBCC",
    "hours": null,
    "imageUrl": "https://www.bing.com/th?id=OLC.5FSFzI9jH4Udhg480x360&w=92&h=112&c=8&rs=1&qlt=80&cdv=1&pid=Local"
  },
  {
    "name": "Dr AK Rastogi",
    "address": "Mahatma Gandhi Hr Sec School, Nh24, Bareilly, Uttar Pradesh 243003",
    "phone": "Dr AK Rastogi",
    "hours": null,
    "imageUrl": "https://www.bing.com/maps/geoplat/REST/v1/Imagery/Map/RoadVibrant?ms=92,112&key=AnTcaqBi2ypp0xI-OZNi4W_ik2KhjgpqioTAtXLC8GzkMBQRMlyxvxyTnd5b73im&c=en-US&ur=in&da=n&logo=n&fmt=png&od=1&shading=hill&pp=28.356312,79.405403;dfp"
  },
  {
    "name": "Dr Dinesh Puri Clinic",
    "address": "K N N Inter College, Civil Line Road, Rajendra Nagar, Bareilly, Uttar Pradesh 243001",
    "phone": "Dr Dinesh Puri Clinic",
    "hours": null,
    "imageUrl": "https://www.bing.com/maps/geoplat/REST/v1/Imagery/Map/RoadVibrant?ms=92,112&key=AnTcaqBi2ypp0xI-OZNi4W_ik2KhjgpqioTAtXLC8GzkMBQRMlyxvxyTnd5b73im&c=en-US&ur=in&da=n&logo=n&fmt=png&od=1&shading=hill&pp=28.354086,79.413445;dfp"
  },
  {
    "name": "Dr Bharti Gupta Clinic",
    "address": "Rajendra Kumar Nursery School, Badaun Rd, Civil Lines Gnesh Nagar Colony, Bareilly, Uttar Pradesh 243001",
    "phone": "Dr Bharti Gupta Clinic",
    "hours": null,
    "imageUrl": "https://www.bing.com/maps/geoplat/REST/v1/Imagery/Map/RoadVibrant?ms=92,112&key=AnTcaqBi2ypp0xI-OZNi4W_ik2KhjgpqioTAtXLC8GzkMBQRMlyxvxyTnd5b73im&c=en-US&ur=in&da=n&logo=n&fmt=png&od=1&shading=hill&pp=28.347048,79.406548;dfp"
  },
  {
    "name": "Dr. O.P Jaiswal",
    "address": "Jawahar Park Market, Bareilly, Uttar Pradesh 243001",
    "phone": "Dr. O.P Jaiswal",
    "hours": "Closed · Opens 10:00",
    "imageUrl": "https://th.bing.com/th?id=OLC.LrdwpfD%2fHU1IxQ480x360&w=92&h=134&c=8&rs=1&qlt=80&cdv=1&pid=Local"
  },
  {
    "name": "Dr. Gopal Dutt",
    "address": "E35-6, Rampur Garden, Bareilly, Uttar Pradesh",
    "phone": "Dr. Gopal Dutt",
    "hours": "Closed · Opens 10:00",
    "imageUrl": "https://th.bing.com/th?id=OLC.zX76gS6A5BMaVw480x360&w=92&h=112&c=8&rs=1&qlt=80&cdv=1&pid=Local"
  },
  {
    "name": "Dr. Ajay Khanna",
    "address": "35\\B \\13 Rampur, Bareilly, Uttar Pradesh 243001",
    "phone": "Dr. Ajay Khanna",
    "hours": "Closed · Opens 11:00",
    "imageUrl": "https://th.bing.com/th?id=OLC.oK2NbJrCA36M4Q480x360&w=92&h=134&c=8&rs=1&qlt=80&cdv=1&pid=Local"
  },
  {
    "name": "Shuddhi Clinic Bareilly",
    "address": "221-C/9, Civil Lines, Behind Hotel Royal Classic, Near Hotel Chandragupt, Junction Road, Opposite Kanha Ap…",
    "phone": "Shuddhi Clinic Bareilly",
    "hours": "Closed · Opens 09:00",
    "imageUrl": "https://th.bing.com/th?id=OLC.d00wK0Jua%2bT3iA480x360&w=92&h=134&c=8&rs=1&qlt=80&cdv=1&pid=Local"
  },
  {
    "name": "Dr. Anshu Agarwal",
    "address": "104-105 Alen Club Market, Bareilly, Uttar Pradesh 243001",
    "phone": "Dr. Anshu Agarwal",
    "hours": "Closed · Opens 11:00",
    "imageUrl": "https://th.bing.com/th?id=OLC.Jg2puZl3eoVsWw480x360&w=92&h=134&c=8&rs=1&qlt=80&cdv=1&pid=Local"
  },
  {
    "name": "Dr Batra's Homeopathy",
    "address": "Gupta Tower, Circuit House Crossing, 146 Civil Lines, Bareilly, Uttar Pradesh 243001",
    "phone": "Dr Batra's Homeopathy",
    "hours": "Closed · Opens 11:00",
    "imageUrl": "https://th.bing.com/th?id=OLC.MrpeKlYfkZrnwg480x360&w=92&h=134&c=8&rs=1&qlt=80&cdv=1&pid=Local"
  },
  {
    "name": "Dr Nitin Mishra skin clinic and laser centre",
    "address": "35 F, Rampur Garden, Bareilly, Uttar Pradesh 243003",
    "phone": "Dr Nitin Mishra skin clinic and laser centre",
    "hours": "Closed · Opens 11:00",
    "imageUrl": "https://th.bing.com/th?id=OLC.D4HF%2bRwTEoDWyg480x360&w=92&h=134&c=8&rs=1&qlt=80&cdv=1&pid=Local"
  },
  {
    "name": "Dr. Amit Jauhari",
    "address": "No.321, City Station Road, Bareilly, Uttar Pradesh 243003",
    "phone": "Dr. Amit Jauhari",
    "hours": "Closed · Opens 10:00",
    "imageUrl": "https://th.bing.com/th?id=OLC.iRFB2s9j5e9%2frQ480x360&w=92&h=134&c=8&rs=1&qlt=80&cdv=1&pid=Local"
  },
  {
    "name": "SAI Homoeo Clinic",
    "address": "Shashtri Nagar Bareilly, Bareilly, Uttar Pradesh 243001",
    "phone": "SAI Homoeo Clinic",
    "hours": "Closed · Opens 11:00",
    "imageUrl": "https://th.bing.com/th?id=OLC.K18Q4zhYtRHYRQ480x360&w=92&h=134&c=8&rs=1&qlt=80&cdv=1&pid=Local"
  },
  {
    "name": "Dr. Sunil Kumar | Md Medicine",
    "address": "63 Civil Lines Chaupla Road Bareilly, Bareilly, Uttar Pradesh, India, 243003, Bareilly, Madhya Pradesh 243…",
    "phone": "Dr. Sunil Kumar | Md Medicine",
    "hours": "Closed · Opens 10:00",
    "imageUrl": "https://www.bing.com/th?id=OLC.SOiNw5kUxkp2uA480x360&w=92&h=134&c=8&rs=1&qlt=80&cdv=1&pid=Local"
  },
  {
    "name": "Dr. Rajesh Kashyap- General Physician",
    "address": "Dr. Rajesh Kumar, 241, Beharipur Civil Lines, Civil Lines, Bareilly, Uttar Pradesh 243003",
    "phone": "Dr. Rajesh Kashyap- General Physician",
    "hours": "Closed · Opens 08:30",
    "imageUrl": "https://www.bing.com/th?id=OLC.2AAxX%2bhNKKzvRg480x360&w=92&h=134&c=8&rs=1&qlt=80&cdv=1&pid=Local"
  }
]