[
  {
    "name": "Dr. S L Sharma | General Medicine | Medipoint Clinic",
    "address": "Medipoint Clinic, Bargarh, Odisha, India, 768028, Bargarh, Madhya Pradesh 768028",
    "phone": "Dr. S L Sharma | General Medicine | Medipoint Clinic",
    "hours": "Closed · Opens 09:00",
    "imageUrl": "https://www.bing.com/th?id=OLC.%2b67LJh5J2PfzDg480x360&w=92&h=134&c=8&rs=1&qlt=80&cdv=1&pid=Local"
  },
  {
    "name": "Sudha Clinic",
    "address": "Nh6, Bargarh, Odisha 768028",
    "phone": "Sudha Clinic",
    "hours": null,
    "imageUrl": "https://www.bing.com/maps/geoplat/REST/v1/Imagery/Map/RoadVibrant?ms=92,112&key=AnTcaqBi2ypp0xI-OZNi4W_ik2KhjgpqioTAtXLC8GzkMBQRMlyxvxyTnd5b73im&c=en-US&ur=in&da=n&logo=n&fmt=png&od=1&shading=hill&pp=21.342808,83.614143;dfp"
  },
  {
    "name": "Dr S L Sharma MD",
    "address": "Bhatli Road, Bargarh, Madhya Pradesh 768028",
    "phone": "Dr S L Sharma MD",
    "hours": "Closed · Opens 10:00",
    "imageUrl": "https://www.bing.com/maps/geoplat/REST/v1/Imagery/Map/RoadVibrant?ms=92,134&key=AnTcaqBi2ypp0xI-OZNi4W_ik2KhjgpqioTAtXLC8GzkMBQRMlyxvxyTnd5b73im&c=en-US&ur=in&da=n&logo=n&fmt=png&od=1&shading=hill&pp=21.356754,83.60173;dfp"
  },
  {
    "name": "Dr Chakrabortys Homoeopathic Clinic",
    "address": "Bhatli Road, Bargarh, Odisha 768028",
    "phone": "Dr Chakrabortys Homoeopathic Clinic",
    "hours": null,
    "imageUrl": "https://www.bing.com/th?id=OLC.H8v962lMrQEmqQ480x360&w=92&h=112&c=8&rs=1&qlt=80&cdv=1&pid=Local"
  },
  {
    "name": "Alpha Patho Clinic",
    "address": "Bargarh Main Road, Bargarh, Odisha 768028",
    "phone": "Alpha Patho Clinic",
    "hours": null,
    "imageUrl": "https://www.bing.com/maps/geoplat/REST/v1/Imagery/Map/RoadVibrant?ms=92,112&key=AnTcaqBi2ypp0xI-OZNi4W_ik2KhjgpqioTAtXLC8GzkMBQRMlyxvxyTnd5b73im&c=en-US&ur=in&da=n&logo=n&fmt=png&od=1&shading=hill&pp=21.340616,83.62413;dfp"
  },
  {
    "name": "Astga Homoeo Clinic",
    "address": "Panchayat College Road, Bargarh, Odisha 768028",
    "phone": "Astga Homoeo Clinic",
    "hours": null,
    "imageUrl": "https://www.bing.com/maps/geoplat/REST/v1/Imagery/Map/RoadVibrant?ms=92,112&key=AnTcaqBi2ypp0xI-OZNi4W_ik2KhjgpqioTAtXLC8GzkMBQRMlyxvxyTnd5b73im&c=en-US&ur=in&da=n&logo=n&fmt=png&od=1&shading=hill&pp=21.333382,83.624634;dfp"
  },
  {
    "name": "Pansari Diagnostic Clinic",
    "address": "Hospital Road, Bargarh, Odisha 768028",
    "phone": "Pansari Diagnostic Clinic",
    "hours": null,
    "imageUrl": "https://www.bing.com/maps/geoplat/REST/v1/Imagery/Map/RoadVibrant?ms=92,112&key=AnTcaqBi2ypp0xI-OZNi4W_ik2KhjgpqioTAtXLC8GzkMBQRMlyxvxyTnd5b73im&c=en-US&ur=in&da=n&logo=n&fmt=png&od=1&shading=hill&pp=21.33473,83.61702;dfp"
  },
  {
    "name": "Pediatric care by Dr. Amit",
    "address": "Bhatli Chowk, Bargarh, Odisha",
    "phone": "Pediatric care by Dr. Amit",
    "hours": null,
    "imageUrl": "https://www.bing.com/maps/geoplat/REST/v1/Imagery/Map/RoadVibrant?ms=92,112&key=AnTcaqBi2ypp0xI-OZNi4W_ik2KhjgpqioTAtXLC8GzkMBQRMlyxvxyTnd5b73im&c=en-US&ur=in&da=n&logo=n&fmt=png&od=1&shading=hill&pp=21.342533,83.610504;dfp"
  },
  {
    "name": "Dr. R.K.Nayak Homoeopathy Clinic",
    "address": "Bhatli Chowk, Bargarh, Ward No. 1, Opposite Tulli Petrol Pump, Bargarh, Odisha",
    "phone": "Dr. R.K.Nayak Homoeopathy Clinic",
    "hours": null,
    "imageUrl": "https://www.bing.com/maps/geoplat/REST/v1/Imagery/Map/RoadVibrant?ms=92,112&key=AnTcaqBi2ypp0xI-OZNi4W_ik2KhjgpqioTAtXLC8GzkMBQRMlyxvxyTnd5b73im&c=en-US&ur=in&da=n&logo=n&fmt=png&od=1&shading=hill&pp=21.48629,83.955917;dfp"
  },
  {
    "name": "Dr Lal PathLabs - Patient Service Centre",
    "address": "GB Market, Burla, Sambalpur 768017",
    "phone": "Dr Lal PathLabs - Patient Service Centre",
    "hours": "Opens in 30 mins",
    "imageUrl": "https://www.bing.com/maps/geoplat/REST/v1/Imagery/Map/RoadVibrant?ms=92,134&key=AnTcaqBi2ypp0xI-OZNi4W_ik2KhjgpqioTAtXLC8GzkMBQRMlyxvxyTnd5b73im&c=en-US&ur=in&da=n&logo=n&fmt=png&od=1&shading=hill&pp=21.342609,83.6241;dfp"
  },
  {
    "name": "Raj Polyclinic And Diagnostic Centre | Testing Labs | All Tests Are Available With Accuracy",
    "address": "Hospital Road, Ward No.6, Bargarh, Odisha 768028",
    "phone": "Raj Polyclinic And Diagnostic Centre | Testing Labs | All Tests Are Available With Accuracy",
    "hours": null,
    "imageUrl": "https://www.bing.com/maps/geoplat/REST/v1/Imagery/Map/RoadVibrant?ms=92,112&key=AnTcaqBi2ypp0xI-OZNi4W_ik2KhjgpqioTAtXLC8GzkMBQRMlyxvxyTnd5b73im&c=en-US&ur=in&da=n&logo=n&fmt=png&od=1&shading=hill&pp=21.334591,83.616707;dfp"
  },
  {
    "name": "Nishant Debta",
    "address": "Bhatli Chowk, Bargarh, Odisha 768028",
    "phone": "Nishant Debta",
    "hours": null,
    "imageUrl": "https://www.bing.com/maps/geoplat/REST/v1/Imagery/Map/RoadVibrant?ms=92,112&key=AnTcaqBi2ypp0xI-OZNi4W_ik2KhjgpqioTAtXLC8GzkMBQRMlyxvxyTnd5b73im&c=en-US&ur=in&da=n&logo=n&fmt=png&od=1&shading=hill&pp=21.342533,83.610504;dfp"
  },
  {
    "name": "Masterdoctor Clinic - Barpali - Dr B Jagadish is the Best Diabetes Doctor and Best Diabetologist",
    "address": "Ramakrushna Polyclinic, Badagaon, Barpali, Bargarh, Barpali 768029",
    "phone": "Masterdoctor Clinic - Barpali - Dr B Jagadish is the Best Diabetes Doctor and Best Diabetologist",
    "hours": "Open 24 hours",
    "imageUrl": "https://www.bing.com/maps/geoplat/REST/v1/Imagery/Map/RoadVibrant?ms=92,112&key=AnTcaqBi2ypp0xI-OZNi4W_ik2KhjgpqioTAtXLC8GzkMBQRMlyxvxyTnd5b73im&c=en-US&ur=in&da=n&logo=n&fmt=png&od=1&shading=hill&pp=21.19632,83.578362;clcp"
  },
  {
    "name": "J.K. Medical and Patho Lab",
    "address": "Hospital Road, Sohela, Bargarh, Odisha 768033",
    "phone": "J.K. Medical and Patho Lab",
    "hours": "Closed · Opens 08:00",
    "imageUrl": "https://www.bing.com/maps/geoplat/REST/v1/Imagery/Map/RoadVibrant?ms=92,134&key=AnTcaqBi2ypp0xI-OZNi4W_ik2KhjgpqioTAtXLC8GzkMBQRMlyxvxyTnd5b73im&c=en-US&ur=in&da=n&logo=n&fmt=png&od=1&shading=hill&pp=21.332407,83.503494;dfp"
  },
  {
    "name": "Icon Herbal Ayurveda Chikitsalaya",
    "address": "Plot 02, Diptipur, Bargarh, Odisha 768035",
    "phone": "Icon Herbal Ayurveda Chikitsalaya",
    "hours": null,
    "imageUrl": "https://www.bing.com/maps/geoplat/REST/v1/Imagery/Map/RoadVibrant?ms=92,112&key=AnTcaqBi2ypp0xI-OZNi4W_ik2KhjgpqioTAtXLC8GzkMBQRMlyxvxyTnd5b73im&c=en-US&ur=in&da=n&logo=n&fmt=png&od=1&shading=hill&pp=21.33831,83.593811;dfp"
  },
  {
    "name": "Jagadamba Diagnstic Clinic",
    "address": "College Road, Bijepur, Bargarh, Odisha 768032",
    "phone": "Jagadamba Diagnstic Clinic",
    "hours": null,
    "imageUrl": "https://www.bing.com/maps/geoplat/REST/v1/Imagery/Map/RoadVibrant?ms=92,112&key=AnTcaqBi2ypp0xI-OZNi4W_ik2KhjgpqioTAtXLC8GzkMBQRMlyxvxyTnd5b73im&c=en-US&ur=in&da=n&logo=n&fmt=png&od=1&shading=hill&pp=21.138443,83.472664;dfp"
  },
  {
    "name": "Shiv Patho Clinic",
    "address": "Bhagirathi Patnaik Marg Road, Barpali, Barapali, Odisha 768029",
    "phone": "Shiv Patho Clinic",
    "hours": null,
    "imageUrl": "https://www.bing.com/maps/geoplat/REST/v1/Imagery/Map/RoadVibrant?ms=92,112&key=AnTcaqBi2ypp0xI-OZNi4W_ik2KhjgpqioTAtXLC8GzkMBQRMlyxvxyTnd5b73im&c=en-US&ur=in&da=n&logo=n&fmt=png&od=1&shading=hill&pp=21.190561,83.588226;dfp"
  },
  {
    "name": "Dr. S L Sharma | General Medicine | Medipoint Clinic",
    "address": "Medipoint Clinic, Bargarh, Odisha, India, 768028, Bargarh, Madhya Pradesh 768028",
    "phone": "Dr. S L Sharma | General Medicine | Medipoint Clinic",
    "hours": "Closed · Opens 09:00",
    "imageUrl": "https://www.bing.com/th?id=OLC.%2b67LJh5J2PfzDg480x360&w=92&h=134&c=8&rs=1&qlt=80&cdv=1&pid=Local"
  },
  {
    "name": "Sudha Clinic",
    "address": "Nh6, Bargarh, Odisha 768028",
    "phone": "Sudha Clinic",
    "hours": null,
    "imageUrl": "https://www.bing.com/maps/geoplat/REST/v1/Imagery/Map/RoadVibrant?ms=92,112&key=AnTcaqBi2ypp0xI-OZNi4W_ik2KhjgpqioTAtXLC8GzkMBQRMlyxvxyTnd5b73im&c=en-US&ur=in&da=n&logo=n&fmt=png&od=1&shading=hill&pp=21.342808,83.614143;dfp"
  },
  {
    "name": "Dr S L Sharma MD",
    "address": "Bhatli Road, Bargarh, Madhya Pradesh 768028",
    "phone": "Dr S L Sharma MD",
    "hours": "Closed · Opens 10:00",
    "imageUrl": "https://www.bing.com/maps/geoplat/REST/v1/Imagery/Map/RoadVibrant?ms=92,134&key=AnTcaqBi2ypp0xI-OZNi4W_ik2KhjgpqioTAtXLC8GzkMBQRMlyxvxyTnd5b73im&c=en-US&ur=in&da=n&logo=n&fmt=png&od=1&shading=hill&pp=21.356754,83.60173;dfp"
  }
]