[
  {
    "name": "Dr Santosh Maheshwari Clinic",
    "address": "Near Ramdev Health Care Clinic, Barmer Road, Barmer, Rajasthan 344031",
    "phone": "Dr Santosh Maheshwari Clinic",
    "hours": null,
    "imageUrl": "https://www.bing.com/maps/geoplat/REST/v1/Imagery/Map/RoadVibrant?ms=92,112&key=AnTcaqBi2ypp0xI-OZNi4W_ik2KhjgpqioTAtXLC8GzkMBQRMlyxvxyTnd5b73im&c=en-US&ur=in&da=n&logo=n&fmt=png&od=1&shading=hill&pp=25.750029,71.400185;dfp"
  },
  {
    "name": "DR.Gajendra Soni Hospital",
    "address": "Near, Panch Batti Circle, Ray Colony, Barmer, Rajasthan",
    "phone": "DR.Gajendra Soni Hospital",
    "hours": "Closed · Opens 14:30",
    "imageUrl": "https://www.bing.com/maps/geoplat/REST/v1/Imagery/Map/RoadVibrant?ms=92,112&key=AnTcaqBi2ypp0xI-OZNi4W_ik2KhjgpqioTAtXLC8GzkMBQRMlyxvxyTnd5b73im&c=en-US&ur=in&da=n&logo=n&fmt=png&od=1&shading=hill&pp=25.748516,71.39003;dfp"
  },
  {
    "name": "Sevanjali E.H.Clinic, Gangapur City.",
    "address": "Sevanjali Clinic, College Road, in Front of Yash Bank, Adarsh Nagar, Gangapur, Rajasthan",
    "phone": "Sevanjali E.H.Clinic, Gangapur City.",
    "hours": null,
    "imageUrl": "https://www.bing.com/maps/geoplat/REST/v1/Imagery/Map/RoadVibrant?ms=92,112&key=AnTcaqBi2ypp0xI-OZNi4W_ik2KhjgpqioTAtXLC8GzkMBQRMlyxvxyTnd5b73im&c=en-US&ur=in&da=n&logo=n&fmt=png&od=1&shading=hill&pp=25.749073,71.398445;dfp"
  },
  {
    "name": "Dr. Surendra Singh-Ayurvedic Panchkarma Clinic",
    "address": "Near Jagdamba Temple, Nehru Nagar, Barmer, Rajasthan",
    "phone": "Dr. Surendra Singh-Ayurvedic Panchkarma Clinic",
    "hours": null,
    "imageUrl": "https://www.bing.com/maps/geoplat/REST/v1/Imagery/Map/RoadVibrant?ms=92,112&key=AnTcaqBi2ypp0xI-OZNi4W_ik2KhjgpqioTAtXLC8GzkMBQRMlyxvxyTnd5b73im&c=en-US&ur=in&da=n&logo=n&fmt=png&od=1&shading=hill&pp=25.752962,71.394928;dfp"
  },
  {
    "name": "Ramawat Heart & General Medicine Hospital",
    "address": "Roy Colony Rd, Krishna Nagar, Barmer, Rajasthan 344001, India, Barmer, Rajasthan 344001",
    "phone": "Ramawat Heart & General Medicine Hospital",
    "hours": null,
    "imageUrl": "https://www.bing.com/th?id=OLC.wXzY2lo430RqEA480x360&w=92&h=112&c=8&rs=1&qlt=80&cdv=1&pid=Local"
  },
  {
    "name": "Aarogyam Ayurveda Hospital barmer",
    "address": "Karmuji Ki Galli, Pratap ji ki Prol, Dariya Ganj, Barmer, Rajasthan",
    "phone": "Aarogyam Ayurveda Hospital barmer",
    "hours": null,
    "imageUrl": "https://www.bing.com/maps/geoplat/REST/v1/Imagery/Map/RoadVibrant?ms=92,112&key=AnTcaqBi2ypp0xI-OZNi4W_ik2KhjgpqioTAtXLC8GzkMBQRMlyxvxyTnd5b73im&c=en-US&ur=in&da=n&logo=n&fmt=png&od=1&shading=hill&pp=25.740211,71.390625;dfp"
  },
  {
    "name": "Government Ayurved Hospital",
    "address": "Near 33/11 Kv Sub Station, Barmer Road, Barmer, Rajasthan 344031",
    "phone": "Government Ayurved Hospital",
    "hours": null,
    "imageUrl": "https://www.bing.com/maps/geoplat/REST/v1/Imagery/Map/RoadVibrant?ms=92,112&key=AnTcaqBi2ypp0xI-OZNi4W_ik2KhjgpqioTAtXLC8GzkMBQRMlyxvxyTnd5b73im&c=en-US&ur=in&da=n&logo=n&fmt=png&od=1&shading=hill&pp=25.749424,71.395164;dfp"
  },
  {
    "name": "DR. Bhimrao Ambedkar Gramin Shiksha Avm Vikash Samiti Kundal",
    "address": "Old Gram Panchyat, Old Gram Panchyat Bhavan, Siwana, Nh 325 Road Mokalsar, Mokalsar, Barmer, Raj…",
    "phone": "DR. Bhimrao Ambedkar Gramin Shiksha Avm Vikash Samiti Kundal",
    "hours": null,
    "imageUrl": "https://www.bing.com/maps/geoplat/REST/v1/Imagery/Map/RoadVibrant?ms=92,112&key=AnTcaqBi2ypp0xI-OZNi4W_ik2KhjgpqioTAtXLC8GzkMBQRMlyxvxyTnd5b73im&c=en-US&ur=in&da=n&logo=n&fmt=png&od=1&shading=hill&pp=25.755558,71.399796;dfp"
  },
  {
    "name": "Manomani Clinic",
    "address": "1, Gandhi Bhavan, Dhorimana, Barmer Road, Barmer, Rajasthan 344704",
    "phone": "Manomani Clinic",
    "hours": null,
    "imageUrl": "https://www.bing.com/maps/geoplat/REST/v1/Imagery/Map/RoadVibrant?ms=92,112&key=AnTcaqBi2ypp0xI-OZNi4W_ik2KhjgpqioTAtXLC8GzkMBQRMlyxvxyTnd5b73im&c=en-US&ur=in&da=n&logo=n&fmt=png&od=1&shading=hill&pp=25.735006,71.386345;dfp"
  },
  {
    "name": "Homeopathic Clinic",
    "address": "CL 11 Mahaveer Agar, Barmer, Rajasthan",
    "phone": "Homeopathic Clinic",
    "hours": null,
    "imageUrl": "https://th.bing.com/th?id=OLC.E%2f66sgZ3EG%2fmGw480x360&w=92&h=112&c=8&rs=1&qlt=80&cdv=1&pid=Local"
  },
  {
    "name": "Ayurvedic Hospital",
    "address": "Barmer, Nh-15, Barmer Road, Barmer, Rajasthan 344024, India, Bundi, Rajasthan 344024",
    "phone": "Ayurvedic Hospital",
    "hours": null,
    "imageUrl": "https://www.bing.com/maps/geoplat/REST/v1/Imagery/Map/RoadVibrant?ms=92,112&key=AnTcaqBi2ypp0xI-OZNi4W_ik2KhjgpqioTAtXLC8GzkMBQRMlyxvxyTnd5b73im&c=en-US&ur=in&da=n&logo=n&fmt=png&od=1&shading=hill&pp=25.741739,71.408836;dfp"
  },
  {
    "name": "Apollo Ent Hospital Barmer",
    "address": "Near Govt School No 4, Dena Bank Wali Building Choutan Road Barmer, Barmer, Rajasthan, Rajasthan …",
    "phone": "Apollo Ent Hospital Barmer",
    "hours": null,
    "imageUrl": "https://th.bing.com/th?id=OLC.gGCCvBVeU0Kj9w480x360&w=92&h=112&c=8&rs=1&qlt=80&cdv=1&pid=Local"
  },
  {
    "name": "Bimla Diagnostic Centre",
    "address": "61A, High School Road, Major District Road, Kumharwara Mohalla, Kotkasim, Rajasthan",
    "phone": "Bimla Diagnostic Centre",
    "hours": null,
    "imageUrl": "https://www.bing.com/maps/geoplat/REST/v1/Imagery/Map/RoadVibrant?ms=92,112&key=AnTcaqBi2ypp0xI-OZNi4W_ik2KhjgpqioTAtXLC8GzkMBQRMlyxvxyTnd5b73im&c=en-US&ur=in&da=n&logo=n&fmt=png&od=1&shading=hill&pp=25.746656,71.395805;dfp"
  },
  {
    "name": "Aditya Optical Clinic",
    "address": "Near Sadbhawana Hospital, Barmer Road, Barmer, Rajasthan 344031",
    "phone": "Aditya Optical Clinic",
    "hours": null,
    "imageUrl": "https://www.bing.com/maps/geoplat/REST/v1/Imagery/Map/RoadVibrant?ms=92,112&key=AnTcaqBi2ypp0xI-OZNi4W_ik2KhjgpqioTAtXLC8GzkMBQRMlyxvxyTnd5b73im&c=en-US&ur=in&da=n&logo=n&fmt=png&od=1&shading=hill&pp=25.749805,71.399635;dfp"
  },
  {
    "name": "Dr Lal PathLabs - Patient Service Centre",
    "address": "Shop No 2, Main Road, Rai Colony, Barmer, Rajasthan 344001",
    "phone": "Dr Lal PathLabs - Patient Service Centre",
    "hours": "Open · Closes 19:30",
    "imageUrl": "https://www.bing.com/maps/geoplat/REST/v1/Imagery/Map/RoadVibrant?ms=92,134&key=AnTcaqBi2ypp0xI-OZNi4W_ik2KhjgpqioTAtXLC8GzkMBQRMlyxvxyTnd5b73im&c=en-US&ur=in&da=n&logo=n&fmt=png&od=1&shading=hill&pp=25.751694,71.394798;dfp"
  },
  {
    "name": "Skin Specialist Hospital",
    "address": "Khatri Medicose, Near, Panch Batti Circle, Ray Colony, Barmer, Rajasthan",
    "phone": "Skin Specialist Hospital",
    "hours": null,
    "imageUrl": "https://www.bing.com/maps/geoplat/REST/v1/Imagery/Map/RoadVibrant?ms=92,112&key=AnTcaqBi2ypp0xI-OZNi4W_ik2KhjgpqioTAtXLC8GzkMBQRMlyxvxyTnd5b73im&c=en-US&ur=in&da=n&logo=n&fmt=png&od=1&shading=hill&pp=25.762535,71.419296;dfp"
  },
  {
    "name": "Sai Diagnostic Centre",
    "address": "City Centre, GF-29, Mahaveer Nagar, Barmer, Rajasthan",
    "phone": "Sai Diagnostic Centre",
    "hours": null,
    "imageUrl": "https://www.bing.com/maps/geoplat/REST/v1/Imagery/Map/RoadVibrant?ms=92,112&key=AnTcaqBi2ypp0xI-OZNi4W_ik2KhjgpqioTAtXLC8GzkMBQRMlyxvxyTnd5b73im&c=en-US&ur=in&da=n&logo=n&fmt=png&od=1&shading=hill&pp=25.752007,71.416718;dfp"
  },
  {
    "name": "Khatri Lab And X Ray",
    "address": "Barmer Police Station, Mahaveer Nagar, Barmer, Rajasthan 344001",
    "phone": "Khatri Lab And X Ray",
    "hours": null,
    "imageUrl": "https://www.bing.com/maps/geoplat/REST/v1/Imagery/Map/RoadVibrant?ms=92,112&key=AnTcaqBi2ypp0xI-OZNi4W_ik2KhjgpqioTAtXLC8GzkMBQRMlyxvxyTnd5b73im&c=en-US&ur=in&da=n&logo=n&fmt=png&od=1&shading=hill&pp=25.750399,71.397072;dfp"
  },
  {
    "name": "Dr Santosh Maheshwari Clinic",
    "address": "Near Ramdev Health Care Clinic, Barmer Road, Barmer, Rajasthan 344031",
    "phone": "Dr Santosh Maheshwari Clinic",
    "hours": null,
    "imageUrl": "https://www.bing.com/maps/geoplat/REST/v1/Imagery/Map/RoadVibrant?ms=92,112&key=AnTcaqBi2ypp0xI-OZNi4W_ik2KhjgpqioTAtXLC8GzkMBQRMlyxvxyTnd5b73im&c=en-US&ur=in&da=n&logo=n&fmt=png&od=1&shading=hill&pp=25.750029,71.400185;dfp"
  },
  {
    "name": "DR.Gajendra Soni Hospital",
    "address": "Near, Panch Batti Circle, Ray Colony, Barmer, Rajasthan",
    "phone": "DR.Gajendra Soni Hospital",
    "hours": "Closed · Opens 14:30",
    "imageUrl": "https://www.bing.com/maps/geoplat/REST/v1/Imagery/Map/RoadVibrant?ms=92,112&key=AnTcaqBi2ypp0xI-OZNi4W_ik2KhjgpqioTAtXLC8GzkMBQRMlyxvxyTnd5b73im&c=en-US&ur=in&da=n&logo=n&fmt=png&od=1&shading=hill&pp=25.748516,71.39003;dfp"
  }
]