[
  {
    "name": "Dr. Jaswinder Sadioura",
    "address": "Shakti Nagar Street No. 1, Near Courts Chownk, Bajakhana Road, Barnala 148101",
    "phone": "Dr. Jaswinder Sadioura",
    "hours": null,
    "imageUrl": "https://www.bing.com/th?id=OLC.RyB2%2bCTG7QHZQw480x360&w=92&h=112&c=8&rs=1&qlt=80&cdv=1&pid=Local"
  },
  {
    "name": "Dr Pardeep Sharma Multi Speciality Hospital",
    "address": "K.c . Road, Barnala, Punjab 148101",
    "phone": "Dr Pardeep Sharma Multi Speciality Hospital",
    "hours": null,
    "imageUrl": "https://www.bing.com/maps/geoplat/REST/v1/Imagery/Map/RoadVibrant?ms=92,112&key=AnTcaqBi2ypp0xI-OZNi4W_ik2KhjgpqioTAtXLC8GzkMBQRMlyxvxyTnd5b73im&c=en-US&ur=in&da=n&logo=n&fmt=png&od=1&shading=hill&pp=30.372782,75.544167;dfp"
  },
  {
    "name": "Dr Parmod Jain Hospital",
    "address": "Barnala, Punjab 148101, India, Barnala, Punjab 148101",
    "phone": "Dr Parmod Jain Hospital",
    "hours": null,
    "imageUrl": "https://www.bing.com/th?id=OLC.yzBcCYHH4cakWQ480x360&w=92&h=112&c=8&rs=1&qlt=80&cdv=1&pid=Local"
  },
  {
    "name": "Rahi Clinic",
    "address": "Government Depot, Barnala, Punjab 148101",
    "phone": "Rahi Clinic",
    "hours": null,
    "imageUrl": "https://www.bing.com/maps/geoplat/REST/v1/Imagery/Map/RoadVibrant?ms=92,112&key=AnTcaqBi2ypp0xI-OZNi4W_ik2KhjgpqioTAtXLC8GzkMBQRMlyxvxyTnd5b73im&c=en-US&ur=in&da=n&logo=n&fmt=png&od=1&shading=hill&pp=30.373739,75.548912;dfp"
  },
  {
    "name": "Dr.Kainth",
    "address": "Ram Rajya Colony Shop no 5, Barnala, Punjab",
    "phone": "Dr.Kainth",
    "hours": null,
    "imageUrl": "https://www.bing.com/maps/geoplat/REST/v1/Imagery/Map/RoadVibrant?ms=92,112&key=AnTcaqBi2ypp0xI-OZNi4W_ik2KhjgpqioTAtXLC8GzkMBQRMlyxvxyTnd5b73im&c=en-US&ur=in&da=n&logo=n&fmt=png&od=1&shading=hill&pp=30.377645,75.537498;dfp"
  },
  {
    "name": "Dr Amit Garg Hospital",
    "address": "Bus Standgovernment Depot, Barnala, Punjab 148101",
    "phone": "Dr Amit Garg Hospital",
    "hours": null,
    "imageUrl": "https://www.bing.com/maps/geoplat/REST/v1/Imagery/Map/RoadVibrant?ms=92,112&key=AnTcaqBi2ypp0xI-OZNi4W_ik2KhjgpqioTAtXLC8GzkMBQRMlyxvxyTnd5b73im&c=en-US&ur=in&da=n&logo=n&fmt=png&od=1&shading=hill&pp=30.37359,75.544327;dfp"
  },
  {
    "name": "Om Clinic",
    "address": "Dhanaula Road, Gursewak Nagar, Near Pharwahi Chungi, Barnala, Punjab 148101",
    "phone": "Om Clinic",
    "hours": null,
    "imageUrl": "https://www.bing.com/maps/geoplat/REST/v1/Imagery/Map/RoadVibrant?ms=92,112&key=AnTcaqBi2ypp0xI-OZNi4W_ik2KhjgpqioTAtXLC8GzkMBQRMlyxvxyTnd5b73im&c=en-US&ur=in&da=n&logo=n&fmt=png&od=1&shading=hill&pp=30.37219,75.549126;dfp"
  },
  {
    "name": "Simran Clinic",
    "address": "Baranla, 1, Near Radha Swami Satsang Ghar, Barnala, Punjab 148101",
    "phone": "Simran Clinic",
    "hours": null,
    "imageUrl": "https://www.bing.com/maps/geoplat/REST/v1/Imagery/Map/RoadVibrant?ms=92,112&key=AnTcaqBi2ypp0xI-OZNi4W_ik2KhjgpqioTAtXLC8GzkMBQRMlyxvxyTnd5b73im&c=en-US&ur=in&da=n&logo=n&fmt=png&od=1&shading=hill&pp=30.375601,75.565727;dfp"
  },
  {
    "name": "Dr. Hari Gopal Gupta Surgical Eye And Ear Clinc",
    "address": "9ghv+6gh, Barnala, Punjab 148101",
    "phone": "Dr. Hari Gopal Gupta Surgical Eye And Ear Clinc",
    "hours": null,
    "imageUrl": "https://www.bing.com/maps/geoplat/REST/v1/Imagery/Map/RoadVibrant?ms=92,112&key=AnTcaqBi2ypp0xI-OZNi4W_ik2KhjgpqioTAtXLC8GzkMBQRMlyxvxyTnd5b73im&c=en-US&ur=in&da=n&logo=n&fmt=png&od=1&shading=hill&pp=30.372557,75.555801;dfp"
  },
  {
    "name": "Jain Clinic",
    "address": "Dhanaula Road, Barnala, Punjab 148101",
    "phone": "Jain Clinic",
    "hours": null,
    "imageUrl": "https://www.bing.com/maps/geoplat/REST/v1/Imagery/Map/RoadVibrant?ms=92,112&key=AnTcaqBi2ypp0xI-OZNi4W_ik2KhjgpqioTAtXLC8GzkMBQRMlyxvxyTnd5b73im&c=en-US&ur=in&da=n&logo=n&fmt=png&od=1&shading=hill&pp=30.369474,75.546158;dfp"
  },
  {
    "name": "Rattan Ayurvedic Clinic",
    "address": "Patti Road, Barnala 148101",
    "phone": "Rattan Ayurvedic Clinic",
    "hours": "Closed · Opens 16:00",
    "imageUrl": "https://th.bing.com/th?id=OLC.h%2f6d9NeW1ZMuHg480x360&w=92&h=134&c=8&rs=1&qlt=80&cdv=1&pid=Local"
  },
  {
    "name": "Sukhmani Homoeopathic Clinic Bhadaur",
    "address": "Bajakhana Bhagta Road Opp. Onkar Motor Garage Bhadaur, Barnala 148102",
    "phone": "Sukhmani Homoeopathic Clinic Bhadaur",
    "hours": null,
    "imageUrl": "https://th.bing.com/th?id=OLC.I%2fna9M%2bafojGBw480x360&w=92&h=112&c=8&rs=1&qlt=80&cdv=1&pid=Local"
  },
  {
    "name": "Aarti Homoeo Clinic",
    "address": "Street No 3-B, New Grain Market Road, Barnala, Punjab Region 148101",
    "phone": "Aarti Homoeo Clinic",
    "hours": null,
    "imageUrl": "https://th.bing.com/th?id=OLC.Y3%2b2R%2fetj0T3jQ480x360&w=92&h=112&c=8&rs=1&qlt=80&cdv=1&pid=Local"
  },
  {
    "name": "Patanjali Chikitsalay",
    "address": "Ground Floor, Sadar Bazar, Barnala, Punjab 148101",
    "phone": "Patanjali Chikitsalay",
    "hours": "Closed · Opens 09:00",
    "imageUrl": "https://th.bing.com/th?id=OLC.4uCe9wsDmeHWbA480x360&w=92&h=134&c=8&rs=1&qlt=80&cdv=1&pid=Local"
  },
  {
    "name": "Modern Diagnostic Centre",
    "address": "Holy Family Hospital, F-833/14, Opposite Gate 2, Rawalpindi, 44000, Pakistan, ممبئی 400103",
    "phone": "Modern Diagnostic Centre",
    "hours": null,
    "imageUrl": "https://www.bing.com/maps/geoplat/REST/v1/Imagery/Map/RoadVibrant?ms=92,112&key=AnTcaqBi2ypp0xI-OZNi4W_ik2KhjgpqioTAtXLC8GzkMBQRMlyxvxyTnd5b73im&c=en-US&ur=in&da=n&logo=n&fmt=png&od=1&shading=hill&pp=30.368263,75.540436;dfp"
  },
  {
    "name": "Rajan Skin Hospital",
    "address": "Opp St 5, K C Road, Opp St No 5, Barnala, Punjab 148101",
    "phone": "Rajan Skin Hospital",
    "hours": null,
    "imageUrl": "https://th.bing.com/th?id=OLC.YxNWiMOg8LCOMA480x360&w=92&h=112&c=8&rs=1&qlt=80&cdv=1&pid=Local"
  },
  {
    "name": "Dr.jandu's Dental World",
    "address": "Street No. 2, Lakhi Colony, Barnala, Punjab Region 148101",
    "phone": "Dr.jandu's Dental World",
    "hours": "Closed · Opens 09:00",
    "imageUrl": "https://th.bing.com/th?id=OLC.7916QaUNE0kX7Q480x360&w=92&h=134&c=8&rs=1&qlt=80&cdv=1&pid=Local"
  },
  {
    "name": "Dietitian Joshi",
    "address": "Dietitian Joshi's Street, Lakhi Colony, #1602, Street No-2, Barnala, Punjab 148101",
    "phone": "Dietitian Joshi",
    "hours": "Closed · Opens 10:00",
    "imageUrl": "https://th.bing.com/th?id=OLC.74S8jCdnY1tIng480x360&w=92&h=134&c=8&rs=1&qlt=80&cdv=1&pid=Local"
  },
  {
    "name": "Dr. Jaswinder Sadioura",
    "address": "Shakti Nagar Street No. 1, Near Courts Chownk, Bajakhana Road, Barnala 148101",
    "phone": "Dr. Jaswinder Sadioura",
    "hours": null,
    "imageUrl": "https://www.bing.com/th?id=OLC.RyB2%2bCTG7QHZQw480x360&w=92&h=112&c=8&rs=1&qlt=80&cdv=1&pid=Local"
  },
  {
    "name": "Dr Pardeep Sharma Multi Speciality Hospital",
    "address": "K.c . Road, Barnala, Punjab 148101",
    "phone": "Dr Pardeep Sharma Multi Speciality Hospital",
    "hours": null,
    "imageUrl": "https://www.bing.com/maps/geoplat/REST/v1/Imagery/Map/RoadVibrant?ms=92,112&key=AnTcaqBi2ypp0xI-OZNi4W_ik2KhjgpqioTAtXLC8GzkMBQRMlyxvxyTnd5b73im&c=en-US&ur=in&da=n&logo=n&fmt=png&od=1&shading=hill&pp=30.372782,75.544167;dfp"
  }
]