[
  {
    "name": "Dr. Azizur R. Siddique",
    "address": "Hazi Complex, Ground Floor, Room no 5. Dr B. K Road, Muslimpatti, Barpeta Town, Barpeta, Assam 781301",
    "phone": "Dr. Azizur R. Siddique",
    "hours": null,
    "imageUrl": "https://www.bing.com/th?id=OLC.aNEVSAinmpR2nw480x360&w=92&h=112&c=8&rs=1&qlt=80&cdv=1&pid=Local"
  },
  {
    "name": "Dr. Bishal Agarwalla- Nephrologist",
    "address": "Hasina Medishop, SH 2, Muslimpatty, Satra Barad, Barpeta, Assam 781301",
    "phone": "Dr. Bishal Agarwalla- Nephrologist",
    "hours": "Closed · Opens Wed 09:00",
    "imageUrl": "https://www.bing.com/maps/geoplat/REST/v1/Imagery/Map/RoadVibrant?ms=92,134&key=AnTcaqBi2ypp0xI-OZNi4W_ik2KhjgpqioTAtXLC8GzkMBQRMlyxvxyTnd5b73im&c=en-US&ur=in&da=n&logo=n&fmt=png&od=1&shading=hill&pp=26.330835,91.00441;dfp"
  },
  {
    "name": "বৰপেটা পলিক্লিনিক | Barpeta Polyclinic | a Multi Specialty Doctor Clinic",
    "address": "Polyclinic RJP Road, Near Veterinary Hospital, Barpeta, Assam",
    "phone": "বৰপেটা পলিক্লিনিক | Barpeta Polyclinic | a Multi Specialty Doctor Clinic",
    "hours": null,
    "imageUrl": "https://www.bing.com/th?id=OLC.7MxU9ToU7iCeWQ480x360&w=92&h=112&c=8&rs=1&qlt=80&cdv=1&pid=Local"
  },
  {
    "name": "Dr Tilak Pathak",
    "address": "Sudhakantha Path, Ward No:17, Near Measurement Office, Metuakuchi, Muslimpatty, Assam 781301",
    "phone": "Dr Tilak Pathak",
    "hours": null,
    "imageUrl": "https://www.bing.com/maps/geoplat/REST/v1/Imagery/Map/RoadVibrant?ms=92,112&key=AnTcaqBi2ypp0xI-OZNi4W_ik2KhjgpqioTAtXLC8GzkMBQRMlyxvxyTnd5b73im&c=en-US&ur=in&da=n&logo=n&fmt=png&od=1&shading=hill&pp=26.329281,90.992783;dfp"
  },
  {
    "name": "Dr. Rajesh Das- Gynecologist & Obstetrician",
    "address": "Dr. Rajesh Das, Ss10, Prof. Dept, Ong Faa Medical College, Barpeta, Assam 781301",
    "phone": "Dr. Rajesh Das- Gynecologist & Obstetrician",
    "hours": null,
    "imageUrl": "https://www.bing.com/maps/geoplat/REST/v1/Imagery/Map/RoadVibrant?ms=92,112&key=AnTcaqBi2ypp0xI-OZNi4W_ik2KhjgpqioTAtXLC8GzkMBQRMlyxvxyTnd5b73im&c=en-US&ur=in&da=n&logo=n&fmt=png&od=1&shading=hill&pp=26.324471,90.982826;dfp"
  },
  {
    "name": "Homeo Health Clinic, Dr Matin Online Homeopathic Clinic",
    "address": "Kakati Complex, Amtal Barpeta Road, Barpeta Road, Assam 781315",
    "phone": "Homeo Health Clinic, Dr Matin Online Homeopathic Clinic",
    "hours": null,
    "imageUrl": "https://www.bing.com/th?id=OLC.oU5KYct2py2Z5g480x360&w=92&h=112&c=8&rs=1&qlt=80&cdv=1&pid=Local"
  },
  {
    "name": "Dr. Alakesh Burman- Urologist",
    "address": "Hasina Medishop, SH 2, Muslimpatty, Satra Barad, Barpeta, Assam 781301",
    "phone": "Dr. Alakesh Burman- Urologist",
    "hours": "Closed · Opens Wed 09:00",
    "imageUrl": "https://www.bing.com/maps/geoplat/REST/v1/Imagery/Map/RoadVibrant?ms=92,134&key=AnTcaqBi2ypp0xI-OZNi4W_ik2KhjgpqioTAtXLC8GzkMBQRMlyxvxyTnd5b73im&c=en-US&ur=in&da=n&logo=n&fmt=png&od=1&shading=hill&pp=26.330835,91.00441;dfp"
  },
  {
    "name": "Getwell Diagnostic Centre, Barpeta, Assam",
    "address": "Kalu Khan Complex, Ground Floor, Muslimpatty, Barpeta, Assam 781301",
    "phone": "Getwell Diagnostic Centre, Barpeta, Assam",
    "hours": "Closed · Opens 08:00",
    "imageUrl": "https://th.bing.com/th?id=OLC.eKwXLgSGXkxnOQ480x360&w=92&h=134&c=8&rs=1&qlt=80&cdv=1&pid=Local"
  },
  {
    "name": "Dr. Subrata's Pain Clinic - Home | Facebook",
    "address": "Opposite of Hindi L.P School, Majid Road, Main Market, Lumding, Lumding, Assam, Assam 782447",
    "phone": "Dr. Subrata's Pain Clinic - Home | Facebook",
    "hours": null,
    "imageUrl": "https://www.bing.com/maps/geoplat/REST/v1/Imagery/Map/RoadVibrant?ms=92,112&key=AnTcaqBi2ypp0xI-OZNi4W_ik2KhjgpqioTAtXLC8GzkMBQRMlyxvxyTnd5b73im&c=en-US&ur=in&da=n&logo=n&fmt=png&od=1&shading=hill&pp=26.342546,90.657646;dfp"
  },
  {
    "name": "Dr Lal PathLabs - Patient Service Centre",
    "address": "Ground Floor, BKK Road, Barpeta Town, Barpeta, Assam 781301",
    "phone": "Dr Lal PathLabs - Patient Service Centre",
    "hours": "Open · Closes 19:30",
    "imageUrl": "https://www.bing.com/maps/geoplat/REST/v1/Imagery/Map/RoadVibrant?ms=92,134&key=AnTcaqBi2ypp0xI-OZNi4W_ik2KhjgpqioTAtXLC8GzkMBQRMlyxvxyTnd5b73im&c=en-US&ur=in&da=n&logo=n&fmt=png&od=1&shading=hill&pp=26.32382,90.986481;dfp"
  },
  {
    "name": "Dr. Samarjit Khanikar- Orthopaedics & Joint Replacement Surgeon",
    "address": "Ubika Medicos, FXW9+65 Amtal, Barpeta Road, Barpeta Road, Assam 781315",
    "phone": "Dr. Samarjit Khanikar- Orthopaedics & Joint Replacement Surgeon",
    "hours": "Closed · Opens Wed 09:00",
    "imageUrl": "https://www.bing.com/maps/geoplat/REST/v1/Imagery/Map/RoadVibrant?ms=92,134&key=AnTcaqBi2ypp0xI-OZNi4W_ik2KhjgpqioTAtXLC8GzkMBQRMlyxvxyTnd5b73im&c=en-US&ur=in&da=n&logo=n&fmt=png&od=1&shading=hill&pp=26.503319,90.968811;dfp"
  },
  {
    "name": "Advance ENT Centre",
    "address": "new Royal Medical, Amtola, Barpeta Road, Assam 786125",
    "phone": "Advance ENT Centre",
    "hours": null,
    "imageUrl": "https://th.bing.com/th?id=OLC.155F9hlePpSD2w480x360&w=92&h=112&c=8&rs=1&qlt=80&cdv=1&pid=Local"
  },
  {
    "name": "Apollo Dialysis Clinics",
    "address": "Fakharuddin Ali Ahmed Medical College & Hospital, Barpeta Town, Barpeta, Assam 781301",
    "phone": "Apollo Dialysis Clinics",
    "hours": "Open · Closes 21:00",
    "imageUrl": "https://www.bing.com/maps/geoplat/REST/v1/Imagery/Map/RoadVibrant?ms=92,134&key=AnTcaqBi2ypp0xI-OZNi4W_ik2KhjgpqioTAtXLC8GzkMBQRMlyxvxyTnd5b73im&c=en-US&ur=in&da=n&logo=n&fmt=png&od=1&shading=hill&pp=26.324146,90.984612;dfp"
  },
  {
    "name": "DR G.C NATH MD| DR M.RAHMAN MD-Best Medicine doctor",
    "address": "Medicity Guwahati, Hatigaon Main Road, Near, Sewali Path, Guwahati, Assam",
    "phone": "DR G.C NATH MD| DR M.RAHMAN MD-Best Medicine doctor",
    "hours": null,
    "imageUrl": "https://www.bing.com/maps/geoplat/REST/v1/Imagery/Map/RoadVibrant?ms=92,112&key=AnTcaqBi2ypp0xI-OZNi4W_ik2KhjgpqioTAtXLC8GzkMBQRMlyxvxyTnd5b73im&c=en-US&ur=in&da=n&logo=n&fmt=png&od=1&shading=hill&pp=26.136911,91.785774;dfp"
  },
  {
    "name": "Patanjali Chikitsalaya",
    "address": "Main Road, Barpeta Road, Near Central Bank, Barpeta Road, Assam",
    "phone": "Patanjali Chikitsalaya",
    "hours": null,
    "imageUrl": "https://www.bing.com/maps/geoplat/REST/v1/Imagery/Map/RoadVibrant?ms=92,112&key=AnTcaqBi2ypp0xI-OZNi4W_ik2KhjgpqioTAtXLC8GzkMBQRMlyxvxyTnd5b73im&c=en-US&ur=in&da=n&logo=n&fmt=png&od=1&shading=hill&pp=26.157843,90.619247;dfp"
  },
  {
    "name": "Dr. Azizur R. Siddique",
    "address": "Hazi Complex, Ground Floor, Room no 5. Dr B. K Road, Muslimpatti, Barpeta Town, Barpeta, Assam 781301",
    "phone": "Dr. Azizur R. Siddique",
    "hours": null,
    "imageUrl": "https://www.bing.com/th?id=OLC.aNEVSAinmpR2nw480x360&w=92&h=112&c=8&rs=1&qlt=80&cdv=1&pid=Local"
  },
  {
    "name": "Dr. Bishal Agarwalla- Nephrologist",
    "address": "Hasina Medishop, SH 2, Muslimpatty, Satra Barad, Barpeta, Assam 781301",
    "phone": "Dr. Bishal Agarwalla- Nephrologist",
    "hours": "Closed · Opens Wed 09:00",
    "imageUrl": "https://www.bing.com/maps/geoplat/REST/v1/Imagery/Map/RoadVibrant?ms=92,134&key=AnTcaqBi2ypp0xI-OZNi4W_ik2KhjgpqioTAtXLC8GzkMBQRMlyxvxyTnd5b73im&c=en-US&ur=in&da=n&logo=n&fmt=png&od=1&shading=hill&pp=26.330835,91.00441;dfp"
  },
  {
    "name": "বৰপেটা পলিক্লিনিক | Barpeta Polyclinic | a Multi Specialty Doctor Clinic",
    "address": "Polyclinic RJP Road, Near Veterinary Hospital, Barpeta, Assam",
    "phone": "বৰপেটা পলিক্লিনিক | Barpeta Polyclinic | a Multi Specialty Doctor Clinic",
    "hours": null,
    "imageUrl": "https://www.bing.com/th?id=OLC.7MxU9ToU7iCeWQ480x360&w=92&h=112&c=8&rs=1&qlt=80&cdv=1&pid=Local"
  },
  {
    "name": "Dr Tilak Pathak",
    "address": "Sudhakantha Path, Ward No:17, Near Measurement Office, Metuakuchi, Muslimpatty, Assam 781301",
    "phone": "Dr Tilak Pathak",
    "hours": null,
    "imageUrl": "https://www.bing.com/maps/geoplat/REST/v1/Imagery/Map/RoadVibrant?ms=92,112&key=AnTcaqBi2ypp0xI-OZNi4W_ik2KhjgpqioTAtXLC8GzkMBQRMlyxvxyTnd5b73im&c=en-US&ur=in&da=n&logo=n&fmt=png&od=1&shading=hill&pp=26.329281,90.992783;dfp"
  },
  {
    "name": "Dr. Rajesh Das- Gynecologist & Obstetrician",
    "address": "Dr. Rajesh Das, Ss10, Prof. Dept, Ong Faa Medical College, Barpeta, Assam 781301",
    "phone": "Dr. Rajesh Das- Gynecologist & Obstetrician",
    "hours": null,
    "imageUrl": "https://www.bing.com/maps/geoplat/REST/v1/Imagery/Map/RoadVibrant?ms=92,112&key=AnTcaqBi2ypp0xI-OZNi4W_ik2KhjgpqioTAtXLC8GzkMBQRMlyxvxyTnd5b73im&c=en-US&ur=in&da=n&logo=n&fmt=png&od=1&shading=hill&pp=26.324471,90.982826;dfp"
  }
]