[
  {
    "name": "Dr. Nitin | General Physician | Rawat clinic barwani",
    "address": "Rawat Clinic Barwani, Aashagram Road, Barwani, Madhya Pradesh, India, 451551, Barwani, Madhya Prad…",
    "phone": "Dr. Nitin | General Physician | Rawat clinic barwani",
    "hours": "Closed · Opens 10:00",
    "imageUrl": "https://www.bing.com/th?id=OLC.av71XGT4%2bct3Kg480x360&w=92&h=134&c=8&rs=1&qlt=80&cdv=1&pid=Local"
  },
  {
    "name": "Dr Devesh Kumawat Multi-speciality Clinic Homoeopathic Doctor, Physiotherapist And Chiropractor",
    "address": "Arjun Karaj Bhavan, 24, Ashagram Rd, Barwani, Madhya Pradesh",
    "phone": "Dr Devesh Kumawat Multi-speciality Clinic Homoeopathic Doctor, Physiotherapist And Chiropractor",
    "hours": null,
    "imageUrl": "https://www.bing.com/maps/geoplat/REST/v1/Imagery/Map/RoadVibrant?ms=92,112&key=AnTcaqBi2ypp0xI-OZNi4W_ik2KhjgpqioTAtXLC8GzkMBQRMlyxvxyTnd5b73im&c=en-US&ur=in&da=n&logo=n&fmt=png&od=1&shading=hill&pp=22.0354,74.899803;dfp"
  },
  {
    "name": "Vinayak Clinic",
    "address": "Sukhvilas Colony, Barwani (Behind District Court), Barwani, Madhya Pradesh 451551",
    "phone": "Vinayak Clinic",
    "hours": "Closed · Opens 12:00",
    "imageUrl": "https://www.bing.com/th?id=OLC.pSSjGGZPcmxq2w480x360&w=92&h=134&c=8&rs=1&qlt=80&cdv=1&pid=Local"
  },
  {
    "name": "Dr Avinash Barfa",
    "address": "Barwani, Madhya Pradesh 451551, India, Barwani, Madhya Pradesh 451551",
    "phone": "Dr Avinash Barfa",
    "hours": null,
    "imageUrl": "https://www.bing.com/th?id=OLC.zdR%2bVkWj3oheVw480x360&w=92&h=112&c=8&rs=1&qlt=80&cdv=1&pid=Local"
  },
  {
    "name": "Dr Anupam Batra ENT surgeon",
    "address": "Behind District Court, Sukh Vilas Colony, Barwani, Madhya Pradesh",
    "phone": "Dr Anupam Batra ENT surgeon",
    "hours": null,
    "imageUrl": "https://www.bing.com/maps/geoplat/REST/v1/Imagery/Map/RoadVibrant?ms=92,112&key=AnTcaqBi2ypp0xI-OZNi4W_ik2KhjgpqioTAtXLC8GzkMBQRMlyxvxyTnd5b73im&c=en-US&ur=in&da=n&logo=n&fmt=png&od=1&shading=hill&pp=22.0354,74.899803;dfp"
  },
  {
    "name": "Siddharth Clinic",
    "address": "Thikri Badwani Road, Mandawada, Dist Barwani, Barwani, Madhya Pradesh 451551",
    "phone": "Siddharth Clinic",
    "hours": null,
    "imageUrl": "https://www.bing.com/maps/geoplat/REST/v1/Imagery/Map/RoadVibrant?ms=92,112&key=AnTcaqBi2ypp0xI-OZNi4W_ik2KhjgpqioTAtXLC8GzkMBQRMlyxvxyTnd5b73im&c=en-US&ur=in&da=n&logo=n&fmt=png&od=1&shading=hill&pp=22.031059,74.910271;dfp"
  },
  {
    "name": "Jagdish Kag Clinic",
    "address": "22, KAG House, Rehgun, Barwani Silawad Road, Barwani, Madhya Pradesh 451551",
    "phone": "Jagdish Kag Clinic",
    "hours": null,
    "imageUrl": "https://www.bing.com/maps/geoplat/REST/v1/Imagery/Map/RoadVibrant?ms=92,112&key=AnTcaqBi2ypp0xI-OZNi4W_ik2KhjgpqioTAtXLC8GzkMBQRMlyxvxyTnd5b73im&c=en-US&ur=in&da=n&logo=n&fmt=png&od=1&shading=hill&pp=22.031197,74.909309;dfp"
  },
  {
    "name": "Sampurna Sahyog Diagnostic Centre Barwani",
    "address": "31 Sukhvilas Colony, Ashagram Rd, Barwani, Madhya Pradesh 451551",
    "phone": "Sampurna Sahyog Diagnostic Centre Barwani",
    "hours": "Open · Closes 20:00",
    "imageUrl": "https://www.bing.com/maps/geoplat/REST/v1/Imagery/Map/RoadVibrant?ms=92,134&key=AnTcaqBi2ypp0xI-OZNi4W_ik2KhjgpqioTAtXLC8GzkMBQRMlyxvxyTnd5b73im&c=en-US&ur=in&da=n&logo=n&fmt=png&od=1&shading=hill&pp=22.034649,74.902122;dfp"
  },
  {
    "name": "Dr Ananya Singare Namdeo Dental clinic",
    "address": "Shop no, Ranjeet Club ke Pichhe, 4, Ashagram Rd, Barwani, Madhya Pradesh",
    "phone": "Dr Ananya Singare Namdeo Dental clinic",
    "hours": null,
    "imageUrl": "https://th.bing.com/th?id=OLC.Te9VEGYQcu%2bNaA480x360&w=92&h=112&c=8&rs=1&qlt=80&cdv=1&pid=Local"
  },
  {
    "name": "Dr. Ayush Arogya",
    "address": "Village goi Tehsil Sindhwa, Barwani, Madhya Pradesh 451666",
    "phone": "Dr. Ayush Arogya",
    "hours": "Closed · Opens 09:00",
    "imageUrl": "https://th.bing.com/th?id=OLC.6p8JdQ%2fJDXaCIw480x360&w=92&h=134&c=8&rs=1&qlt=80&cdv=1&pid=Local"
  },
  {
    "name": "Dr Pahadiya Dental Clinic",
    "address": "Sh-26, Barwani 451551, Barwani, Madhya Pradesh 451551",
    "phone": "Dr Pahadiya Dental Clinic",
    "hours": null,
    "imageUrl": "https://www.bing.com/maps/geoplat/REST/v1/Imagery/Map/RoadVibrant?ms=92,112&key=AnTcaqBi2ypp0xI-OZNi4W_ik2KhjgpqioTAtXLC8GzkMBQRMlyxvxyTnd5b73im&c=en-US&ur=in&da=n&logo=n&fmt=png&od=1&shading=hill&pp=22.03688,74.89978;dfp"
  },
  {
    "name": "Aastha Clinic",
    "address": "Chachariya, Main Road, Sendhwa, Barwani, Madhya Pradesh 451666",
    "phone": "Aastha Clinic",
    "hours": null,
    "imageUrl": "https://www.bing.com/maps/geoplat/REST/v1/Imagery/Map/RoadVibrant?ms=92,112&key=AnTcaqBi2ypp0xI-OZNi4W_ik2KhjgpqioTAtXLC8GzkMBQRMlyxvxyTnd5b73im&c=en-US&ur=in&da=n&logo=n&fmt=png&od=1&shading=hill&pp=21.685566,75.091331;dfp"
  },
  {
    "name": "Maa Dariya Clinic",
    "address": "Solwan, Sendhwa MAA Dariya Clinic Solwan Sendhwa, Barwani, Madhya Pradesh 451666",
    "phone": "Maa Dariya Clinic",
    "hours": null,
    "imageUrl": "https://www.bing.com/maps/geoplat/REST/v1/Imagery/Map/RoadVibrant?ms=92,112&key=AnTcaqBi2ypp0xI-OZNi4W_ik2KhjgpqioTAtXLC8GzkMBQRMlyxvxyTnd5b73im&c=en-US&ur=in&da=n&logo=n&fmt=png&od=1&shading=hill&pp=21.681873,75.106117;dfp"
  },
  {
    "name": "Antim Patidar",
    "address": "Anjad Road, Barwani, Madhya Pradesh 451551",
    "phone": "Antim Patidar",
    "hours": null,
    "imageUrl": "https://www.bing.com/maps/geoplat/REST/v1/Imagery/Map/RoadVibrant?ms=92,112&key=AnTcaqBi2ypp0xI-OZNi4W_ik2KhjgpqioTAtXLC8GzkMBQRMlyxvxyTnd5b73im&c=en-US&ur=in&da=n&logo=n&fmt=png&od=1&shading=hill&pp=22.03845,74.902298;dfp"
  },
  {
    "name": "Megha Pathology",
    "address": "Sukhvilas Colony, Barwani, Behind OF District Court, Barwani, Madhya Pradesh 451551",
    "phone": "Megha Pathology",
    "hours": null,
    "imageUrl": "https://www.bing.com/maps/geoplat/REST/v1/Imagery/Map/RoadVibrant?ms=92,112&key=AnTcaqBi2ypp0xI-OZNi4W_ik2KhjgpqioTAtXLC8GzkMBQRMlyxvxyTnd5b73im&c=en-US&ur=in&da=n&logo=n&fmt=png&od=1&shading=hill&pp=22.031879,74.904289;dfp"
  },
  {
    "name": "Jai Guru Agro Clinic",
    "address": "Gram Bilwa Road, Tehsil Anjad, Barwani, Madhya Pradesh 451556",
    "phone": "Jai Guru Agro Clinic",
    "hours": null,
    "imageUrl": "https://www.bing.com/maps/geoplat/REST/v1/Imagery/Map/RoadVibrant?ms=92,112&key=AnTcaqBi2ypp0xI-OZNi4W_ik2KhjgpqioTAtXLC8GzkMBQRMlyxvxyTnd5b73im&c=en-US&ur=in&da=n&logo=n&fmt=png&od=1&shading=hill&pp=22.04714,75.079163;dfp"
  },
  {
    "name": "Shri Ig Agri Clinic",
    "address": "08, Rokas Complex OLD Collectorate Road, Barwani, Madhya Pradesh 451551",
    "phone": "Shri Ig Agri Clinic",
    "hours": null,
    "imageUrl": "https://www.bing.com/maps/geoplat/REST/v1/Imagery/Map/RoadVibrant?ms=92,112&key=AnTcaqBi2ypp0xI-OZNi4W_ik2KhjgpqioTAtXLC8GzkMBQRMlyxvxyTnd5b73im&c=en-US&ur=in&da=n&logo=n&fmt=png&od=1&shading=hill&pp=22.041718,75.043823;dfp"
  },
  {
    "name": "Dr. Nitin | General Physician | Rawat clinic barwani",
    "address": "Rawat Clinic Barwani, Aashagram Road, Barwani, Madhya Pradesh, India, 451551, Barwani, Madhya Prad…",
    "phone": "Dr. Nitin | General Physician | Rawat clinic barwani",
    "hours": "Closed · Opens 10:00",
    "imageUrl": "https://www.bing.com/th?id=OLC.av71XGT4%2bct3Kg480x360&w=92&h=134&c=8&rs=1&qlt=80&cdv=1&pid=Local"
  },
  {
    "name": "Dr Devesh Kumawat Multi-speciality Clinic Homoeopathic Doctor, Physiotherapist And Chiropractor",
    "address": "Arjun Karaj Bhavan, 24, Ashagram Rd, Barwani, Madhya Pradesh",
    "phone": "Dr Devesh Kumawat Multi-speciality Clinic Homoeopathic Doctor, Physiotherapist And Chiropractor",
    "hours": null,
    "imageUrl": "https://www.bing.com/maps/geoplat/REST/v1/Imagery/Map/RoadVibrant?ms=92,112&key=AnTcaqBi2ypp0xI-OZNi4W_ik2KhjgpqioTAtXLC8GzkMBQRMlyxvxyTnd5b73im&c=en-US&ur=in&da=n&logo=n&fmt=png&od=1&shading=hill&pp=22.0354,74.899803;dfp"
  },
  {
    "name": "Vinayak Clinic",
    "address": "Sukhvilas Colony, Barwani (Behind District Court), Barwani, Madhya Pradesh 451551",
    "phone": "Vinayak Clinic",
    "hours": "Closed · Opens 12:00",
    "imageUrl": "https://www.bing.com/th?id=OLC.pSSjGGZPcmxq2w480x360&w=92&h=134&c=8&rs=1&qlt=80&cdv=1&pid=Local"
  }
]