[
  {
    "name": "Dr Mohit Gupta",
    "address": "2\\A Power House Road, Gupta Hospital, Power House Road, Bathinda, Punjab 151001",
    "phone": "Dr Mohit Gupta",
    "hours": null,
    "imageUrl": "https://www.bing.com/th?id=OLC.MepJbsxQKMARqQ480x360&w=92&h=112&c=8&rs=1&qlt=80&cdv=1&pid=Local"
  },
  {
    "name": "Dr. Megha, Treated 2K+ Patients | Best General Physician | Fever & Diabetes Doctor",
    "address": "Home, #14777A Street no. 7 Adarsh Nagar Goniana Road Bathinda, Bathinda, Punjab 151001",
    "phone": "Dr. Megha, Treated 2K+ Patients | Best General Physician | Fever & Diabetes Doctor",
    "hours": "Open · Closes 22:00",
    "imageUrl": "https://www.bing.com/th?id=OLC.MbgtsJTI0ZB1nQ480x360&w=92&h=134&c=8&rs=1&qlt=80&cdv=1&pid=Local"
  },
  {
    "name": "Max Super Speciality Hospital",
    "address": "NH-64, Near District Civil Hospital, Mansa Road, Bathinda, Punjab 151001",
    "phone": "Max Super Speciality Hospital",
    "hours": "Closed · Opens 10:00",
    "imageUrl": "https://www.bing.com/th?id=OLC.D%2fNqRtB8hjii%2bA480x360&w=92&h=134&c=8&rs=1&qlt=80&cdv=1&pid=Local"
  },
  {
    "name": "Dr. Sorabh Gupta",
    "address": "Badyal Hospital, Bibi Wala Road, Bathinda, Punjab Region 151001",
    "phone": "Dr. Sorabh Gupta",
    "hours": null,
    "imageUrl": "https://www.bing.com/th?id=OLC.e5XCngLS0N7HxA480x360&w=92&h=112&c=8&rs=1&qlt=80&cdv=1&pid=Local"
  },
  {
    "name": "Guru Harkrishan Health Clinic",
    "address": "Baba Farid Nagar, Near Street No.4, Main Bibi Wala Road Bathinda, India, Bathinda, Punjab Region 151001",
    "phone": "Guru Harkrishan Health Clinic",
    "hours": null,
    "imageUrl": "https://www.bing.com/th?id=OLC.0pVJ78Jgs2K6CA480x360&w=92&h=112&c=8&rs=1&qlt=80&cdv=1&pid=Local"
  },
  {
    "name": "Dr. Dilveer Brar",
    "address": "House No. 20451, Street, 12, Bibi Wala Rd, Bathinda, Punjab",
    "phone": "Dr. Dilveer Brar",
    "hours": null,
    "imageUrl": "https://www.bing.com/maps/geoplat/REST/v1/Imagery/Map/RoadVibrant?ms=92,112&key=AnTcaqBi2ypp0xI-OZNi4W_ik2KhjgpqioTAtXLC8GzkMBQRMlyxvxyTnd5b73im&c=en-US&ur=in&da=n&logo=n&fmt=png&od=1&shading=hill&pp=30.218596,74.953453;dfp"
  },
  {
    "name": "Bansal Surgical and Maternity Hospital- Best general / Best laparoscopic surgeon / Best gynaecologist",
    "address": "Amrik Singh Road, Near S.S.D Girls College, Bathinda, Punjab 151001",
    "phone": "Bansal Surgical and Maternity Hospital- Best general / Best laparoscopic surgeon / Best gynaecologist",
    "hours": "Closed · Opens 09:00",
    "imageUrl": "https://th.bing.com/th?id=OLC.qFJk8T4WXUNAZw480x360&w=92&h=134&c=8&rs=1&qlt=80&cdv=1&pid=Local"
  },
  {
    "name": "Dr Saurabh Gupta",
    "address": "Bathinda Mukatsar Road, Bathinda, Punjab 151101",
    "phone": "Dr Saurabh Gupta",
    "hours": null,
    "imageUrl": "https://www.bing.com/maps/geoplat/REST/v1/Imagery/Map/RoadVibrant?ms=92,112&key=AnTcaqBi2ypp0xI-OZNi4W_ik2KhjgpqioTAtXLC8GzkMBQRMlyxvxyTnd5b73im&c=en-US&ur=in&da=n&logo=n&fmt=png&od=1&shading=hill&pp=30.218784,74.934746;dfp"
  },
  {
    "name": "Dr. Ajesh Bansal",
    "address": "Delhi Heart Hospital, GT Road, Near Tinkoni, Bathinda, Punjab",
    "phone": "Dr. Ajesh Bansal",
    "hours": null,
    "imageUrl": "https://www.bing.com/maps/geoplat/REST/v1/Imagery/Map/RoadVibrant?ms=92,112&key=AnTcaqBi2ypp0xI-OZNi4W_ik2KhjgpqioTAtXLC8GzkMBQRMlyxvxyTnd5b73im&c=en-US&ur=in&da=n&logo=n&fmt=png&od=1&shading=hill&pp=30.212576,74.95372;dfp"
  },
  {
    "name": "Nagpal Super Speciality Hospital",
    "address": "Mall Road, Bathinda, Madhya Pradesh 151001",
    "phone": "Nagpal Super Speciality Hospital",
    "hours": "Closed · Opens 10:00",
    "imageUrl": "https://th.bing.com/th?id=OLC.h2DYY79H3HVqIQ480x360&w=92&h=134&c=8&rs=1&qlt=80&cdv=1&pid=Local"
  },
  {
    "name": "Shuddhi Clinic Bathinda",
    "address": "Showroom No. 24, Bharat Nagar Market, Bibi Wala Chowk, Opposite Atithi Mall, Bathinda, Punjab 151001",
    "phone": "Shuddhi Clinic Bathinda",
    "hours": "Closed · Opens 09:00",
    "imageUrl": "https://th.bing.com/th?id=OLC.%2bECBO6lxdppG0Q480x360&w=92&h=134&c=8&rs=1&qlt=80&cdv=1&pid=Local"
  },
  {
    "name": "Dr. Mohit Garg",
    "address": "Near Ganesha Basti Bus Stop, Nirankari Bhawan, Ganesh Nagar, Bathinda, Punjab 151001",
    "phone": "Dr. Mohit Garg",
    "hours": "Closed · Opens 18:00",
    "imageUrl": "https://www.bing.com/maps/geoplat/REST/v1/Imagery/Map/RoadVibrant?ms=92,134&key=AnTcaqBi2ypp0xI-OZNi4W_ik2KhjgpqioTAtXLC8GzkMBQRMlyxvxyTnd5b73im&c=en-US&ur=in&da=n&logo=n&fmt=png&od=1&shading=hill&pp=30.217661,74.938469;dfp"
  },
  {
    "name": "Dr. Saurabh Bagga",
    "address": "1616, Outram Lines, GTB Nagar, Delhi",
    "phone": "Dr. Saurabh Bagga",
    "hours": "Closed · Opens tomorrow 18:00",
    "imageUrl": "https://th.bing.com/th?id=OLC.co0JebLj6xwNLA480x360&w=92&h=112&c=8&rs=1&qlt=80&cdv=1&pid=Local"
  },
  {
    "name": "Dr. Naveen Kumar Ailawadi",
    "address": "1616, Outram Lines, GTB Nagar, Delhi",
    "phone": "Dr. Naveen Kumar Ailawadi",
    "hours": "Closed · Opens 14:00",
    "imageUrl": "https://th.bing.com/th?id=OLC.10qeG48Pl9ablg480x360&w=92&h=112&c=8&rs=1&qlt=80&cdv=1&pid=Local"
  },
  {
    "name": "DR. Sharda Ayurveda - Best Ayurvedic Clinic Bathinda",
    "address": "Opp Sepal Hotel, Gate No.1, Near Tinkoni Chowk, Bathinda, Punjab 151001",
    "phone": "DR. Sharda Ayurveda - Best Ayurvedic Clinic Bathinda",
    "hours": "Closed · Opens 09:00",
    "imageUrl": "https://th.bing.com/th?id=OLC.DXCMMq5k3nQxKg480x360&w=92&h=134&c=8&rs=1&qlt=80&cdv=1&pid=Local"
  },
  {
    "name": "Dr. Atin Gupta",
    "address": "Mata Rani Gali, Bathinda, Punjab",
    "phone": "Dr. Atin Gupta",
    "hours": "Closed · Opens 09:00",
    "imageUrl": "https://www.bing.com/maps/geoplat/REST/v1/Imagery/Map/RoadVibrant?ms=92,112&key=AnTcaqBi2ypp0xI-OZNi4W_ik2KhjgpqioTAtXLC8GzkMBQRMlyxvxyTnd5b73im&c=en-US&ur=in&da=n&logo=n&fmt=png&od=1&shading=hill&pp=30.211006,74.943275;dfp"
  },
  {
    "name": "Dr. Munish Gupta",
    "address": "G T Road, Landmark, Bathinda, Bathinda 151001",
    "phone": "Dr. Munish Gupta",
    "hours": "Closed · Opens 09:00",
    "imageUrl": "https://th.bing.com/th?id=OLC.XLVFlBHwgDOVdA480x360&w=92&h=134&c=8&rs=1&qlt=80&cdv=1&pid=Local"
  },
  {
    "name": "Punjab Cancer Care and Multispeciality Hospital",
    "address": "Near Tinkoni, GT Road, Bathinda",
    "phone": "Punjab Cancer Care and Multispeciality Hospital",
    "hours": "Open 24 hours",
    "imageUrl": "https://th.bing.com/th?id=OLC.28z6JxVJDCZmYw480x360&w=92&h=134&c=8&rs=1&qlt=80&cdv=1&pid=Local"
  },
  {
    "name": "Dr Mohit Gupta",
    "address": "2\\A Power House Road, Gupta Hospital, Power House Road, Bathinda, Punjab 151001",
    "phone": "Dr Mohit Gupta",
    "hours": null,
    "imageUrl": "https://www.bing.com/th?id=OLC.MepJbsxQKMARqQ480x360&w=92&h=112&c=8&rs=1&qlt=80&cdv=1&pid=Local"
  },
  {
    "name": "Dr. Megha, Treated 2K+ Patients | Best General Physician | Fever & Diabetes Doctor",
    "address": "Home, #14777A Street no. 7 Adarsh Nagar Goniana Road Bathinda, Bathinda, Punjab 151001",
    "phone": "Dr. Megha, Treated 2K+ Patients | Best General Physician | Fever & Diabetes Doctor",
    "hours": "Open · Closes 22:00",
    "imageUrl": "https://www.bing.com/th?id=OLC.MbgtsJTI0ZB1nQ480x360&w=92&h=134&c=8&rs=1&qlt=80&cdv=1&pid=Local"
  }
]