[
  {
    "name": "Dr. Sachin S. Ware",
    "address": "Umakiran Complex, Pangari Road, Shahunagar Beed, Kranti Nagar, Beed, Maharashtra",
    "phone": "Dr. Sachin S. Ware",
    "hours": "Closed · Opens 12:30",
    "imageUrl": "https://www.bing.com/th?id=OLC.LnDlaEnzjrdXpA480x360&w=92&h=134&c=8&rs=1&qlt=80&cdv=1&pid=Local"
  },
  {
    "name": "Dr. A S Kakde- General Physician",
    "address": "Nath Hospital, Adarsh Nagar, Near By Shahu Nagar, Beed, Maharashtra 431122",
    "phone": "Dr. A S Kakde- General Physician",
    "hours": "Closed · Opens 11:00",
    "imageUrl": "https://www.bing.com/maps/geoplat/REST/v1/Imagery/Map/RoadVibrant?ms=92,134&key=AnTcaqBi2ypp0xI-OZNi4W_ik2KhjgpqioTAtXLC8GzkMBQRMlyxvxyTnd5b73im&c=en-US&ur=in&da=n&logo=n&fmt=png&od=1&shading=hill&pp=18.993149,75.744965;dfp"
  },
  {
    "name": "Dr. Shankar Khade General Physician (Maharashtra)",
    "address": "Shahunagar Pawar Building, Beed, Maharashtra 431122",
    "phone": "Dr. Shankar Khade General Physician (Maharashtra)",
    "hours": "Closed · Opens 09:00",
    "imageUrl": "https://www.bing.com/maps/geoplat/REST/v1/Imagery/Map/RoadVibrant?ms=92,134&key=AnTcaqBi2ypp0xI-OZNi4W_ik2KhjgpqioTAtXLC8GzkMBQRMlyxvxyTnd5b73im&c=en-US&ur=in&da=n&logo=n&fmt=png&od=1&shading=hill&pp=18.998747,75.751442;dfp"
  },
  {
    "name": "Dr. Manoj Zanwar- General Physician In Beed",
    "address": "Shubham Clinic Beed, To, Jalana Rd, Georai, Maharashtra",
    "phone": "Dr. Manoj Zanwar- General Physician In Beed",
    "hours": null,
    "imageUrl": "https://www.bing.com/maps/geoplat/REST/v1/Imagery/Map/RoadVibrant?ms=92,112&key=AnTcaqBi2ypp0xI-OZNi4W_ik2KhjgpqioTAtXLC8GzkMBQRMlyxvxyTnd5b73im&c=en-US&ur=in&da=n&logo=n&fmt=png&od=1&shading=hill&pp=18.990911,75.753456;dfp"
  },
  {
    "name": "Dr. Vijay Ramchandra Gholve Obstetrician-Gynecologist",
    "address": "Hospital for Women Care, Rajiv Gandhi Road, Near Yashwantrav Chavan Natyagruha, Beside Mahila Colle…",
    "phone": "Dr. Vijay Ramchandra Gholve Obstetrician-Gynecologist",
    "hours": "Closed · Opens 09:00",
    "imageUrl": "https://www.bing.com/maps/geoplat/REST/v1/Imagery/Map/RoadVibrant?ms=92,134&key=AnTcaqBi2ypp0xI-OZNi4W_ik2KhjgpqioTAtXLC8GzkMBQRMlyxvxyTnd5b73im&c=en-US&ur=in&da=n&logo=n&fmt=png&od=1&shading=hill&pp=18.990088,75.753136;dfp"
  },
  {
    "name": "Dr. Shailesh Baheti- General Practitioner",
    "address": "Baheti Clinic, Pangri Road, Adarsh Nagar, Beed, Maharashtra 431122",
    "phone": "Dr. Shailesh Baheti- General Practitioner",
    "hours": "Closed · Opens 10:00",
    "imageUrl": "https://www.bing.com/maps/geoplat/REST/v1/Imagery/Map/RoadVibrant?ms=92,134&key=AnTcaqBi2ypp0xI-OZNi4W_ik2KhjgpqioTAtXLC8GzkMBQRMlyxvxyTnd5b73im&c=en-US&ur=in&da=n&logo=n&fmt=png&od=1&shading=hill&pp=19.00144,75.748055;dfp"
  },
  {
    "name": "Dr. Sudhakar V Reddy- Dermatologist",
    "address": "Navjeevan Clinic, Shikshak Colony, Shahunagar, Mahatma Basveshwar Balakashram, Mukramabad, Be…",
    "phone": "Dr. Sudhakar V Reddy- Dermatologist",
    "hours": "Closed · Opens 14:00",
    "imageUrl": "https://www.bing.com/maps/geoplat/REST/v1/Imagery/Map/RoadVibrant?ms=92,134&key=AnTcaqBi2ypp0xI-OZNi4W_ik2KhjgpqioTAtXLC8GzkMBQRMlyxvxyTnd5b73im&c=en-US&ur=in&da=n&logo=n&fmt=png&od=1&shading=hill&pp=18.993029,75.749947;dfp"
  },
  {
    "name": "Dr. Anand N Kale- General Physician",
    "address": "Anand Clinic, Beed, Maharashtra 431122",
    "phone": "Dr. Anand N Kale- General Physician",
    "hours": "Closed · Opens 14:00",
    "imageUrl": "https://www.bing.com/maps/geoplat/REST/v1/Imagery/Map/RoadVibrant?ms=92,134&key=AnTcaqBi2ypp0xI-OZNi4W_ik2KhjgpqioTAtXLC8GzkMBQRMlyxvxyTnd5b73im&c=en-US&ur=in&da=n&logo=n&fmt=png&od=1&shading=hill&pp=18.987667,75.74205;dfp"
  },
  {
    "name": "Tirupati Hospital",
    "address": "Sukhakarta Clinic, Shop No 5, Aman Plaza, Barshi Road, Beed, Maharashtra 431122",
    "phone": "Tirupati Hospital",
    "hours": "Closed · Opens 09:00",
    "imageUrl": "https://th.bing.com/th?id=OLC.U9K7T%2fCrPE8%2fuA480x360&w=92&h=134&c=8&rs=1&qlt=80&cdv=1&pid=Local"
  },
  {
    "name": "Dr Mohammed Asef",
    "address": "Kausar Nagar, Bir, Beed, Maharashtra",
    "phone": "Dr Mohammed Asef",
    "hours": null,
    "imageUrl": "https://www.bing.com/maps/geoplat/REST/v1/Imagery/Map/RoadVibrant?ms=92,112&key=AnTcaqBi2ypp0xI-OZNi4W_ik2KhjgpqioTAtXLC8GzkMBQRMlyxvxyTnd5b73im&c=en-US&ur=in&da=n&logo=n&fmt=png&od=1&shading=hill&pp=18.979113,75.760803;dfp"
  },
  {
    "name": "Vini Ayurvedic Panchkarma Hospital",
    "address": "Dhanora Rd, Ramnagar, Gadchiroli, Maharashtra",
    "phone": "Vini Ayurvedic Panchkarma Hospital",
    "hours": null,
    "imageUrl": "https://www.bing.com/maps/geoplat/REST/v1/Imagery/Map/RoadVibrant?ms=92,112&key=AnTcaqBi2ypp0xI-OZNi4W_ik2KhjgpqioTAtXLC8GzkMBQRMlyxvxyTnd5b73im&c=en-US&ur=in&da=n&logo=n&fmt=png&od=1&shading=hill&pp=20.1826,80.00618;dfp"
  },
  {
    "name": "Dr.Ashok Gaikwad's Anvesha Homeo clinic",
    "address": "Shop no 9, Lodha Complex, DP Rd, Near Giri Hospital, Adarsh Nagar, Kranti Nagar, Beed, Maharashtra",
    "phone": "Dr.Ashok Gaikwad's Anvesha Homeo clinic",
    "hours": null,
    "imageUrl": "https://th.bing.com/th?id=OLC.C0s%2bDYTUOS4ATQ480x360&w=92&h=112&c=8&rs=1&qlt=80&cdv=1&pid=Local"
  },
  {
    "name": "ANUJA Clinic Dr.Anant Navnathrao Dhole",
    "address": "Barshi Naka, Near Chatrapati Shahu Bank, Beed, Maharashtra",
    "phone": "ANUJA Clinic Dr.Anant Navnathrao Dhole",
    "hours": null,
    "imageUrl": "https://www.bing.com/maps/geoplat/REST/v1/Imagery/Map/RoadVibrant?ms=92,112&key=AnTcaqBi2ypp0xI-OZNi4W_ik2KhjgpqioTAtXLC8GzkMBQRMlyxvxyTnd5b73im&c=en-US&ur=in&da=n&logo=n&fmt=png&od=1&shading=hill&pp=18.982691,75.76413;dfp"
  },
  {
    "name": "Dr. Pradip Shelke- Pediatrician",
    "address": "Shree Narayani Child Care Unit, Adarsh Nagar, Sai Complex, D P Road, Beed, Maharashtra 431122",
    "phone": "Dr. Pradip Shelke- Pediatrician",
    "hours": "Closed · Opens 09:30",
    "imageUrl": "https://www.bing.com/maps/geoplat/REST/v1/Imagery/Map/RoadVibrant?ms=92,134&key=AnTcaqBi2ypp0xI-OZNi4W_ik2KhjgpqioTAtXLC8GzkMBQRMlyxvxyTnd5b73im&c=en-US&ur=in&da=n&logo=n&fmt=png&od=1&shading=hill&pp=18.994097,75.746849;dfp"
  },
  {
    "name": "Vivekanand Multi Specialty Hospital",
    "address": "1, New Bhaji Mandi, Vachanalay Road, Beed, Maharashtra 431122",
    "phone": "Vivekanand Multi Specialty Hospital",
    "hours": null,
    "imageUrl": "https://th.bing.com/th?id=OLC.8V10TtOzFl%2bESA480x360&w=92&h=112&c=8&rs=1&qlt=80&cdv=1&pid=Local"
  },
  {
    "name": "Miasma Homoeo Clinic",
    "address": "Jijamata Road, Bhir, Maharashtra, Maharashtra 431122",
    "phone": "Miasma Homoeo Clinic",
    "hours": "Open 24 hours",
    "imageUrl": "https://th.bing.com/th?id=OLC.4aW0eLOjfsUaIA480x360&w=92&h=134&c=8&rs=1&qlt=80&cdv=1&pid=Local"
  },
  {
    "name": "Dr. Arun Bade | Shivajirao Heart Care | Imaging Center | Best Cardiologist",
    "address": "Santoshimata Complex, Near Main Bus Stand, Shahu Nagar, Pangari Road, Beed, Maharashtra 431122",
    "phone": "Dr. Arun Bade | Shivajirao Heart Care | Imaging Center | Best Cardiologist",
    "hours": "Closed · Opens 11:00",
    "imageUrl": "https://th.bing.com/th?id=OLC.gNc2YJmn5D%2by4g480x360&w=92&h=134&c=8&rs=1&qlt=80&cdv=1&pid=Local"
  },
  {
    "name": "Dr. Ramesh Tandale- General Physician",
    "address": "Dr Ramesh Tandale Village Post Office Rajuri, Beed, Maharashtra 431122",
    "phone": "Dr. Ramesh Tandale- General Physician",
    "hours": "Closed · Opens 10:00",
    "imageUrl": "https://www.bing.com/maps/geoplat/REST/v1/Imagery/Map/RoadVibrant?ms=92,134&key=AnTcaqBi2ypp0xI-OZNi4W_ik2KhjgpqioTAtXLC8GzkMBQRMlyxvxyTnd5b73im&c=en-US&ur=in&da=n&logo=n&fmt=png&od=1&shading=hill&pp=18.977493,75.896278;dfp"
  },
  {
    "name": "Dr. Sachin S. Ware",
    "address": "Umakiran Complex, Pangari Road, Shahunagar Beed, Kranti Nagar, Beed, Maharashtra",
    "phone": "Dr. Sachin S. Ware",
    "hours": "Closed · Opens 12:30",
    "imageUrl": "https://www.bing.com/th?id=OLC.LnDlaEnzjrdXpA480x360&w=92&h=134&c=8&rs=1&qlt=80&cdv=1&pid=Local"
  },
  {
    "name": "Dr. A S Kakde- General Physician",
    "address": "Nath Hospital, Adarsh Nagar, Near By Shahu Nagar, Beed, Maharashtra 431122",
    "phone": "Dr. A S Kakde- General Physician",
    "hours": "Closed · Opens 11:00",
    "imageUrl": "https://www.bing.com/maps/geoplat/REST/v1/Imagery/Map/RoadVibrant?ms=92,134&key=AnTcaqBi2ypp0xI-OZNi4W_ik2KhjgpqioTAtXLC8GzkMBQRMlyxvxyTnd5b73im&c=en-US&ur=in&da=n&logo=n&fmt=png&od=1&shading=hill&pp=18.993149,75.744965;dfp"
  }
]