[
  {
    "name": "Dr. Hari Narayan Prasad Singh- General Physician",
    "address": "Harinarayan Clinic, Near Kali Asthan, Begusarai, Bihar 851101",
    "phone": "Dr. Hari Narayan Prasad Singh- General Physician",
    "hours": "Closed · Opens 11:00",
    "imageUrl": "https://www.bing.com/maps/geoplat/REST/v1/Imagery/Map/RoadVibrant?ms=92,134&key=AnTcaqBi2ypp0xI-OZNi4W_ik2KhjgpqioTAtXLC8GzkMBQRMlyxvxyTnd5b73im&c=en-US&ur=in&da=n&logo=n&fmt=png&od=1&shading=hill&pp=25.417229,86.130226;dfp"
  },
  {
    "name": "Dr Samwartta Kumar",
    "address": "Ashok Nagar Pokharia, NH 31 to S.P Office Road, Begusarai, Bihar",
    "phone": "Dr Samwartta Kumar",
    "hours": null,
    "imageUrl": "https://www.bing.com/th?id=OLC.zfJ3LMidUD0Jpg480x360&w=92&h=112&c=8&rs=1&qlt=80&cdv=1&pid=Local"
  },
  {
    "name": "Dr. Amit kumar",
    "address": "851101, BR, India, Begusarai, Bihar",
    "phone": "Dr. Amit kumar",
    "hours": null,
    "imageUrl": "https://www.bing.com/maps/geoplat/REST/v1/Imagery/Map/RoadVibrant?ms=92,112&key=AnTcaqBi2ypp0xI-OZNi4W_ik2KhjgpqioTAtXLC8GzkMBQRMlyxvxyTnd5b73im&c=en-US&ur=in&da=n&logo=n&fmt=png&od=1&shading=hill&pp=25.427788,86.12838;dfp"
  },
  {
    "name": "Dr Shambhu Kumar Dr Nivedita Kumari and Others",
    "address": "Kumbhi, Cheriya Bariyarpur, Begusarai, Bihar 848202",
    "phone": "Dr Shambhu Kumar Dr Nivedita Kumari and Others",
    "hours": "Open · Closes 15:00",
    "imageUrl": "https://www.bing.com/th?id=OLC.vx98Rvgtk1PKQQ480x360&w=92&h=112&c=8&rs=1&qlt=80&cdv=1&pid=Local"
  },
  {
    "name": "Dr Byas Dev Clinic",
    "address": "Bagha Road, Subhash Nagar, Begusarai, Bihar 851101",
    "phone": "Dr Byas Dev Clinic",
    "hours": null,
    "imageUrl": "https://www.bing.com/maps/geoplat/REST/v1/Imagery/Map/RoadVibrant?ms=92,112&key=AnTcaqBi2ypp0xI-OZNi4W_ik2KhjgpqioTAtXLC8GzkMBQRMlyxvxyTnd5b73im&c=en-US&ur=in&da=n&logo=n&fmt=png&od=1&shading=hill&pp=25.428963,86.12796;dfp"
  },
  {
    "name": "Dr gopal Mishra",
    "address": "Thatherigali, Mungeriganj Rd, Begusarai, Bihar",
    "phone": "Dr gopal Mishra",
    "hours": null,
    "imageUrl": "https://www.bing.com/maps/geoplat/REST/v1/Imagery/Map/RoadVibrant?ms=92,112&key=AnTcaqBi2ypp0xI-OZNi4W_ik2KhjgpqioTAtXLC8GzkMBQRMlyxvxyTnd5b73im&c=en-US&ur=in&da=n&logo=n&fmt=png&od=1&shading=hill&pp=25.41361,86.139557;dfp"
  },
  {
    "name": "Dr R K Prasad Clinic",
    "address": "Nerjame Hotel, Kachahari Road, Tilak Nagar, Begu Sarai, Begusarai, Bihar 851101",
    "phone": "Dr R K Prasad Clinic",
    "hours": null,
    "imageUrl": "https://www.bing.com/maps/geoplat/REST/v1/Imagery/Map/RoadVibrant?ms=92,112&key=AnTcaqBi2ypp0xI-OZNi4W_ik2KhjgpqioTAtXLC8GzkMBQRMlyxvxyTnd5b73im&c=en-US&ur=in&da=n&logo=n&fmt=png&od=1&shading=hill&pp=25.422958,86.136314;dfp"
  },
  {
    "name": "Dr Chandrashekhar Chaudhary Clinic",
    "address": "Petrol Pump, Tilak Nagar, Begu Sarai, Begusarai, Bihar 851101",
    "phone": "Dr Chandrashekhar Chaudhary Clinic",
    "hours": null,
    "imageUrl": "https://www.bing.com/maps/geoplat/REST/v1/Imagery/Map/RoadVibrant?ms=92,112&key=AnTcaqBi2ypp0xI-OZNi4W_ik2KhjgpqioTAtXLC8GzkMBQRMlyxvxyTnd5b73im&c=en-US&ur=in&da=n&logo=n&fmt=png&od=1&shading=hill&pp=25.422117,86.130943;dfp"
  },
  {
    "name": "Dr. Vijay Kumar Singh | Miracare Multispecialty Hospital | Laser, General and Laparoscopic Surgeon | Begusarai…",
    "address": "NH31, Miracare Multispecialty Hospital (Mira Nursing Home), Ashok Nagar, Chitragupta Nagar, Pokharia, Be…",
    "phone": "Dr. Vijay Kumar Singh | Miracare Multispecialty Hospital | Laser, General and Laparoscopic Surgeon | Begusarai…",
    "hours": "Open 24 hours",
    "imageUrl": "https://th.bing.com/th?id=OLC.PtJKPwiSPbQUMw480x360&w=92&h=134&c=8&rs=1&qlt=80&cdv=1&pid=Local"
  },
  {
    "name": "Dr Asha Bhushan",
    "address": "Near Traffic Chowk, Nh 31, Tilak Nagar, Begu Sarai, Begusarai, Bihar 851101",
    "phone": "Dr Asha Bhushan",
    "hours": null,
    "imageUrl": "https://www.bing.com/maps/geoplat/REST/v1/Imagery/Map/RoadVibrant?ms=92,112&key=AnTcaqBi2ypp0xI-OZNi4W_ik2KhjgpqioTAtXLC8GzkMBQRMlyxvxyTnd5b73im&c=en-US&ur=in&da=n&logo=n&fmt=png&od=1&shading=hill&pp=25.422647,86.139603;dfp"
  },
  {
    "name": "Dr Ajeet Kumar Clinic",
    "address": "Station Road, Sarvodaya, Tilak Nagar, Begusarai, Bihar 851101",
    "phone": "Dr Ajeet Kumar Clinic",
    "hours": null,
    "imageUrl": "https://www.bing.com/maps/geoplat/REST/v1/Imagery/Map/RoadVibrant?ms=92,112&key=AnTcaqBi2ypp0xI-OZNi4W_ik2KhjgpqioTAtXLC8GzkMBQRMlyxvxyTnd5b73im&c=en-US&ur=in&da=n&logo=n&fmt=png&od=1&shading=hill&pp=25.422379,86.135223;dfp"
  },
  {
    "name": "Shuddhi Clinic By Acharya Manish - Best Ayurveda Doctor & Ayurvedic Treatment",
    "address": "Ward no. 20, Shree Krishna Mathura Sadan Hemra Chowk, Hemra Road, Begusarai, Bihar 851129",
    "phone": "Shuddhi Clinic By Acharya Manish - Best Ayurveda Doctor & Ayurvedic Treatment",
    "hours": "Closed · Opens 09:00",
    "imageUrl": "https://th.bing.com/th?id=OLC.AMDgGrVHALxnug480x360&w=92&h=134&c=8&rs=1&qlt=80&cdv=1&pid=Local"
  },
  {
    "name": "M S Haque Clinic | Best Sexologist Doctor | Ayurvedic and Unani Clinic |",
    "address": "Station Road, Tilak Nagar, Sarvodaya Nagar, Begusarai, Bihar",
    "phone": "M S Haque Clinic | Best Sexologist Doctor | Ayurvedic and Unani Clinic |",
    "hours": null,
    "imageUrl": "https://www.bing.com/maps/geoplat/REST/v1/Imagery/Map/RoadVibrant?ms=92,112&key=AnTcaqBi2ypp0xI-OZNi4W_ik2KhjgpqioTAtXLC8GzkMBQRMlyxvxyTnd5b73im&c=en-US&ur=in&da=n&logo=n&fmt=png&od=1&shading=hill&pp=25.423668,86.13414;dfp"
  },
  {
    "name": "Shuddhi Clinic Begusarai",
    "address": "Bijuliya Opposite KDS Heart Hospital, Hemra Chowk, New Ratanpur Road, Begusarai, Bihar 851129",
    "phone": "Shuddhi Clinic Begusarai",
    "hours": "Closed · Opens 09:00",
    "imageUrl": "https://th.bing.com/th?id=OLC.yIfkYTKwd2PjSw480x360&w=92&h=134&c=8&rs=1&qlt=80&cdv=1&pid=Local"
  },
  {
    "name": "Dr Yogesh Rai",
    "address": "Shiv Temple, Main Road, Ratanpur, Begu Sarai, Begusarai, Bihar 851101",
    "phone": "Dr Yogesh Rai",
    "hours": null,
    "imageUrl": "https://www.bing.com/maps/geoplat/REST/v1/Imagery/Map/RoadVibrant?ms=92,112&key=AnTcaqBi2ypp0xI-OZNi4W_ik2KhjgpqioTAtXLC8GzkMBQRMlyxvxyTnd5b73im&c=en-US&ur=in&da=n&logo=n&fmt=png&od=1&shading=hill&pp=25.411621,86.137413;dfp"
  },
  {
    "name": "Homoeopathic Clinic, Dr.R.K Prasad",
    "address": "Traffic Chowk, in Front of James Hotel, Begusarai, Bihar",
    "phone": "Homoeopathic Clinic, Dr.R.K Prasad",
    "hours": null,
    "imageUrl": "https://th.bing.com/th?id=OLC.at7Vxh7Ikm3c%2fg480x360&w=92&h=112&c=8&rs=1&qlt=80&cdv=1&pid=Local"
  },
  {
    "name": "WINGS IVF Begusarai- Dr Smriti Sparsh",
    "address": "Wings IVF, Trimurti Enterprises, Subhash Chowk, NH 31, Vasant Vihar, Begusarai, Bihar",
    "phone": "WINGS IVF Begusarai- Dr Smriti Sparsh",
    "hours": null,
    "imageUrl": "https://www.bing.com/maps/geoplat/REST/v1/Imagery/Map/RoadVibrant?ms=92,112&key=AnTcaqBi2ypp0xI-OZNi4W_ik2KhjgpqioTAtXLC8GzkMBQRMlyxvxyTnd5b73im&c=en-US&ur=in&da=n&logo=n&fmt=png&od=1&shading=hill&pp=25.424042,86.134682;dfp"
  },
  {
    "name": "Dr. Sushil Kumar I Dermatologist I Somaya",
    "address": "Somaya Multispeciality Hospital, Station Road, Begusarai 851101",
    "phone": "Dr. Sushil Kumar I Dermatologist I Somaya",
    "hours": "Open 24 hours",
    "imageUrl": "https://th.bing.com/th?id=OLC.zbAfr2zeSczKHA480x360&w=92&h=134&c=8&rs=1&qlt=80&cdv=1&pid=Local"
  },
  {
    "name": "Dr. Hari Narayan Prasad Singh- General Physician",
    "address": "Harinarayan Clinic, Near Kali Asthan, Begusarai, Bihar 851101",
    "phone": "Dr. Hari Narayan Prasad Singh- General Physician",
    "hours": "Closed · Opens 11:00",
    "imageUrl": "https://www.bing.com/maps/geoplat/REST/v1/Imagery/Map/RoadVibrant?ms=92,134&key=AnTcaqBi2ypp0xI-OZNi4W_ik2KhjgpqioTAtXLC8GzkMBQRMlyxvxyTnd5b73im&c=en-US&ur=in&da=n&logo=n&fmt=png&od=1&shading=hill&pp=25.417229,86.130226;dfp"
  },
  {
    "name": "Dr Samwartta Kumar",
    "address": "Ashok Nagar Pokharia, NH 31 to S.P Office Road, Begusarai, Bihar",
    "phone": "Dr Samwartta Kumar",
    "hours": null,
    "imageUrl": "https://www.bing.com/th?id=OLC.zfJ3LMidUD0Jpg480x360&w=92&h=112&c=8&rs=1&qlt=80&cdv=1&pid=Local"
  }
]