[
  {
    "name": "Saroja Speciality Clinic",
    "address": "Kamadhenu Building, Opposite Hotel Rock Garden, Infantry Road, Sanjay Gandhi Nagar, Ballari, Karnatak…",
    "phone": "Saroja Speciality Clinic",
    "hours": "Closed · Opens 10:00",
    "imageUrl": "https://www.bing.com/th?id=OLC.qqTRooDzPAeONQ480x360&w=92&h=134&c=8&rs=1&qlt=80&cdv=1&pid=Local"
  },
  {
    "name": "Arya Medical Centre",
    "address": "TG Sathyanarayana Complex, Ballari, Madhya Pradesh 583101",
    "phone": "Arya Medical Centre",
    "hours": "Closed · Opens 17:00",
    "imageUrl": "https://www.bing.com/th?id=OLC.yz4WgbumDwQ%2fEA480x360&w=92&h=134&c=8&rs=1&qlt=80&cdv=1&pid=Local"
  },
  {
    "name": "Dr. Sathya Narayana D | Cardiologist | Bellary",
    "address": "Bellary Nursing Home, Royal Circle Behind, Natraj Theatre Bellary, Bellary, Karnataka 583101",
    "phone": "Dr. Sathya Narayana D | Cardiologist | Bellary",
    "hours": "Closed · Opens 09:00",
    "imageUrl": "https://www.bing.com/maps/geoplat/REST/v1/Imagery/Map/RoadVibrant?ms=92,134&key=AnTcaqBi2ypp0xI-OZNi4W_ik2KhjgpqioTAtXLC8GzkMBQRMlyxvxyTnd5b73im&c=en-US&ur=in&da=n&logo=n&fmt=png&od=1&shading=hill&pp=15.143979,76.926682;dfp"
  },
  {
    "name": "Dr. C P Ravi Kumar",
    "address": "3rd Cross, Bellary, Karnataka",
    "phone": "Dr. C P Ravi Kumar",
    "hours": null,
    "imageUrl": "https://www.bing.com/th?id=OLC.e6UI9O8n6W5gOw480x360&w=92&h=112&c=8&rs=1&qlt=80&cdv=1&pid=Local"
  },
  {
    "name": "Sushanth Clinic",
    "address": "Ganesh Temple St, Cowl Bazaar, Ballari, Karnataka",
    "phone": "Sushanth Clinic",
    "hours": null,
    "imageUrl": "https://www.bing.com/maps/geoplat/REST/v1/Imagery/Map/RoadVibrant?ms=92,112&key=AnTcaqBi2ypp0xI-OZNi4W_ik2KhjgpqioTAtXLC8GzkMBQRMlyxvxyTnd5b73im&c=en-US&ur=in&da=n&logo=n&fmt=png&od=1&shading=hill&pp=15.138834,76.923065;dfp"
  },
  {
    "name": "Dr Mithun ENT Doctor Abhi Health Care",
    "address": "O…, Kolachalam Compound Old Bus Stand Royal Circle",
    "phone": "Dr Mithun ENT Doctor Abhi Health Care",
    "hours": null,
    "imageUrl": "https://www.bing.com/maps/geoplat/REST/v1/Imagery/Map/RoadVibrant?ms=92,112&key=AnTcaqBi2ypp0xI-OZNi4W_ik2KhjgpqioTAtXLC8GzkMBQRMlyxvxyTnd5b73im&c=en-US&ur=in&da=n&logo=n&fmt=png&od=1&shading=hill&pp=15.145914,76.928291;dfp"
  },
  {
    "name": "Kathariya's Multi-Speciality Clinic",
    "address": "Talur Road, Parvati Nagar, Bellari, Karnataka, Karnataka 583103",
    "phone": "Kathariya's Multi-Speciality Clinic",
    "hours": "Closed · Opens 10:00",
    "imageUrl": "https://th.bing.com/th?id=OLC.V88RH8pO9fqCPw480x360&w=92&h=134&c=8&rs=1&qlt=80&cdv=1&pid=Local"
  },
  {
    "name": "DR NEHA BHANDARI Best paediatric Nephrologist, Bacchon ke kidney specialist",
    "address": "Kompal Child and Kidney Clinic. B-15/11, Double Storey, opp. Metro Pillar Number 378, Ramesh Nagar, Delhi",
    "phone": "DR NEHA BHANDARI Best paediatric Nephrologist, Bacchon ke kidney specialist",
    "hours": "Closed · Opens 13:00",
    "imageUrl": "https://www.bing.com/maps/geoplat/REST/v1/Imagery/Map/RoadVibrant?ms=92,112&key=AnTcaqBi2ypp0xI-OZNi4W_ik2KhjgpqioTAtXLC8GzkMBQRMlyxvxyTnd5b73im&c=en-US&ur=in&da=n&logo=n&fmt=png&od=1&shading=hill&pp=15.147738,76.92868;dfp"
  },
  {
    "name": "SK Panduranga Rao Hospital",
    "address": "Skph Hospital, Dr.S.K Panduranga Rao Hospital, Sathyanarayanapet, 3Rd Cross Road, Ballari, Karnatak…",
    "phone": "SK Panduranga Rao Hospital",
    "hours": null,
    "imageUrl": "https://th.bing.com/th?id=OLC.06KTwyiXH3%2bnnQ480x360&w=92&h=112&c=8&rs=1&qlt=80&cdv=1&pid=Local"
  },
  {
    "name": "Dr Chowdary's Homoeopathy",
    "address": "Parvathinagar Near Durgamma Temple, Bellari, Karnataka, Karnataka 583101",
    "phone": "Dr Chowdary's Homoeopathy",
    "hours": null,
    "imageUrl": "https://th.bing.com/th?id=OLC.wJw89RtZgi%2bgRQ480x360&w=92&h=112&c=8&rs=1&qlt=80&cdv=1&pid=Local"
  },
  {
    "name": "Dr Batra's Homeopathy",
    "address": "Main Road, Parvathi Nagar, Bellary, Karnataka 583103",
    "phone": "Dr Batra's Homeopathy",
    "hours": "Closed · Opens 11:00",
    "imageUrl": "https://th.bing.com/th?id=OLC.NBMK0PaLlxT5vg480x360&w=92&h=134&c=8&rs=1&qlt=80&cdv=1&pid=Local"
  },
  {
    "name": "Homeocare International Bellary | Homeopathic Clinic - Bellary",
    "address": "Door. No. 3, Ward No.1 Parvathi Nagar, Main Road, Near, BJP Office, SP Circle, Ballari, Karnataka",
    "phone": "Homeocare International Bellary | Homeopathic Clinic - Bellary",
    "hours": null,
    "imageUrl": "https://th.bing.com/th?id=OLC.4JTBbxN6FJysJg480x360&w=92&h=112&c=8&rs=1&qlt=80&cdv=1&pid=Local"
  },
  {
    "name": "Child Heart Clinic in Bellary |Best Clinic for kids Heart problems | Best Heart Doctor | Narayana Health",
    "address": "3rd Cross Rd, Satya Narayana Pet, Ballari, Karnataka",
    "phone": "Child Heart Clinic in Bellary |Best Clinic for kids Heart problems | Best Heart Doctor | Narayana Health",
    "hours": null,
    "imageUrl": "https://www.bing.com/maps/geoplat/REST/v1/Imagery/Map/RoadVibrant?ms=92,112&key=AnTcaqBi2ypp0xI-OZNi4W_ik2KhjgpqioTAtXLC8GzkMBQRMlyxvxyTnd5b73im&c=en-US&ur=in&da=n&logo=n&fmt=png&od=1&shading=hill&pp=15.148437,76.938614;dfp"
  },
  {
    "name": "Sri Someshwara ENT Clinic",
    "address": "Shop No. 3, Narlax Complex, Beside BJP Office, opp. SP Bunglow, Parvathi Nagar, Ballari, Karnataka",
    "phone": "Sri Someshwara ENT Clinic",
    "hours": null,
    "imageUrl": "https://www.bing.com/maps/geoplat/REST/v1/Imagery/Map/RoadVibrant?ms=92,112&key=AnTcaqBi2ypp0xI-OZNi4W_ik2KhjgpqioTAtXLC8GzkMBQRMlyxvxyTnd5b73im&c=en-US&ur=in&da=n&logo=n&fmt=png&od=1&shading=hill&pp=15.151352,76.918358;dfp"
  },
  {
    "name": "Dr. Kalyan Kumar Alladi",
    "address": "Opp. Adarsh Heart Care, Kolachalam Compound, Near old Ksrtc bus Stand, Royal Circle, Ballari, 583101, Bella…",
    "phone": "Dr. Kalyan Kumar Alladi",
    "hours": "Closed · Opens 09:00",
    "imageUrl": "https://www.bing.com/maps/geoplat/REST/v1/Imagery/Map/RoadVibrant?ms=92,112&key=AnTcaqBi2ypp0xI-OZNi4W_ik2KhjgpqioTAtXLC8GzkMBQRMlyxvxyTnd5b73im&c=en-US&ur=in&da=n&logo=n&fmt=png&od=1&shading=hill&pp=15.14512,76.928177;dfp"
  },
  {
    "name": "Dr. Mahantesh S Patil",
    "address": "13, 14, 15, 1st Floor, Tirumala Trade Centre, Neeligin Road, KHB Colony, Hubbali, Karnataka",
    "phone": "Dr. Mahantesh S Patil",
    "hours": "Closed · Opens 10:30",
    "imageUrl": "https://www.bing.com/maps/geoplat/REST/v1/Imagery/Map/RoadVibrant?ms=92,112&key=AnTcaqBi2ypp0xI-OZNi4W_ik2KhjgpqioTAtXLC8GzkMBQRMlyxvxyTnd5b73im&c=en-US&ur=in&da=n&logo=n&fmt=png&od=1&shading=hill&pp=15.143672,76.928093;dfp"
  },
  {
    "name": "Homeocare International | Homeopathic Clinic - Bellary",
    "address": "Door. No:3, Ward No.1, Parvathi Nagar, Main Road, Near BJP Office, Beside Tanmaya Super Market, SP Circle, …",
    "phone": "Homeocare International | Homeopathic Clinic - Bellary",
    "hours": null,
    "imageUrl": "https://www.bing.com/maps/geoplat/REST/v1/Imagery/Map/RoadVibrant?ms=92,112&key=AnTcaqBi2ypp0xI-OZNi4W_ik2KhjgpqioTAtXLC8GzkMBQRMlyxvxyTnd5b73im&c=en-US&ur=in&da=n&logo=n&fmt=png&od=1&shading=hill&pp=15.151733,76.922188;dfp"
  },
  {
    "name": "B Vanna Reddy",
    "address": "House No 713, Polaramma Temple Street, Andralu, Ballari, Karnataka 583101",
    "phone": "B Vanna Reddy",
    "hours": null,
    "imageUrl": "https://www.bing.com/maps/geoplat/REST/v1/Imagery/Map/RoadVibrant?ms=92,112&key=AnTcaqBi2ypp0xI-OZNi4W_ik2KhjgpqioTAtXLC8GzkMBQRMlyxvxyTnd5b73im&c=en-US&ur=in&da=n&logo=n&fmt=png&od=1&shading=hill&pp=15.137934,76.923798;dfp"
  },
  {
    "name": "Saroja Speciality Clinic",
    "address": "Kamadhenu Building, Opposite Hotel Rock Garden, Infantry Road, Sanjay Gandhi Nagar, Ballari, Karnatak…",
    "phone": "Saroja Speciality Clinic",
    "hours": "Closed · Opens 10:00",
    "imageUrl": "https://www.bing.com/th?id=OLC.qqTRooDzPAeONQ480x360&w=92&h=134&c=8&rs=1&qlt=80&cdv=1&pid=Local"
  },
  {
    "name": "Arya Medical Centre",
    "address": "TG Sathyanarayana Complex, Ballari, Madhya Pradesh 583101",
    "phone": "Arya Medical Centre",
    "hours": "Closed · Opens 17:00",
    "imageUrl": "https://www.bing.com/th?id=OLC.yz4WgbumDwQ%2fEA480x360&w=92&h=134&c=8&rs=1&qlt=80&cdv=1&pid=Local"
  }
]