[
  {
    "name": "Dr. Manish Lashkare General Physician",
    "address": "Lashkare Hospital Civil Lines, Betul, Madhya Pradesh 460001",
    "phone": "Dr. Manish Lashkare General Physician",
    "hours": "Closed · Opens 09:00",
    "imageUrl": "https://www.bing.com/maps/geoplat/REST/v1/Imagery/Map/RoadVibrant?ms=92,134&key=AnTcaqBi2ypp0xI-OZNi4W_ik2KhjgpqioTAtXLC8GzkMBQRMlyxvxyTnd5b73im&c=en-US&ur=in&da=n&logo=n&fmt=png&od=1&shading=hill&pp=21.901159,77.896019;dfp"
  },
  {
    "name": "Dr. Ashish Assudani",
    "address": "Betul Eklaira Road, Betul, Madhya Pradesh 460001",
    "phone": "Dr. Ashish Assudani",
    "hours": null,
    "imageUrl": "https://www.bing.com/maps/geoplat/REST/v1/Imagery/Map/RoadVibrant?ms=92,112&key=AnTcaqBi2ypp0xI-OZNi4W_ik2KhjgpqioTAtXLC8GzkMBQRMlyxvxyTnd5b73im&c=en-US&ur=in&da=n&logo=n&fmt=png&od=1&shading=hill&pp=21.898447,77.893867;dfp"
  },
  {
    "name": "Dr. Rathi Hospital",
    "address": "Betul Eklaira Road, Kashi Talab, Betul, Madhya Pradesh 460001",
    "phone": "Dr. Rathi Hospital",
    "hours": null,
    "imageUrl": "https://www.bing.com/maps/geoplat/REST/v1/Imagery/Map/RoadVibrant?ms=92,112&key=AnTcaqBi2ypp0xI-OZNi4W_ik2KhjgpqioTAtXLC8GzkMBQRMlyxvxyTnd5b73im&c=en-US&ur=in&da=n&logo=n&fmt=png&od=1&shading=hill&pp=21.904345,77.894722;dfp"
  },
  {
    "name": "Dr Agrawal Surgicare Clinic",
    "address": "Near Chirayu Hospital Link Road, Betul, Madhya Pradesh, Madhya Pradesh 460001",
    "phone": "Dr Agrawal Surgicare Clinic",
    "hours": null,
    "imageUrl": "https://www.bing.com/maps/geoplat/REST/v1/Imagery/Map/RoadVibrant?ms=92,112&key=AnTcaqBi2ypp0xI-OZNi4W_ik2KhjgpqioTAtXLC8GzkMBQRMlyxvxyTnd5b73im&c=en-US&ur=in&da=n&logo=n&fmt=png&od=1&shading=hill&pp=21.902046,77.897331;dfp"
  },
  {
    "name": "Dr Shradhha Dhote - Ayurvedic Doctor Betul | Ayurvedic Clinic | Skin Specialist Betul | Gynaecologist |",
    "address": "Nagpur Road, Near Reliance Petrol Pump, Betul, Madhya Pradesh 460001",
    "phone": "Dr Shradhha Dhote - Ayurvedic Doctor Betul | Ayurvedic Clinic | Skin Specialist Betul | Gynaecologist |",
    "hours": "Open 24 hours",
    "imageUrl": "https://www.bing.com/maps/geoplat/REST/v1/Imagery/Map/RoadVibrant?ms=92,134&key=AnTcaqBi2ypp0xI-OZNi4W_ik2KhjgpqioTAtXLC8GzkMBQRMlyxvxyTnd5b73im&c=en-US&ur=in&da=n&logo=n&fmt=png&od=1&shading=hill&pp=21.885178,77.905174;dfp"
  },
  {
    "name": "Dr Amol Bhansali Clinic",
    "address": "Betul Eklaira Road, Kashi Talab, Betul, Madhya Pradesh 460001",
    "phone": "Dr Amol Bhansali Clinic",
    "hours": null,
    "imageUrl": "https://www.bing.com/maps/geoplat/REST/v1/Imagery/Map/RoadVibrant?ms=92,112&key=AnTcaqBi2ypp0xI-OZNi4W_ik2KhjgpqioTAtXLC8GzkMBQRMlyxvxyTnd5b73im&c=en-US&ur=in&da=n&logo=n&fmt=png&od=1&shading=hill&pp=21.913397,77.901306;dfp"
  },
  {
    "name": "Dr. Iqbal Jafar Krustani",
    "address": "Ganesh Chowk, Betul, Madhya Pradesh",
    "phone": "Dr. Iqbal Jafar Krustani",
    "hours": "Closed · Opens 11:00",
    "imageUrl": "https://www.bing.com/maps/geoplat/REST/v1/Imagery/Map/RoadVibrant?ms=92,112&key=AnTcaqBi2ypp0xI-OZNi4W_ik2KhjgpqioTAtXLC8GzkMBQRMlyxvxyTnd5b73im&c=en-US&ur=in&da=n&logo=n&fmt=png&od=1&shading=hill&pp=21.913326,77.904007;dfp"
  },
  {
    "name": "Om Ayurvedic Medical College and Hospital",
    "address": "Bharat Bharti, Jamthi, NH69, Bhopal Road, , Betul, Madhya Pradesh",
    "phone": "Om Ayurvedic Medical College and Hospital",
    "hours": null,
    "imageUrl": "https://th.bing.com/th?id=OLC.URGGd9TJl8FRNg480x360&w=92&h=112&c=8&rs=1&qlt=80&cdv=1&pid=Local"
  },
  {
    "name": "Gayatri Clinic",
    "address": "Near Post Office, Shop NO.6 Gayatri Clinic, Shahpur, NH74, Betul, Madhya Pradesh 460440",
    "phone": "Gayatri Clinic",
    "hours": null,
    "imageUrl": "https://www.bing.com/maps/geoplat/REST/v1/Imagery/Map/RoadVibrant?ms=92,112&key=AnTcaqBi2ypp0xI-OZNi4W_ik2KhjgpqioTAtXLC8GzkMBQRMlyxvxyTnd5b73im&c=en-US&ur=in&da=n&logo=n&fmt=png&od=1&shading=hill&pp=21.890818,77.899734;dfp"
  },
  {
    "name": "Anil Clinic",
    "address": "Betul Road, Betul, Madhya Pradesh 460001",
    "phone": "Anil Clinic",
    "hours": null,
    "imageUrl": "https://www.bing.com/maps/geoplat/REST/v1/Imagery/Map/RoadVibrant?ms=92,112&key=AnTcaqBi2ypp0xI-OZNi4W_ik2KhjgpqioTAtXLC8GzkMBQRMlyxvxyTnd5b73im&c=en-US&ur=in&da=n&logo=n&fmt=png&od=1&shading=hill&pp=21.900213,77.909782;dfp"
  },
  {
    "name": "Ayurvedic Neurotherapy Center Betul",
    "address": "Near Gadekar Hospital, Itarsi Road Sadar Betul, Betul, Madhya Pradesh, Madhya Pradesh 460001",
    "phone": "Ayurvedic Neurotherapy Center Betul",
    "hours": "Closed · Opens 09:00",
    "imageUrl": "https://th.bing.com/th?id=OLC.5NrsDqaPnwezhQ480x360&w=92&h=134&c=8&rs=1&qlt=80&cdv=1&pid=Local"
  },
  {
    "name": "Sanjeevni Homeopathic Clinic",
    "address": "Betul Ganj, Betul, Madhya Pradesh 460001",
    "phone": "Sanjeevni Homeopathic Clinic",
    "hours": null,
    "imageUrl": "https://www.bing.com/maps/geoplat/REST/v1/Imagery/Map/RoadVibrant?ms=92,112&key=AnTcaqBi2ypp0xI-OZNi4W_ik2KhjgpqioTAtXLC8GzkMBQRMlyxvxyTnd5b73im&c=en-US&ur=in&da=n&logo=n&fmt=png&od=1&shading=hill&pp=21.909836,77.908676;dfp"
  },
  {
    "name": "Dr Lal PathLabs – Patient Service Centre",
    "address": "Radha Shree Jewelers, Link Rd, Agnihotri Colony, Betul, Madhya Pradesh",
    "phone": "Dr Lal PathLabs – Patient Service Centre",
    "hours": null,
    "imageUrl": "https://www.bing.com/maps/geoplat/REST/v1/Imagery/Map/RoadVibrant?ms=92,112&key=AnTcaqBi2ypp0xI-OZNi4W_ik2KhjgpqioTAtXLC8GzkMBQRMlyxvxyTnd5b73im&c=en-US&ur=in&da=n&logo=n&fmt=png&od=1&shading=hill&pp=21.908106,77.888077;dfp"
  },
  {
    "name": "Thyrocare Pathology Collection Center",
    "address": "WV3W+V77, Betul, Madhya Pradesh",
    "phone": "Thyrocare Pathology Collection Center",
    "hours": null,
    "imageUrl": "https://www.bing.com/maps/geoplat/REST/v1/Imagery/Map/RoadVibrant?ms=92,112&key=AnTcaqBi2ypp0xI-OZNi4W_ik2KhjgpqioTAtXLC8GzkMBQRMlyxvxyTnd5b73im&c=en-US&ur=in&da=n&logo=n&fmt=png&od=1&shading=hill&pp=21.908106,77.888077;dfp"
  },
  {
    "name": "Dr Ashish Mankar Jaya Dental Clinic",
    "address": "Awasthi Complex, Civil Line, Ganj Betul, Betul, Madhya Pradesh 460001",
    "phone": "Dr Ashish Mankar Jaya Dental Clinic",
    "hours": "Closed · Opens 10:00",
    "imageUrl": "https://th.bing.com/th?id=OLC.VMWz47Fk%2bsV12w480x360&w=92&h=134&c=8&rs=1&qlt=80&cdv=1&pid=Local"
  },
  {
    "name": "Dr. Manish Lashkare General Physician",
    "address": "Lashkare Hospital Civil Lines, Betul, Madhya Pradesh 460001",
    "phone": "Dr. Manish Lashkare General Physician",
    "hours": "Closed · Opens 09:00",
    "imageUrl": "https://www.bing.com/maps/geoplat/REST/v1/Imagery/Map/RoadVibrant?ms=92,134&key=AnTcaqBi2ypp0xI-OZNi4W_ik2KhjgpqioTAtXLC8GzkMBQRMlyxvxyTnd5b73im&c=en-US&ur=in&da=n&logo=n&fmt=png&od=1&shading=hill&pp=21.901159,77.896019;dfp"
  },
  {
    "name": "Dr. Ashish Assudani",
    "address": "Betul Eklaira Road, Betul, Madhya Pradesh 460001",
    "phone": "Dr. Ashish Assudani",
    "hours": null,
    "imageUrl": "https://www.bing.com/maps/geoplat/REST/v1/Imagery/Map/RoadVibrant?ms=92,112&key=AnTcaqBi2ypp0xI-OZNi4W_ik2KhjgpqioTAtXLC8GzkMBQRMlyxvxyTnd5b73im&c=en-US&ur=in&da=n&logo=n&fmt=png&od=1&shading=hill&pp=21.898447,77.893867;dfp"
  },
  {
    "name": "Dr. Rathi Hospital",
    "address": "Betul Eklaira Road, Kashi Talab, Betul, Madhya Pradesh 460001",
    "phone": "Dr. Rathi Hospital",
    "hours": null,
    "imageUrl": "https://www.bing.com/maps/geoplat/REST/v1/Imagery/Map/RoadVibrant?ms=92,112&key=AnTcaqBi2ypp0xI-OZNi4W_ik2KhjgpqioTAtXLC8GzkMBQRMlyxvxyTnd5b73im&c=en-US&ur=in&da=n&logo=n&fmt=png&od=1&shading=hill&pp=21.904345,77.894722;dfp"
  },
  {
    "name": "Dr Agrawal Surgicare Clinic",
    "address": "Near Chirayu Hospital Link Road, Betul, Madhya Pradesh, Madhya Pradesh 460001",
    "phone": "Dr Agrawal Surgicare Clinic",
    "hours": null,
    "imageUrl": "https://www.bing.com/maps/geoplat/REST/v1/Imagery/Map/RoadVibrant?ms=92,112&key=AnTcaqBi2ypp0xI-OZNi4W_ik2KhjgpqioTAtXLC8GzkMBQRMlyxvxyTnd5b73im&c=en-US&ur=in&da=n&logo=n&fmt=png&od=1&shading=hill&pp=21.902046,77.897331;dfp"
  },
  {
    "name": "Dr Shradhha Dhote - Ayurvedic Doctor Betul | Ayurvedic Clinic | Skin Specialist Betul | Gynaecologist |",
    "address": "Nagpur Road, Near Reliance Petrol Pump, Betul, Madhya Pradesh 460001",
    "phone": "Dr Shradhha Dhote - Ayurvedic Doctor Betul | Ayurvedic Clinic | Skin Specialist Betul | Gynaecologist |",
    "hours": "Open 24 hours",
    "imageUrl": "https://www.bing.com/maps/geoplat/REST/v1/Imagery/Map/RoadVibrant?ms=92,134&key=AnTcaqBi2ypp0xI-OZNi4W_ik2KhjgpqioTAtXLC8GzkMBQRMlyxvxyTnd5b73im&c=en-US&ur=in&da=n&logo=n&fmt=png&od=1&shading=hill&pp=21.885178,77.905174;dfp"
  }
]