[
  {
    "name": "Dr Malay Pradhans Clinic",
    "address": "Netaji Nagar Colony, Nh5, Bhadrak, Odisha 756181",
    "phone": "Dr Malay Pradhans Clinic",
    "hours": null,
    "imageUrl": "https://www.bing.com/maps/geoplat/REST/v1/Imagery/Map/RoadVibrant?ms=92,112&key=AnTcaqBi2ypp0xI-OZNi4W_ik2KhjgpqioTAtXLC8GzkMBQRMlyxvxyTnd5b73im&c=en-US&ur=in&da=n&logo=n&fmt=png&od=1&shading=hill&pp=21.061083,86.492851;dfp"
  },
  {
    "name": "Dr Behera Clinic",
    "address": "Street No 5, Jagannath Temple, Kuansha Square, Bhadra, Bhadrak, Odisha 756100",
    "phone": "Dr Behera Clinic",
    "hours": null,
    "imageUrl": "https://www.bing.com/th?id=OLC.1sWdYg1vlxLHdw480x360&w=92&h=112&c=8&rs=1&qlt=80&cdv=1&pid=Local"
  },
  {
    "name": "Masterdoctor Clinic - Bhadrak - Best Diabetes Clinic l Best Diabetes Doctor Dr B JAGADISH",
    "address": "Care Diagnostic Center, Nuabazar, Near Subham Hospital, Bhadrak 756100",
    "phone": "Masterdoctor Clinic - Bhadrak - Best Diabetes Clinic l Best Diabetes Doctor Dr B JAGADISH",
    "hours": "Open · Closes 20:00",
    "imageUrl": "https://www.bing.com/th?id=OLC.2fhImiG%2farh1sg480x360&w=92&h=134&c=8&rs=1&qlt=80&cdv=1&pid=Local"
  },
  {
    "name": "Dr Sheshadev Senapati (Residence)",
    "address": "State Highway 53, Samaraipur, Bhadrak, Odisha 756100",
    "phone": "Dr Sheshadev Senapati (Residence)",
    "hours": "Closed · Opens 10:00",
    "imageUrl": "https://www.bing.com/th?id=OLC.yNoxRCjRBON6jA480x360&w=92&h=134&c=8&rs=1&qlt=80&cdv=1&pid=Local"
  },
  {
    "name": "Dr B K Sahu Clinic",
    "address": "Sh9, Durga Jeweller, Dahani Gadia, Bhadra, Bhadrak, Odisha 756100",
    "phone": "Dr B K Sahu Clinic",
    "hours": null,
    "imageUrl": "https://www.bing.com/th?id=OLC.1ObVO0%2fksA2K5Q480x360&w=92&h=112&c=8&rs=1&qlt=80&cdv=1&pid=Local"
  },
  {
    "name": "Dr Jk Mohanty Clinic",
    "address": "Street No 5, Shani Poly Clinic, Kuansha Square, Bhadra, Bhadrak, Odisha 756100",
    "phone": "Dr Jk Mohanty Clinic",
    "hours": null,
    "imageUrl": "https://www.bing.com/maps/geoplat/REST/v1/Imagery/Map/RoadVibrant?ms=92,112&key=AnTcaqBi2ypp0xI-OZNi4W_ik2KhjgpqioTAtXLC8GzkMBQRMlyxvxyTnd5b73im&c=en-US&ur=in&da=n&logo=n&fmt=png&od=1&shading=hill&pp=21.065166,86.505943;dfp"
  },
  {
    "name": "Dr.ranjit Kumar Khatua",
    "address": "Aradi Road, Tarini Temple, Aradi, Bhadrak, Odisha 756100",
    "phone": "Dr.ranjit Kumar Khatua",
    "hours": null,
    "imageUrl": "https://www.bing.com/maps/geoplat/REST/v1/Imagery/Map/RoadVibrant?ms=92,112&key=AnTcaqBi2ypp0xI-OZNi4W_ik2KhjgpqioTAtXLC8GzkMBQRMlyxvxyTnd5b73im&c=en-US&ur=in&da=n&logo=n&fmt=png&od=1&shading=hill&pp=21.046909,86.488594;clcp"
  },
  {
    "name": "Dr Bhagban Dixit Clinic",
    "address": "Hotel Ganesh, Dahani Gadia, Bhadra, Bhadrak, Odisha 756100",
    "phone": "Dr Bhagban Dixit Clinic",
    "hours": null,
    "imageUrl": "https://www.bing.com/maps/geoplat/REST/v1/Imagery/Map/RoadVibrant?ms=92,112&key=AnTcaqBi2ypp0xI-OZNi4W_ik2KhjgpqioTAtXLC8GzkMBQRMlyxvxyTnd5b73im&c=en-US&ur=in&da=n&logo=n&fmt=png&od=1&shading=hill&pp=21.071507,86.507889;dfp"
  },
  {
    "name": "Adyashakti Clinic",
    "address": "Nh16, Neheru Stadium, Samaraipur, Bhadrak, Odisha 756100",
    "phone": "Adyashakti Clinic",
    "hours": null,
    "imageUrl": "https://www.bing.com/maps/geoplat/REST/v1/Imagery/Map/RoadVibrant?ms=92,112&key=AnTcaqBi2ypp0xI-OZNi4W_ik2KhjgpqioTAtXLC8GzkMBQRMlyxvxyTnd5b73im&c=en-US&ur=in&da=n&logo=n&fmt=png&od=1&shading=hill&pp=21.059147,86.493408;dfp"
  },
  {
    "name": "Dr. Uk. Jena",
    "address": "Sh9, Bateswar Temple, Kuansha Square, Bhadra, Bhadrak, Odisha 756100",
    "phone": "Dr. Uk. Jena",
    "hours": null,
    "imageUrl": "https://www.bing.com/maps/geoplat/REST/v1/Imagery/Map/RoadVibrant?ms=92,112&key=AnTcaqBi2ypp0xI-OZNi4W_ik2KhjgpqioTAtXLC8GzkMBQRMlyxvxyTnd5b73im&c=en-US&ur=in&da=n&logo=n&fmt=png&od=1&shading=hill&pp=21.070951,86.504959;dfp"
  },
  {
    "name": "Swastik Clinic",
    "address": "Chandan Bazar Road, Laxmi Narayan Temple, Chandan Bazar, Bhadrak, Odisha 756100",
    "phone": "Swastik Clinic",
    "hours": null,
    "imageUrl": "https://www.bing.com/maps/geoplat/REST/v1/Imagery/Map/RoadVibrant?ms=92,112&key=AnTcaqBi2ypp0xI-OZNi4W_ik2KhjgpqioTAtXLC8GzkMBQRMlyxvxyTnd5b73im&c=en-US&ur=in&da=n&logo=n&fmt=png&od=1&shading=hill&pp=21.061941,86.507896;dfp"
  },
  {
    "name": "Dixit Clinic",
    "address": "Chandbali Bypass Road, Quddsi Dargha Masjid, Bankashi, Bhadrak, Odisha 756100",
    "phone": "Dixit Clinic",
    "hours": null,
    "imageUrl": "https://www.bing.com/maps/geoplat/REST/v1/Imagery/Map/RoadVibrant?ms=92,112&key=AnTcaqBi2ypp0xI-OZNi4W_ik2KhjgpqioTAtXLC8GzkMBQRMlyxvxyTnd5b73im&c=en-US&ur=in&da=n&logo=n&fmt=png&od=1&shading=hill&pp=21.071678,86.508003;dfp"
  },
  {
    "name": "Sai Bharadwaj Hospital",
    "address": "Service Road, New Dcb Bank, Biju Pattanaik Nagar, Bhadrak, Odisha 756100",
    "phone": "Sai Bharadwaj Hospital",
    "hours": null,
    "imageUrl": "https://www.bing.com/maps/geoplat/REST/v1/Imagery/Map/RoadVibrant?ms=92,112&key=AnTcaqBi2ypp0xI-OZNi4W_ik2KhjgpqioTAtXLC8GzkMBQRMlyxvxyTnd5b73im&c=en-US&ur=in&da=n&logo=n&fmt=png&od=1&shading=hill&pp=21.067902,86.497444;dfp"
  },
  {
    "name": "Swastim Homoeo Clinic",
    "address": "Bonth Road, State Bank Of India, Samaraipur, Bhadrak, Odisha 756100",
    "phone": "Swastim Homoeo Clinic",
    "hours": null,
    "imageUrl": "https://www.bing.com/maps/geoplat/REST/v1/Imagery/Map/RoadVibrant?ms=92,112&key=AnTcaqBi2ypp0xI-OZNi4W_ik2KhjgpqioTAtXLC8GzkMBQRMlyxvxyTnd5b73im&c=en-US&ur=in&da=n&logo=n&fmt=png&od=1&shading=hill&pp=21.059776,86.491364;dfp"
  },
  {
    "name": "Homoeopathic Clinic",
    "address": "Bhadrak College Road, Bhadrak College, Jagannathpur, Bhadrak, Odisha 756100",
    "phone": "Homoeopathic Clinic",
    "hours": null,
    "imageUrl": "https://th.bing.com/th?id=OLC.O32JK5cEd%2b0x0Q480x360&w=92&h=112&c=8&rs=1&qlt=80&cdv=1&pid=Local"
  },
  {
    "name": "Homoeopathic Clinic",
    "address": "Barma By Pass, Police Station, Bankashi, Bhadrak, Odisha 756100",
    "phone": "Homoeopathic Clinic",
    "hours": null,
    "imageUrl": "https://www.bing.com/maps/geoplat/REST/v1/Imagery/Map/RoadVibrant?ms=92,112&key=AnTcaqBi2ypp0xI-OZNi4W_ik2KhjgpqioTAtXLC8GzkMBQRMlyxvxyTnd5b73im&c=en-US&ur=in&da=n&logo=n&fmt=png&od=1&shading=hill&pp=21.074266,86.508957;dfp"
  },
  {
    "name": "Homeopathic Health Clinic",
    "address": "Lahapati Road, Radha Brundavan Chandra Temple, Elakha, Bhadrak, Odisha 756100",
    "phone": "Homeopathic Health Clinic",
    "hours": null,
    "imageUrl": "https://www.bing.com/maps/geoplat/REST/v1/Imagery/Map/RoadVibrant?ms=92,112&key=AnTcaqBi2ypp0xI-OZNi4W_ik2KhjgpqioTAtXLC8GzkMBQRMlyxvxyTnd5b73im&c=en-US&ur=in&da=n&logo=n&fmt=png&od=1&shading=hill&pp=21.053659,86.511459;dfp"
  },
  {
    "name": "Sree maa X-ray Clinic",
    "address": "Naya Baazar, Bhadrak, Odisha 756100",
    "phone": "Sree maa X-ray Clinic",
    "hours": null,
    "imageUrl": "https://www.bing.com/maps/geoplat/REST/v1/Imagery/Map/RoadVibrant?ms=92,112&key=AnTcaqBi2ypp0xI-OZNi4W_ik2KhjgpqioTAtXLC8GzkMBQRMlyxvxyTnd5b73im&c=en-US&ur=in&da=n&logo=n&fmt=png&od=1&shading=hill&pp=21.066027,86.502075;dfp"
  },
  {
    "name": "Dr Malay Pradhans Clinic",
    "address": "Netaji Nagar Colony, Nh5, Bhadrak, Odisha 756181",
    "phone": "Dr Malay Pradhans Clinic",
    "hours": null,
    "imageUrl": "https://www.bing.com/maps/geoplat/REST/v1/Imagery/Map/RoadVibrant?ms=92,112&key=AnTcaqBi2ypp0xI-OZNi4W_ik2KhjgpqioTAtXLC8GzkMBQRMlyxvxyTnd5b73im&c=en-US&ur=in&da=n&logo=n&fmt=png&od=1&shading=hill&pp=21.061083,86.492851;dfp"
  },
  {
    "name": "Dr Behera Clinic",
    "address": "Street No 5, Jagannath Temple, Kuansha Square, Bhadra, Bhadrak, Odisha 756100",
    "phone": "Dr Behera Clinic",
    "hours": null,
    "imageUrl": "https://www.bing.com/th?id=OLC.1sWdYg1vlxLHdw480x360&w=92&h=112&c=8&rs=1&qlt=80&cdv=1&pid=Local"
  }
]