[
  {
    "name": "Dr. Mrigendra Kumar",
    "address": "Masachak SN Raja Raod Near Ghantaghar, Bhagalpur, Bihar, India, 812001, Bhagalpur, Madhya Pradesh 812001",
    "phone": "Dr. Mrigendra Kumar",
    "hours": "Closed · Opens 10:00",
    "imageUrl": "https://www.bing.com/th?id=OLC.v7tPEdt%2bPOX5RA480x360&w=92&h=134&c=8&rs=1&qlt=80&cdv=1&pid=Local"
  },
  {
    "name": "Dr Batra’s Homeopathy, Hair & Skin Clinic",
    "address": "No. 103, 1st Flr, Adyawati Tower, Police Line Road, Kachahri Chowk, Beside Hotel Nihar, Bhagalpur, Bihar …",
    "phone": "Dr Batra’s Homeopathy, Hair & Skin Clinic",
    "hours": "Closed · Opens 11:00",
    "imageUrl": "https://www.bing.com/th?id=OLC.YSR4UkUZ40Qrjg480x360&w=92&h=134&c=8&rs=1&qlt=80&cdv=1&pid=Local"
  },
  {
    "name": "Dr. Anand Dev",
    "address": "Garib Nawaz Eye Care, Swami Vivekanand Path, Chunihari Tola, Naya Bazar, Bhagalpur, Bihar 812002",
    "phone": "Dr. Anand Dev",
    "hours": "Closed · Opens 09:00",
    "imageUrl": "https://www.bing.com/maps/geoplat/REST/v1/Imagery/Map/RoadVibrant?ms=92,134&key=AnTcaqBi2ypp0xI-OZNi4W_ik2KhjgpqioTAtXLC8GzkMBQRMlyxvxyTnd5b73im&c=en-US&ur=in&da=n&logo=n&fmt=png&od=1&shading=hill&pp=25.250683,86.972069;dfp"
  },
  {
    "name": "Dr. S.N. Jha Clinic",
    "address": "Tatarpur, Bhagalpur, Bihar 812002",
    "phone": "Dr. S.N. Jha Clinic",
    "hours": null,
    "imageUrl": "https://www.bing.com/maps/geoplat/REST/v1/Imagery/Map/RoadVibrant?ms=92,112&key=AnTcaqBi2ypp0xI-OZNi4W_ik2KhjgpqioTAtXLC8GzkMBQRMlyxvxyTnd5b73im&c=en-US&ur=in&da=n&logo=n&fmt=png&od=1&shading=hill&pp=25.247375,86.973137;dfp"
  },
  {
    "name": "Shuddhi Clinic",
    "address": "RM Bhawan, Goradih Road, Chhatrapati Colony, Shitla Sthan Chowk, Post Office Mirjanhat, Near Awasiya Gya…",
    "phone": "Shuddhi Clinic",
    "hours": "Closed · Opens 09:00",
    "imageUrl": "https://www.bing.com/th?id=OLC.pOLo9u%2bNT9p7zg480x360&w=92&h=134&c=8&rs=1&qlt=80&cdv=1&pid=Local"
  },
  {
    "name": "Dr. Mritunjay Azad",
    "address": "Hatiya Road, Bank Colony, Tilkamanjhi, Bhagalpur, Bihar 812001, Bhagalpur 812001",
    "phone": "Dr. Mritunjay Azad",
    "hours": null,
    "imageUrl": "https://www.bing.com/th?id=OLC.UmI1RLavHCfX1w480x360&w=92&h=112&c=8&rs=1&qlt=80&cdv=1&pid=Local"
  },
  {
    "name": "Dr Sushil Bhushan Clinic",
    "address": "Adampur, Bhagalpur, Bihar 812001",
    "phone": "Dr Sushil Bhushan Clinic",
    "hours": null,
    "imageUrl": "https://www.bing.com/maps/geoplat/REST/v1/Imagery/Map/RoadVibrant?ms=92,112&key=AnTcaqBi2ypp0xI-OZNi4W_ik2KhjgpqioTAtXLC8GzkMBQRMlyxvxyTnd5b73im&c=en-US&ur=in&da=n&logo=n&fmt=png&od=1&shading=hill&pp=25.249508,86.984917;dfp"
  },
  {
    "name": "Chandra Dewki Clinic",
    "address": "Hanuman Nagar, Adampur, Bhagalpur, Bihar 812001",
    "phone": "Chandra Dewki Clinic",
    "hours": "Open 24 hours",
    "imageUrl": "https://th.bing.com/th?id=OLC.lcFO5KKHe2feUw480x360&w=92&h=134&c=8&rs=1&qlt=80&cdv=1&pid=Local"
  },
  {
    "name": "Dr Madhavi Sinha",
    "address": "Radha Rani Sinha Rd, Opposite of Navyug Vidyalaya, Adampur, Bhagalpur, Bihar",
    "phone": "Dr Madhavi Sinha",
    "hours": null,
    "imageUrl": "https://th.bing.com/th?id=OLC.qNJm3Xo11cv6wg480x360&w=92&h=112&c=8&rs=1&qlt=80&cdv=1&pid=Local"
  },
  {
    "name": "Dr. Sisir Kumar Patra | Hematologist | Narayana Health",
    "address": "ABC Life Care Hospital, Kamakhya Nagar, Banshitikar, Jagatpur Road, Bhagalpur, Bihar 813210",
    "phone": "Dr. Sisir Kumar Patra | Hematologist | Narayana Health",
    "hours": "Closed · Opens 09:00",
    "imageUrl": "https://www.bing.com/maps/geoplat/REST/v1/Imagery/Map/RoadVibrant?ms=92,134&key=AnTcaqBi2ypp0xI-OZNi4W_ik2KhjgpqioTAtXLC8GzkMBQRMlyxvxyTnd5b73im&c=en-US&ur=in&da=n&logo=n&fmt=png&od=1&shading=hill&pp=25.252901,87.019798;dfp"
  },
  {
    "name": "Sahil Clinic. Dr Binay Kumar Bhagat",
    "address": "Nawab Colony, Lalbagh, Tilkamanjhi, Bhagalpur, Bihar 812002",
    "phone": "Sahil Clinic. Dr Binay Kumar Bhagat",
    "hours": null,
    "imageUrl": "https://www.bing.com/maps/geoplat/REST/v1/Imagery/Map/RoadVibrant?ms=92,112&key=AnTcaqBi2ypp0xI-OZNi4W_ik2KhjgpqioTAtXLC8GzkMBQRMlyxvxyTnd5b73im&c=en-US&ur=in&da=n&logo=n&fmt=png&od=1&shading=hill&pp=26.84683,80.949364;dfp"
  },
  {
    "name": "Dr Vinay Krishna Singh Clinic",
    "address": "Adampur, Bhagalpur, Bihar 812001, India, Bhagalpur, Bihar 812001",
    "phone": "Dr Vinay Krishna Singh Clinic",
    "hours": null,
    "imageUrl": "https://www.bing.com/maps/geoplat/REST/v1/Imagery/Map/RoadVibrant?ms=92,112&key=AnTcaqBi2ypp0xI-OZNi4W_ik2KhjgpqioTAtXLC8GzkMBQRMlyxvxyTnd5b73im&c=en-US&ur=in&da=n&logo=n&fmt=png&od=1&shading=hill&pp=25.253008,86.98539;dfp"
  },
  {
    "name": "Dr. Barun Kumar- General & Laproscopic surgeon in Bhagalpur",
    "address": "G.c Banergi Road Mundichal, Bagalpur, Bihar 812001",
    "phone": "Dr. Barun Kumar- General & Laproscopic surgeon in Bhagalpur",
    "hours": "Closed · Opens 09:00",
    "imageUrl": "https://www.bing.com/maps/geoplat/REST/v1/Imagery/Map/RoadVibrant?ms=92,134&key=AnTcaqBi2ypp0xI-OZNi4W_ik2KhjgpqioTAtXLC8GzkMBQRMlyxvxyTnd5b73im&c=en-US&ur=in&da=n&logo=n&fmt=png&od=1&shading=hill&pp=25.246948,86.984795;dfp"
  },
  {
    "name": "Modern E.N.T. Clinic",
    "address": "C.S. Complex, M. G. Road, Bhagalpur, Bihar 812001",
    "phone": "Modern E.N.T. Clinic",
    "hours": "Closed · Opens 08:00",
    "imageUrl": "https://th.bing.com/th?id=OLC.h8EVZVGFtjMM%2fg480x360&w=92&h=134&c=8&rs=1&qlt=80&cdv=1&pid=Local"
  },
  {
    "name": "Sana Ayurvedic Clinic & Hijama Cupping Therapy",
    "address": "Sana Health Care Clinic, C/0 Aman Medical, Pankhatoli Chowk, Amarpur Road Bhagalpur Bihar, Bhagalpur, Bih…",
    "phone": "Sana Ayurvedic Clinic & Hijama Cupping Therapy",
    "hours": null,
    "imageUrl": "https://th.bing.com/th?id=OLC.R8gsrRXkV2%2bRPA480x360&w=92&h=112&c=8&rs=1&qlt=80&cdv=1&pid=Local"
  },
  {
    "name": "Dr. Rajiv Sinha's - Gastro Clinic (SAMAGAM)",
    "address": "Beside Durga Bari, Raja SN Road, Masakchak, Manik Sarkar Chowk, Bhagalpur, Bihar",
    "phone": "Dr. Rajiv Sinha's - Gastro Clinic (SAMAGAM)",
    "hours": null,
    "imageUrl": "https://www.bing.com/maps/geoplat/REST/v1/Imagery/Map/RoadVibrant?ms=92,112&key=AnTcaqBi2ypp0xI-OZNi4W_ik2KhjgpqioTAtXLC8GzkMBQRMlyxvxyTnd5b73im&c=en-US&ur=in&da=n&logo=n&fmt=png&od=1&shading=hill&pp=25.236862,86.980301;dfp"
  },
  {
    "name": "Om Ent & Maternity Hospital",
    "address": "Styam Complax, Radha Rani Sinha Road, Bhagalpur, Madhya Pradesh 812002",
    "phone": "Om Ent & Maternity Hospital",
    "hours": "Closed · Opens 10:00",
    "imageUrl": "https://th.bing.com/th?id=OLC.TvxZn%2fIEFIYSlg480x360&w=92&h=134&c=8&rs=1&qlt=80&cdv=1&pid=Local"
  },
  {
    "name": "Tapovardhan Prakritik Chikitsa Kendra",
    "address": "Barari Road, Bhagalpur, Bihar 812001",
    "phone": "Tapovardhan Prakritik Chikitsa Kendra",
    "hours": null,
    "imageUrl": "https://th.bing.com/th?id=OLC.OaAApaBctbsZsg480x360&w=92&h=112&c=8&rs=1&qlt=80&cdv=1&pid=Local"
  },
  {
    "name": "Dr. Mrigendra Kumar",
    "address": "Masachak SN Raja Raod Near Ghantaghar, Bhagalpur, Bihar, India, 812001, Bhagalpur, Madhya Pradesh 812001",
    "phone": "Dr. Mrigendra Kumar",
    "hours": "Closed · Opens 10:00",
    "imageUrl": "https://www.bing.com/th?id=OLC.v7tPEdt%2bPOX5RA480x360&w=92&h=134&c=8&rs=1&qlt=80&cdv=1&pid=Local"
  },
  {
    "name": "Dr Batra’s Homeopathy, Hair & Skin Clinic",
    "address": "No. 103, 1st Flr, Adyawati Tower, Police Line Road, Kachahri Chowk, Beside Hotel Nihar, Bhagalpur, Bihar …",
    "phone": "Dr Batra’s Homeopathy, Hair & Skin Clinic",
    "hours": "Closed · Opens 11:00",
    "imageUrl": "https://www.bing.com/th?id=OLC.YSR4UkUZ40Qrjg480x360&w=92&h=134&c=8&rs=1&qlt=80&cdv=1&pid=Local"
  }
]