[
  {
    "name": "Laksh Hospital Bhandara",
    "address": "441904 Bhandara Khairlanji Road, Bhandara, Maharashtra 441904",
    "phone": "Laksh Hospital Bhandara",
    "hours": "Open 24 hours",
    "imageUrl": "https://www.bing.com/th?id=OLC.Pv5VRZXdQbOaHA480x360&w=92&h=134&c=8&rs=1&qlt=80&cdv=1&pid=Local"
  },
  {
    "name": "CARE HOMOEOPATHIC CLINIC (Dr Mangesh Rahangdale)",
    "address": "Beside Hdfc Bank, Bhandara, Maharashtra, Maharashtra 441904",
    "phone": "CARE HOMOEOPATHIC CLINIC (Dr Mangesh Rahangdale)",
    "hours": null,
    "imageUrl": "https://www.bing.com/th?id=OLC.0kqfsuCJf9o4KA480x360&w=92&h=112&c=8&rs=1&qlt=80&cdv=1&pid=Local"
  },
  {
    "name": "Dr. Vaibhav Yawalkar, MD, DM Cardiology, Consultant Interventional Cardiologist",
    "address": "Sai Mandir Road, Near Rajiv Gandhi Square, Opposite Rangari Nursing Home, Bhandara, Maharashtra 441904",
    "phone": "Dr. Vaibhav Yawalkar, MD, DM Cardiology, Consultant Interventional Cardiologist",
    "hours": "Closed · Opens Sep 29 at 11:00",
    "imageUrl": "https://www.bing.com/th?id=OLC.3i7GTYdVDczYrw480x360&w=92&h=134&c=8&rs=1&qlt=80&cdv=1&pid=Local"
  },
  {
    "name": "Madhavbaug - Sane Care Group / Vidarbha Zone",
    "address": "Madhavbaug AYU. Cardiac Clinic AND Rehabilitation Center, Bhandara, Maharashtra 440024",
    "phone": "Madhavbaug - Sane Care Group / Vidarbha Zone",
    "hours": "Closed · Opens 10:30",
    "imageUrl": "https://www.bing.com/th?id=OLC.UyaEZHm3xjJT7Q480x360&w=92&h=134&c=8&rs=1&qlt=80&cdv=1&pid=Local"
  },
  {
    "name": "Dr Murlikant Clinic",
    "address": "Aannabhau Sathe Chowk, New Bazar Road, Bhandara, Maharashtra 441904",
    "phone": "Dr Murlikant Clinic",
    "hours": null,
    "imageUrl": "https://www.bing.com/maps/geoplat/REST/v1/Imagery/Map/RoadVibrant?ms=92,112&key=AnTcaqBi2ypp0xI-OZNi4W_ik2KhjgpqioTAtXLC8GzkMBQRMlyxvxyTnd5b73im&c=en-US&ur=in&da=n&logo=n&fmt=png&od=1&shading=hill&pp=21.164232,79.65435;dfp"
  },
  {
    "name": "Dr. Omprakash Girhepunje- Obstetrician and Gynaecologist",
    "address": "Behind Sai Mandir, Takiya Ward, Z.P. Road, Bhandara, Maharashtra 441904",
    "phone": "Dr. Omprakash Girhepunje- Obstetrician and Gynaecologist",
    "hours": "Closed · Opens 10:00",
    "imageUrl": "https://www.bing.com/maps/geoplat/REST/v1/Imagery/Map/RoadVibrant?ms=92,134&key=AnTcaqBi2ypp0xI-OZNi4W_ik2KhjgpqioTAtXLC8GzkMBQRMlyxvxyTnd5b73im&c=en-US&ur=in&da=n&logo=n&fmt=png&od=1&shading=hill&pp=21.169489,79.661346;dfp"
  },
  {
    "name": "Dr. D U Turaskar | Turaskar Nursing Home",
    "address": "H O, Turaskar Nursing Home, Rajagopalachari Ward, Bhandara, Maharashtra",
    "phone": "Dr. D U Turaskar | Turaskar Nursing Home",
    "hours": "Closed · Opens 12:00",
    "imageUrl": "https://www.bing.com/maps/geoplat/REST/v1/Imagery/Map/RoadVibrant?ms=92,112&key=AnTcaqBi2ypp0xI-OZNi4W_ik2KhjgpqioTAtXLC8GzkMBQRMlyxvxyTnd5b73im&c=en-US&ur=in&da=n&logo=n&fmt=png&od=1&shading=hill&pp=21.16341,79.65522;dfp"
  },
  {
    "name": "Dr Chandan Tekade Clinic",
    "address": "Bhandara Balaghat Road, Opposite Axis Bank, Bhandara, Maharashtra 441904",
    "phone": "Dr Chandan Tekade Clinic",
    "hours": null,
    "imageUrl": "https://www.bing.com/maps/geoplat/REST/v1/Imagery/Map/RoadVibrant?ms=92,112&key=AnTcaqBi2ypp0xI-OZNi4W_ik2KhjgpqioTAtXLC8GzkMBQRMlyxvxyTnd5b73im&c=en-US&ur=in&da=n&logo=n&fmt=png&od=1&shading=hill&pp=21.164043,79.654984;dfp"
  },
  {
    "name": "Dr. Chanchal Khobragade- Gynaecologist",
    "address": "Samruddhi Nursing Home, Canal Road, Behind Telephone Colony, Near Shitla Mata Mandir, Bhandara…",
    "phone": "Dr. Chanchal Khobragade- Gynaecologist",
    "hours": "Closed · Opens 11:00",
    "imageUrl": "https://www.bing.com/maps/geoplat/REST/v1/Imagery/Map/RoadVibrant?ms=92,134&key=AnTcaqBi2ypp0xI-OZNi4W_ik2KhjgpqioTAtXLC8GzkMBQRMlyxvxyTnd5b73im&c=en-US&ur=in&da=n&logo=n&fmt=png&od=1&shading=hill&pp=21.175186,79.654526;dfp"
  },
  {
    "name": "Shri Dhanwantari Clinic",
    "address": "Rajni Nagar, Khat Road, Bhandara, Maharashtra 441904",
    "phone": "Shri Dhanwantari Clinic",
    "hours": null,
    "imageUrl": "https://www.bing.com/maps/geoplat/REST/v1/Imagery/Map/RoadVibrant?ms=92,112&key=AnTcaqBi2ypp0xI-OZNi4W_ik2KhjgpqioTAtXLC8GzkMBQRMlyxvxyTnd5b73im&c=en-US&ur=in&da=n&logo=n&fmt=png&od=1&shading=hill&pp=21.163019,79.653229;dfp"
  },
  {
    "name": "Dr. Snehal | Obstetrics And Gynaecology",
    "address": "Sawli Nursing Home Rajiv Gandhi Square, Bhandara, Maharashtra, India, 441904, Bhandara, Madhya Prades…",
    "phone": "Dr. Snehal | Obstetrics And Gynaecology",
    "hours": "Closed · Opens 10:00",
    "imageUrl": "https://th.bing.com/th?id=OLC.UeNnvuOoY3QGDQ480x360&w=92&h=134&c=8&rs=1&qlt=80&cdv=1&pid=Local"
  },
  {
    "name": "Dr Pankaj Yeole's \"Anika Skin Clinic\"",
    "address": "First Floor, Kamla House, Near Ram Mandir, Main Road, Bhandara, Maharashtra 441904",
    "phone": "Dr Pankaj Yeole's \"Anika Skin Clinic\"",
    "hours": null,
    "imageUrl": "https://th.bing.com/th?id=OLC.ni2AtjOmI313Dg480x360&w=92&h=112&c=8&rs=1&qlt=80&cdv=1&pid=Local"
  },
  {
    "name": "Dr lanjewar child hospital",
    "address": "Rajiv Gandhi Square, Bhandara, Maharashtra 441904",
    "phone": "Dr lanjewar child hospital",
    "hours": null,
    "imageUrl": "https://www.bing.com/maps/geoplat/REST/v1/Imagery/Map/RoadVibrant?ms=92,112&key=AnTcaqBi2ypp0xI-OZNi4W_ik2KhjgpqioTAtXLC8GzkMBQRMlyxvxyTnd5b73im&c=en-US&ur=in&da=n&logo=n&fmt=png&od=1&shading=hill&pp=21.165283,79.649612;dfp"
  },
  {
    "name": "Skin care clinic dr.shabbir sheikh",
    "address": "Dr.Shabbir Sheikh Mbbs dvd(gmc Mumbai Near BUS Stand Sunny Plaza, Bhandara, Maharashtra",
    "phone": "Skin care clinic dr.shabbir sheikh",
    "hours": null,
    "imageUrl": "https://www.bing.com/maps/geoplat/REST/v1/Imagery/Map/RoadVibrant?ms=92,112&key=AnTcaqBi2ypp0xI-OZNi4W_ik2KhjgpqioTAtXLC8GzkMBQRMlyxvxyTnd5b73im&c=en-US&ur=in&da=n&logo=n&fmt=png&od=1&shading=hill&pp=21.165188,79.65271;dfp"
  },
  {
    "name": "Dr. Swapnil Gawali",
    "address": "Gawali, Nursing Home, Anna Bhau Sathe Square, Mahal Road, Bhandara, Bhandara 441904",
    "phone": "Dr. Swapnil Gawali",
    "hours": "Closed · Opens 10:00",
    "imageUrl": "https://th.bing.com/th?id=OLC.VdWcPbJbUW1HNg480x360&w=92&h=112&c=8&rs=1&qlt=80&cdv=1&pid=Local"
  },
  {
    "name": "Shahare Ct Scan and X Ray Centre",
    "address": "Patel Complex 4 Behind Ganesh Highschool, Takiya Road 4, Bhandara, Maharashtra 441904",
    "phone": "Shahare Ct Scan and X Ray Centre",
    "hours": null,
    "imageUrl": "https://www.bing.com/maps/geoplat/REST/v1/Imagery/Map/RoadVibrant?ms=92,112&key=AnTcaqBi2ypp0xI-OZNi4W_ik2KhjgpqioTAtXLC8GzkMBQRMlyxvxyTnd5b73im&c=en-US&ur=in&da=n&logo=n&fmt=png&od=1&shading=hill&pp=21.163462,79.646057;dfp"
  },
  {
    "name": "Dr Jakkal Pathology Laboratory",
    "address": "Sai Mandir Road, Infront of Shri Ganesh Highschool, Rajiv Gandhi Square, 441904, Bhandara, Maharashtra",
    "phone": "Dr Jakkal Pathology Laboratory",
    "hours": null,
    "imageUrl": "https://www.bing.com/maps/geoplat/REST/v1/Imagery/Map/RoadVibrant?ms=92,112&key=AnTcaqBi2ypp0xI-OZNi4W_ik2KhjgpqioTAtXLC8GzkMBQRMlyxvxyTnd5b73im&c=en-US&ur=in&da=n&logo=n&fmt=png&od=1&shading=hill&pp=21.163984,79.648109;dfp"
  },
  {
    "name": "Dr. Batra's Dental Care",
    "address": "Bhandara Ramtek Main Road, Bhandara, Maharashtra 441904",
    "phone": "Dr. Batra's Dental Care",
    "hours": "Closed · Opens 10:30",
    "imageUrl": "https://th.bing.com/th?id=OLC.%2fisACRzsVs0IrA480x360&w=92&h=134&c=8&rs=1&qlt=80&cdv=1&pid=Local"
  },
  {
    "name": "Laksh Hospital Bhandara",
    "address": "441904 Bhandara Khairlanji Road, Bhandara, Maharashtra 441904",
    "phone": "Laksh Hospital Bhandara",
    "hours": "Open 24 hours",
    "imageUrl": "https://www.bing.com/th?id=OLC.Pv5VRZXdQbOaHA480x360&w=92&h=134&c=8&rs=1&qlt=80&cdv=1&pid=Local"
  },
  {
    "name": "CARE HOMOEOPATHIC CLINIC (Dr Mangesh Rahangdale)",
    "address": "Beside Hdfc Bank, Bhandara, Maharashtra, Maharashtra 441904",
    "phone": "CARE HOMOEOPATHIC CLINIC (Dr Mangesh Rahangdale)",
    "hours": null,
    "imageUrl": "https://www.bing.com/th?id=OLC.0kqfsuCJf9o4KA480x360&w=92&h=112&c=8&rs=1&qlt=80&cdv=1&pid=Local"
  }
]