[
  {
    "name": "Dr Divyesh Bhagat",
    "address": "16, Amardeep Complex, Station Road, Bharuch, Gujarat, Gujarat 392001",
    "phone": "Dr Divyesh Bhagat",
    "hours": null,
    "imageUrl": "https://www.bing.com/maps/geoplat/REST/v1/Imagery/Map/RoadVibrant?ms=92,112&key=AnTcaqBi2ypp0xI-OZNi4W_ik2KhjgpqioTAtXLC8GzkMBQRMlyxvxyTnd5b73im&c=en-US&ur=in&da=n&logo=n&fmt=png&od=1&shading=hill&pp=21.70285,72.994614;dfp"
  },
  {
    "name": "Dr.Bhuvneshwari Gohil - Pulmonologist - Bharuch",
    "address": "Healing Touch Hosp, RK Casta, Railway Station Rd, Bharuch, Gujarat",
    "phone": "Dr.Bhuvneshwari Gohil - Pulmonologist - Bharuch",
    "hours": null,
    "imageUrl": "https://www.bing.com/th?id=OLC.q6smOn2xfaWerQ480x360&w=92&h=112&c=8&rs=1&qlt=80&cdv=1&pid=Local"
  },
  {
    "name": "Dr. Nisarg Dharaiya",
    "address": "Sunshine Global Hospital, Adarsh Market, Panch Batti Circle, Railway Station Rd, Bharuch, Gujarat",
    "phone": "Dr. Nisarg Dharaiya",
    "hours": null,
    "imageUrl": "https://www.bing.com/maps/geoplat/REST/v1/Imagery/Map/RoadVibrant?ms=92,112&key=AnTcaqBi2ypp0xI-OZNi4W_ik2KhjgpqioTAtXLC8GzkMBQRMlyxvxyTnd5b73im&c=en-US&ur=in&da=n&logo=n&fmt=png&od=1&shading=hill&pp=21.700611,72.987366;dfp"
  },
  {
    "name": "Dr. Alpa Patel",
    "address": "128, Sardar Shopping Centre, Wing B, First Floor, Shaktinath Circle, Bharuch, Gujarat",
    "phone": "Dr. Alpa Patel",
    "hours": null,
    "imageUrl": "https://www.bing.com/th?id=OLC.Ha1ik%2bI%2b2emCqg480x360&w=92&h=112&c=8&rs=1&qlt=80&cdv=1&pid=Local"
  },
  {
    "name": "Joshi Dr Gaurang R",
    "address": "Ff-13-14, Capital Business Centre, Opposite Central Bank Of India, Panchbhatti, Bharuch, Gujarat 392001",
    "phone": "Joshi Dr Gaurang R",
    "hours": null,
    "imageUrl": "https://www.bing.com/maps/geoplat/REST/v1/Imagery/Map/RoadVibrant?ms=92,112&key=AnTcaqBi2ypp0xI-OZNi4W_ik2KhjgpqioTAtXLC8GzkMBQRMlyxvxyTnd5b73im&c=en-US&ur=in&da=n&logo=n&fmt=png&od=1&shading=hill&pp=21.699827,72.986259;dfp"
  },
  {
    "name": "Aadicura Superspeciality Clinic (ASC)",
    "address": "A4/A5, Ground Floor, Tower A, RK Casta B/H Patel Supermarket, Falshruti Nagar, Bharuch, Gujarat",
    "phone": "Aadicura Superspeciality Clinic (ASC)",
    "hours": null,
    "imageUrl": "https://www.bing.com/maps/geoplat/REST/v1/Imagery/Map/RoadVibrant?ms=92,112&key=AnTcaqBi2ypp0xI-OZNi4W_ik2KhjgpqioTAtXLC8GzkMBQRMlyxvxyTnd5b73im&c=en-US&ur=in&da=n&logo=n&fmt=png&od=1&shading=hill&pp=21.704281,72.994507;dfp"
  },
  {
    "name": "Dr. Prashant Sagar",
    "address": "Sarvam Hospital, 2Nd Floor Shredhar Complex, Opposite Madhuram Party Plot, Zadeshwar Road, Bharuch, Guja…",
    "phone": "Dr. Prashant Sagar",
    "hours": "Closed · Opens 10:00",
    "imageUrl": "https://www.bing.com/maps/geoplat/REST/v1/Imagery/Map/RoadVibrant?ms=92,134&key=AnTcaqBi2ypp0xI-OZNi4W_ik2KhjgpqioTAtXLC8GzkMBQRMlyxvxyTnd5b73im&c=en-US&ur=in&da=n&logo=n&fmt=png&od=1&shading=hill&pp=21.721201,73.03347;dfp"
  },
  {
    "name": "Dr. Palak Kapadia",
    "address": "Falshruti Nagar, Station Road, Bharuch, Gujarat",
    "phone": "Dr. Palak Kapadia",
    "hours": "Closed · Opens 10:00",
    "imageUrl": "https://www.bing.com/maps/geoplat/REST/v1/Imagery/Map/RoadVibrant?ms=92,112&key=AnTcaqBi2ypp0xI-OZNi4W_ik2KhjgpqioTAtXLC8GzkMBQRMlyxvxyTnd5b73im&c=en-US&ur=in&da=n&logo=n&fmt=png&od=1&shading=hill&pp=21.70437,72.99588;dfp"
  },
  {
    "name": "Dr. Setu Kumar Lotwala (pt)",
    "address": "Rangoli Commercial Complex, Station Road, Bharuch, Gujarat",
    "phone": "Dr. Setu Kumar Lotwala (pt)",
    "hours": "Closed · Opens 08:00",
    "imageUrl": "https://www.bing.com/maps/geoplat/REST/v1/Imagery/Map/RoadVibrant?ms=92,112&key=AnTcaqBi2ypp0xI-OZNi4W_ik2KhjgpqioTAtXLC8GzkMBQRMlyxvxyTnd5b73im&c=en-US&ur=in&da=n&logo=n&fmt=png&od=1&shading=hill&pp=21.700712,72.991028;dfp"
  },
  {
    "name": "Shreeji Krupa Clinic",
    "address": "Dholikui Bazaar Road, Old Town, Bharuch, Gujarat 392001",
    "phone": "Shreeji Krupa Clinic",
    "hours": null,
    "imageUrl": "https://th.bing.com/th?id=OLC.vT4LL6z%2fAOmy6w480x360&w=92&h=112&c=8&rs=1&qlt=80&cdv=1&pid=Local"
  },
  {
    "name": "Baroda Heart & Multi Speciality Hospital",
    "address": "Panchbatti, Station Road, Bharuch, Gujarat 392001",
    "phone": "Baroda Heart & Multi Speciality Hospital",
    "hours": null,
    "imageUrl": "https://th.bing.com/th?id=OLC.J3gehCkAIRJCgw480x360&w=92&h=112&c=8&rs=1&qlt=80&cdv=1&pid=Local"
  },
  {
    "name": "Nisarg Homoeopathic Clinic",
    "address": "Ff-5, Shriji Darshan Complex, Nr Chamunda Mataji Temple, Zadeshwar Road, Bharuch, Gujarat, Gujarat 3…",
    "phone": "Nisarg Homoeopathic Clinic",
    "hours": "Closed · Opens 17:00",
    "imageUrl": "https://th.bing.com/th?id=OLC.J%2b0NGKvQiLPfNQ480x360&w=92&h=134&c=8&rs=1&qlt=80&cdv=1&pid=Local"
  },
  {
    "name": "Modh Ent & Onco Surgical Hospital",
    "address": "4\\5\\6 First Floor, Ratan Nagar Complex, Station Road, Bharuch, Gujarat 392001",
    "phone": "Modh Ent & Onco Surgical Hospital",
    "hours": null,
    "imageUrl": "https://th.bing.com/th?id=OLC.dF70YgNBJxTfZQ480x360&w=92&h=112&c=8&rs=1&qlt=80&cdv=1&pid=Local"
  },
  {
    "name": "Rashmi Women Hospital",
    "address": "Buddhdev Market Sevashram Sevashram Road, Bharuch, Gujarat, India, 392001, Bharuch, Madhya Pra…",
    "phone": "Rashmi Women Hospital",
    "hours": "Closed · Opens 10:00",
    "imageUrl": "https://th.bing.com/th?id=OLC.5i3PqmjiFzDYrw480x360&w=92&h=134&c=8&rs=1&qlt=80&cdv=1&pid=Local"
  },
  {
    "name": "Devansh Homeopathy Clinic",
    "address": "Tulsidham Road, Bharuch, Gujarat 392001",
    "phone": "Devansh Homeopathy Clinic",
    "hours": "Closed · Opens 09:00",
    "imageUrl": "https://th.bing.com/th?id=OLC.BTWF6sZ%2bKi56Pw480x360&w=92&h=134&c=8&rs=1&qlt=80&cdv=1&pid=Local"
  },
  {
    "name": "Sreedhareeyam Ayurvedic eye hospital",
    "address": "Sidharth Annexe 4 B Wing Salvi Road, Railway Colony, Vishwamitri, Vadodara, Gujarat",
    "phone": "Sreedhareeyam Ayurvedic eye hospital",
    "hours": null,
    "imageUrl": "https://www.bing.com/maps/geoplat/REST/v1/Imagery/Map/RoadVibrant?ms=92,112&key=AnTcaqBi2ypp0xI-OZNi4W_ik2KhjgpqioTAtXLC8GzkMBQRMlyxvxyTnd5b73im&c=en-US&ur=in&da=n&logo=n&fmt=png&od=1&shading=hill&pp=21.7036,72.993874;dfp"
  },
  {
    "name": "Dr Archana’s Sparsh Skin & Hair Clinic",
    "address": "Ff- 101/102, Silver Shrusti, Above Sbi Bank, Link Road, Bharuch, Gujarat, Gujarat 392001",
    "phone": "Dr Archana’s Sparsh Skin & Hair Clinic",
    "hours": "Closed · Opens 10:00",
    "imageUrl": "https://th.bing.com/th?id=OLC.UJ7QLmw564K05g480x360&w=92&h=134&c=8&rs=1&qlt=80&cdv=1&pid=Local"
  },
  {
    "name": "Dr. Vihang Sukhadia",
    "address": "Falshruti Nagar, Landmark:Above Narmadha Medical Store, Bharuch, Gujarat",
    "phone": "Dr. Vihang Sukhadia",
    "hours": "Closed · Opens 09:30",
    "imageUrl": "https://th.bing.com/th?id=OLC.Fzne3RMSl2R3Uw480x360&w=92&h=112&c=8&rs=1&qlt=80&cdv=1&pid=Local"
  },
  {
    "name": "Dr Divyesh Bhagat",
    "address": "16, Amardeep Complex, Station Road, Bharuch, Gujarat, Gujarat 392001",
    "phone": "Dr Divyesh Bhagat",
    "hours": null,
    "imageUrl": "https://www.bing.com/maps/geoplat/REST/v1/Imagery/Map/RoadVibrant?ms=92,112&key=AnTcaqBi2ypp0xI-OZNi4W_ik2KhjgpqioTAtXLC8GzkMBQRMlyxvxyTnd5b73im&c=en-US&ur=in&da=n&logo=n&fmt=png&od=1&shading=hill&pp=21.70285,72.994614;dfp"
  },
  {
    "name": "Dr.Bhuvneshwari Gohil - Pulmonologist - Bharuch",
    "address": "Healing Touch Hosp, RK Casta, Railway Station Rd, Bharuch, Gujarat",
    "phone": "Dr.Bhuvneshwari Gohil - Pulmonologist - Bharuch",
    "hours": null,
    "imageUrl": "https://www.bing.com/th?id=OLC.q6smOn2xfaWerQ480x360&w=92&h=112&c=8&rs=1&qlt=80&cdv=1&pid=Local"
  }
]