[
  {
    "name": "Dr. Shruti Shah",
    "address": "Ground Floor, Panchkutir Annexe, Kalubha Road, Bhavnagar, Gujarat 364001",
    "phone": "Dr. Shruti Shah",
    "hours": "Closed · Opens 10:00",
    "imageUrl": "https://www.bing.com/th?id=OLC.Tj8wynXIMTaWAg480x360&w=92&h=134&c=8&rs=1&qlt=80&cdv=1&pid=Local"
  },
  {
    "name": "Dr. Prakash Dhamecha- Family Physician",
    "address": "Shree Satnam Clinic; Rasala Camp, NR new Gurdwara, Behind Madhav Darshan, Kalanala, Bhavnagar, Gujara…",
    "phone": "Dr. Prakash Dhamecha- Family Physician",
    "hours": "Closed · Opens 10:00",
    "imageUrl": "https://www.bing.com/maps/geoplat/REST/v1/Imagery/Map/RoadVibrant?ms=92,134&key=AnTcaqBi2ypp0xI-OZNi4W_ik2KhjgpqioTAtXLC8GzkMBQRMlyxvxyTnd5b73im&c=en-US&ur=in&da=n&logo=n&fmt=png&od=1&shading=hill&pp=21.768887,72.141922;dfp"
  },
  {
    "name": "Dr.Rajnish.",
    "address": "44/b, om Namah Shivay Society, Fulsar, Chitra, Bhavnagar, Gujarat 364004",
    "phone": "Dr.Rajnish.",
    "hours": null,
    "imageUrl": "https://www.bing.com/th?id=OLC.BthRLaTQb6EV5w480x360&w=92&h=112&c=8&rs=1&qlt=80&cdv=1&pid=Local"
  },
  {
    "name": "Dr N M Vaishnav Clinic",
    "address": "Diwanpara Road, Bhavnagar, Gujarat 364001",
    "phone": "Dr N M Vaishnav Clinic",
    "hours": null,
    "imageUrl": "https://www.bing.com/maps/geoplat/REST/v1/Imagery/Map/RoadVibrant?ms=92,112&key=AnTcaqBi2ypp0xI-OZNi4W_ik2KhjgpqioTAtXLC8GzkMBQRMlyxvxyTnd5b73im&c=en-US&ur=in&da=n&logo=n&fmt=png&od=1&shading=hill&pp=21.779078,72.149841;dfp"
  },
  {
    "name": "Chirag Clinic",
    "address": "Aalek Complex, Virani Circle, Kalvibid, Bhavnagar, Gujarat 364002",
    "phone": "Chirag Clinic",
    "hours": null,
    "imageUrl": "https://www.bing.com/th?id=OLC.FtMUwpZ1t40j7w480x360&w=92&h=112&c=8&rs=1&qlt=80&cdv=1&pid=Local"
  },
  {
    "name": "Dr Vishvesh Nayak - Dr Vignani Nayak- Shreeji Surgical Hospital & Maternity Home - (Shreeji Hospital)",
    "address": "Sardar Nagar, Bhavnagar, Gujarat 364001, India, Bhavnagar, Gujarat 364001",
    "phone": "Dr Vishvesh Nayak - Dr Vignani Nayak- Shreeji Surgical Hospital & Maternity Home - (Shreeji Hospital)",
    "hours": null,
    "imageUrl": "https://www.bing.com/th?id=OLC.%2byBy9Pjk2LlN5g480x360&w=92&h=112&c=8&rs=1&qlt=80&cdv=1&pid=Local"
  },
  {
    "name": "Dr. Himanshu Dodiya",
    "address": "312, Third Floor, Samved Complex, Jail Road, Bhavnagar, Gujarat",
    "phone": "Dr. Himanshu Dodiya",
    "hours": "Closed · Opens 11:00",
    "imageUrl": "https://th.bing.com/th?id=OLC.a71m9w%2b4oza8rw480x360&w=92&h=112&c=8&rs=1&qlt=80&cdv=1&pid=Local"
  },
  {
    "name": "Samvedna Clinic",
    "address": "Opp. Gandhi Smruti, Cresent Cir, Bhavnagar, Gujarat 364001, India, Bhavnagar, Bhavnagar 364001",
    "phone": "Samvedna Clinic",
    "hours": "Closed · Opens 18:00",
    "imageUrl": "https://www.bing.com/maps/geoplat/REST/v1/Imagery/Map/RoadVibrant?ms=92,134&key=AnTcaqBi2ypp0xI-OZNi4W_ik2KhjgpqioTAtXLC8GzkMBQRMlyxvxyTnd5b73im&c=en-US&ur=in&da=n&logo=n&fmt=png&od=1&shading=hill&pp=21.766701,72.150002;dfp"
  },
  {
    "name": "Malayaj Ayurveda panchkarma Hospital",
    "address": "Astvinayak-3, Opp Rupani Jain Derasar, Rupani Circle, Bhavnagar, Gujarat",
    "phone": "Malayaj Ayurveda panchkarma Hospital",
    "hours": null,
    "imageUrl": "https://www.bing.com/maps/geoplat/REST/v1/Imagery/Map/RoadVibrant?ms=92,112&key=AnTcaqBi2ypp0xI-OZNi4W_ik2KhjgpqioTAtXLC8GzkMBQRMlyxvxyTnd5b73im&c=en-US&ur=in&da=n&logo=n&fmt=png&od=1&shading=hill&pp=21.758709,72.152596;dfp"
  },
  {
    "name": "Dr. Devang Pawar's Ent Care Hospital",
    "address": "Kalubha Rd, Kalanala, Panwadi, Bhavnagar, Gujarat 364002, India, Bhavnagar, Gujarat 364002",
    "phone": "Dr. Devang Pawar's Ent Care Hospital",
    "hours": null,
    "imageUrl": "https://th.bing.com/th?id=OLC.wODlvgLZIrx3%2bA480x360&w=92&h=112&c=8&rs=1&qlt=80&cdv=1&pid=Local"
  },
  {
    "name": "Dr. Keyur Parmar",
    "address": "Kalanala Road, Opp A Division Police Station, Bhavnagar, Bhavnagar 364001",
    "phone": "Dr. Keyur Parmar",
    "hours": "Closed · Opens 11:00",
    "imageUrl": "https://th.bing.com/th?id=OLC.1q1NL4sh%2fJqu0A480x360&w=92&h=134&c=8&rs=1&qlt=80&cdv=1&pid=Local"
  },
  {
    "name": "Hanuman Clinic",
    "address": "Bhavnagar To Sidsar Road, Iskcon Temple, Chaitanya Villa Society, Bhavnagar, Gujarat 364002",
    "phone": "Hanuman Clinic",
    "hours": null,
    "imageUrl": "https://www.bing.com/maps/geoplat/REST/v1/Imagery/Map/RoadVibrant?ms=92,112&key=AnTcaqBi2ypp0xI-OZNi4W_ik2KhjgpqioTAtXLC8GzkMBQRMlyxvxyTnd5b73im&c=en-US&ur=in&da=n&logo=n&fmt=png&od=1&shading=hill&pp=21.73617,72.145912;dfp"
  },
  {
    "name": "HCG Hospitals Bhavnagar",
    "address": "1139 Sir Patini Road, Meghani Cir, Krishna Nagar, Bhavnagar, Gujarat 364001",
    "phone": "HCG Hospitals Bhavnagar",
    "hours": null,
    "imageUrl": "https://th.bing.com/th?id=OLC.eiJLIBM8HNZgEg480x360&w=92&h=112&c=8&rs=1&qlt=80&cdv=1&pid=Local"
  },
  {
    "name": "Om Ayu: Ayurveda Panchkarma Hospital",
    "address": "305, Adarsh Complex, Jail Road, Bhavnagar, Gujarat 364001",
    "phone": "Om Ayu: Ayurveda Panchkarma Hospital",
    "hours": null,
    "imageUrl": "https://th.bing.com/th?id=OLC.PlL%2bD2Dc31U2CQ480x360&w=92&h=112&c=8&rs=1&qlt=80&cdv=1&pid=Local"
  },
  {
    "name": "Shree Ji Clinic",
    "address": "Sp Institution Road, Kay Panimaduli Mandir, Kaliyabid, Bhavnagar, Gujarat 364002",
    "phone": "Shree Ji Clinic",
    "hours": null,
    "imageUrl": "https://www.bing.com/maps/geoplat/REST/v1/Imagery/Map/RoadVibrant?ms=92,112&key=AnTcaqBi2ypp0xI-OZNi4W_ik2KhjgpqioTAtXLC8GzkMBQRMlyxvxyTnd5b73im&c=en-US&ur=in&da=n&logo=n&fmt=png&od=1&shading=hill&pp=21.734276,72.133698;dfp"
  },
  {
    "name": "Dr Agarwal Eye Hospital (with Savani Eye Hospital)",
    "address": "Shivam Complex, Vijayraj Nagar, Opposite Madhav Complex, Bhavnagar, Gujarat 364003",
    "phone": "Dr Agarwal Eye Hospital (with Savani Eye Hospital)",
    "hours": "Closed · Opens 10:00",
    "imageUrl": "https://www.bing.com/maps/geoplat/REST/v1/Imagery/Map/RoadVibrant?ms=92,134&key=AnTcaqBi2ypp0xI-OZNi4W_ik2KhjgpqioTAtXLC8GzkMBQRMlyxvxyTnd5b73im&c=en-US&ur=in&da=n&logo=n&fmt=png&od=1&shading=hill&pp=21.765476,72.1287;dfp"
  },
  {
    "name": "Vrushti Urology Hospital - Dr. Nimit Oza (MS, DNB Urology)",
    "address": "Ayush Plaza Complex 3rd Floor, Jail Rd, opp. Sir T Hospital, Beside Bims Hospital, Bhavnagar, Gujarat",
    "phone": "Vrushti Urology Hospital - Dr. Nimit Oza (MS, DNB Urology)",
    "hours": null,
    "imageUrl": "https://th.bing.com/th?id=OLC.%2bk%2fPfaMvqGc3nA480x360&w=92&h=112&c=8&rs=1&qlt=80&cdv=1&pid=Local"
  },
  {
    "name": "Dr. Ishan Dhruva",
    "address": "Shyam Residency, G/F2, Haveli Street, Bhavnagar, Gujarat",
    "phone": "Dr. Ishan Dhruva",
    "hours": "Closed · Opens 10:00",
    "imageUrl": "https://th.bing.com/th?id=OLC.4a5O%2fv%2fc6%2bKyyQ480x360&w=92&h=112&c=8&rs=1&qlt=80&cdv=1&pid=Local"
  },
  {
    "name": "Dr. Shruti Shah",
    "address": "Ground Floor, Panchkutir Annexe, Kalubha Road, Bhavnagar, Gujarat 364001",
    "phone": "Dr. Shruti Shah",
    "hours": "Closed · Opens 10:00",
    "imageUrl": "https://www.bing.com/th?id=OLC.Tj8wynXIMTaWAg480x360&w=92&h=134&c=8&rs=1&qlt=80&cdv=1&pid=Local"
  },
  {
    "name": "Dr. Prakash Dhamecha- Family Physician",
    "address": "Shree Satnam Clinic; Rasala Camp, NR new Gurdwara, Behind Madhav Darshan, Kalanala, Bhavnagar, Gujara…",
    "phone": "Dr. Prakash Dhamecha- Family Physician",
    "hours": "Closed · Opens 10:00",
    "imageUrl": "https://www.bing.com/maps/geoplat/REST/v1/Imagery/Map/RoadVibrant?ms=92,134&key=AnTcaqBi2ypp0xI-OZNi4W_ik2KhjgpqioTAtXLC8GzkMBQRMlyxvxyTnd5b73im&c=en-US&ur=in&da=n&logo=n&fmt=png&od=1&shading=hill&pp=21.768887,72.141922;dfp"
  }
]