[
  {
    "name": "Keshav Porwal Hospital",
    "address": "Sector-10, Plot NO, 21-22, RC Vyas Colony, Bhilwara, Rajasthan 311001",
    "phone": "Keshav Porwal Hospital",
    "hours": null,
    "imageUrl": "https://www.bing.com/th?id=OLC.uCtAtvoJma1Izg480x360&w=92&h=112&c=8&rs=1&qlt=80&cdv=1&pid=Local"
  },
  {
    "name": "Dr vinod Kumar aheer gynecologist bhliwara",
    "address": "Quarter no. 5, Mahatma Gandhi Hospital, Near Canteen, Bhilwara, Rajasthan",
    "phone": "Dr vinod Kumar aheer gynecologist bhliwara",
    "hours": null,
    "imageUrl": "https://www.bing.com/th?id=OLC.VggROyRJ5K2J%2bg480x360&w=92&h=112&c=8&rs=1&qlt=80&cdv=1&pid=Local"
  },
  {
    "name": "Laxmi Clinic ( Dr. Jitendra Thawani)",
    "address": "42, Near Urban Câ€¦, Nagori Garden, Sindhu Nagar, Shastri Nagar",
    "phone": "Laxmi Clinic ( Dr. Jitendra Thawani)",
    "hours": null,
    "imageUrl": "https://www.bing.com/maps/geoplat/REST/v1/Imagery/Map/RoadVibrant?ms=92,112&key=AnTcaqBi2ypp0xI-OZNi4W_ik2KhjgpqioTAtXLC8GzkMBQRMlyxvxyTnd5b73im&c=en-US&ur=in&da=n&logo=n&fmt=png&od=1&shading=hill&pp=25.339539,74.640648;dfp"
  },
  {
    "name": "Parivar Seva Clinic",
    "address": "B-343, Dr. R K Colony, Rajiv Chowk, Near Majdoor Choraha Tel: 01482- 235400, Bhilwara, Rajasthan",
    "phone": "Parivar Seva Clinic",
    "hours": null,
    "imageUrl": "https://www.bing.com/maps/geoplat/REST/v1/Imagery/Map/RoadVibrant?ms=92,112&key=AnTcaqBi2ypp0xI-OZNi4W_ik2KhjgpqioTAtXLC8GzkMBQRMlyxvxyTnd5b73im&c=en-US&ur=in&da=n&logo=n&fmt=png&od=1&shading=hill&pp=25.36018,74.638199;dfp"
  },
  {
    "name": "Kgn Clinic",
    "address": "Gulzar Pura, Bandiya Rd, Near Gulzar Pura Masjid, Makrana, Rajasthan",
    "phone": "Kgn Clinic",
    "hours": null,
    "imageUrl": "https://www.bing.com/maps/geoplat/REST/v1/Imagery/Map/RoadVibrant?ms=92,112&key=AnTcaqBi2ypp0xI-OZNi4W_ik2KhjgpqioTAtXLC8GzkMBQRMlyxvxyTnd5b73im&c=en-US&ur=in&da=n&logo=n&fmt=png&od=1&shading=hill&pp=25.342817,74.625763;dfp"
  },
  {
    "name": "Gks Arogya Clinic",
    "address": "A- 393, Opp. Pragya Bhavan Vidyut Nagar Behind Private Bus Stand, Bhilwara, Rajasthan",
    "phone": "Gks Arogya Clinic",
    "hours": null,
    "imageUrl": "https://www.bing.com/maps/geoplat/REST/v1/Imagery/Map/RoadVibrant?ms=92,112&key=AnTcaqBi2ypp0xI-OZNi4W_ik2KhjgpqioTAtXLC8GzkMBQRMlyxvxyTnd5b73im&c=en-US&ur=in&da=n&logo=n&fmt=png&od=1&shading=hill&pp=25.340746,74.6315;dfp"
  },
  {
    "name": "Dr KK Bhandari Clinic",
    "address": "R C Vyas Colony Love Garden Road, Petrol Pump, Pathik Nagar, Bhilwara, Rajasthan 311001",
    "phone": "Dr KK Bhandari Clinic",
    "hours": null,
    "imageUrl": "https://www.bing.com/maps/geoplat/REST/v1/Imagery/Map/RoadVibrant?ms=92,112&key=AnTcaqBi2ypp0xI-OZNi4W_ik2KhjgpqioTAtXLC8GzkMBQRMlyxvxyTnd5b73im&c=en-US&ur=in&da=n&logo=n&fmt=png&od=1&shading=hill&pp=25.35503,74.64296;dfp"
  },
  {
    "name": "Rathi Clinic",
    "address": "Near Mahesh Hospital, Seva Sadhan Road, Bhilwara, Rajasthan 311011",
    "phone": "Rathi Clinic",
    "hours": null,
    "imageUrl": "https://th.bing.com/th?id=OLC.KvZGNEN3AtaTHQ480x360&w=92&h=112&c=8&rs=1&qlt=80&cdv=1&pid=Local"
  },
  {
    "name": "Dr Ajay Garg Clinic Center",
    "address": "Mahesh Colony Road, Bhilwara, Rajasthan 311001",
    "phone": "Dr Ajay Garg Clinic Center",
    "hours": null,
    "imageUrl": "https://th.bing.com/th?id=OLC.fCvxLI4vudibPg480x360&w=92&h=112&c=8&rs=1&qlt=80&cdv=1&pid=Local"
  },
  {
    "name": "Dr. Lalit Mohan Sharma - Cancer Doctor | Best Oncologist",
    "address": "KP Tower Near Rajiv Gandhi Auditorium, Bhilwara, Rajasthan 311001",
    "phone": "Dr. Lalit Mohan Sharma - Cancer Doctor | Best Oncologist",
    "hours": "Open 24 hours",
    "imageUrl": "https://th.bing.com/th?id=OLC.TjbwUS6%2bJIVN2Q480x360&w=92&h=134&c=8&rs=1&qlt=80&cdv=1&pid=Local"
  },
  {
    "name": "Dr Guwan Bhushan Clinic",
    "address": "Krishna Hospital Devariya Bala Ji Road, Krishna Hospital, Pathik Nagar, Bhilwara, Rajasthan 311001",
    "phone": "Dr Guwan Bhushan Clinic",
    "hours": null,
    "imageUrl": "https://www.bing.com/maps/geoplat/REST/v1/Imagery/Map/RoadVibrant?ms=92,112&key=AnTcaqBi2ypp0xI-OZNi4W_ik2KhjgpqioTAtXLC8GzkMBQRMlyxvxyTnd5b73im&c=en-US&ur=in&da=n&logo=n&fmt=png&od=1&shading=hill&pp=25.356447,74.645493;dfp"
  },
  {
    "name": "Maruti Clinic Bhilwara",
    "address": "97-a, Main Road R.k. Colony Bhilwara, Bhilwara, Rajasthan, Rajasthan 311001",
    "phone": "Maruti Clinic Bhilwara",
    "hours": null,
    "imageUrl": "https://th.bing.com/th?id=OLC.o1AqrvRWRcasrw480x360&w=92&h=112&c=8&rs=1&qlt=80&cdv=1&pid=Local"
  },
  {
    "name": "Jodhpur Chest Clinic Dr. Ankit Rathi",
    "address": "Vishvakarma Medical, Behind Pratap Nagar Private Bus Stand, Pratap Nagar p.g.College ke Pass, Rajasthan",
    "phone": "Jodhpur Chest Clinic Dr. Ankit Rathi",
    "hours": null,
    "imageUrl": "https://www.bing.com/maps/geoplat/REST/v1/Imagery/Map/RoadVibrant?ms=92,112&key=AnTcaqBi2ypp0xI-OZNi4W_ik2KhjgpqioTAtXLC8GzkMBQRMlyxvxyTnd5b73im&c=en-US&ur=in&da=n&logo=n&fmt=png&od=1&shading=hill&pp=25.336506,74.623383;dfp"
  },
  {
    "name": "Dr Abhishek Pareek - Best Cancer Doctor | Onco-Surgeon | Oncologist",
    "address": "23, Love Garden Rd, R C Vyas Colony, Bhilwara, Rajasthan",
    "phone": "Dr Abhishek Pareek - Best Cancer Doctor | Onco-Surgeon | Oncologist",
    "hours": null,
    "imageUrl": "https://www.bing.com/maps/geoplat/REST/v1/Imagery/Map/RoadVibrant?ms=92,112&key=AnTcaqBi2ypp0xI-OZNi4W_ik2KhjgpqioTAtXLC8GzkMBQRMlyxvxyTnd5b73im&c=en-US&ur=in&da=n&logo=n&fmt=png&od=1&shading=hill&pp=25.361509,74.634659;dfp"
  },
  {
    "name": "Dr Naruka Homoeo Clinic Center",
    "address": "In Fatah Tower, Mg Hospital Road, Bhilwara, Rajasthan 311011",
    "phone": "Dr Naruka Homoeo Clinic Center",
    "hours": null,
    "imageUrl": "https://th.bing.com/th?id=OLC.JUo2FUbEKNBDqQ480x360&w=92&h=112&c=8&rs=1&qlt=80&cdv=1&pid=Local"
  },
  {
    "name": "Sparsh hospital and IVF centre( Dr Swati gupta)",
    "address": "Satyam Complex, Dabwali Rd, Gandhi Colony, Shri Gaushala Mohalla, Sirsa, Haryana",
    "phone": "Sparsh hospital and IVF centre( Dr Swati gupta)",
    "hours": null,
    "imageUrl": "https://www.bing.com/maps/geoplat/REST/v1/Imagery/Map/RoadVibrant?ms=92,112&key=AnTcaqBi2ypp0xI-OZNi4W_ik2KhjgpqioTAtXLC8GzkMBQRMlyxvxyTnd5b73im&c=en-US&ur=in&da=n&logo=n&fmt=png&od=1&shading=hill&pp=25.344978,74.618301;dfp"
  },
  {
    "name": "Dr. R S Lakhawat Ms Ent",
    "address": "Kumbha Circle, Bhilwara, Rajasthan 311001",
    "phone": "Dr. R S Lakhawat Ms Ent",
    "hours": null,
    "imageUrl": "https://th.bing.com/th?id=OLC.tsECC2emMEMmoA480x360&w=92&h=112&c=8&rs=1&qlt=80&cdv=1&pid=Local"
  },
  {
    "name": "Dev ENT Hospital and vertigo Clinic",
    "address": "8f-9 R. C. Vyas Colony, Near Rajiv Gandhi Auditorium, Bhilwara, Rajasthan, Rajasthan 311001",
    "phone": "Dev ENT Hospital and vertigo Clinic",
    "hours": null,
    "imageUrl": "https://th.bing.com/th?id=OLC.WnPV3DDX%2bZXDvQ480x360&w=92&h=112&c=8&rs=1&qlt=80&cdv=1&pid=Local"
  },
  {
    "name": "Keshav Porwal Hospital",
    "address": "Sector-10, Plot NO, 21-22, RC Vyas Colony, Bhilwara, Rajasthan 311001",
    "phone": "Keshav Porwal Hospital",
    "hours": null,
    "imageUrl": "https://www.bing.com/th?id=OLC.uCtAtvoJma1Izg480x360&w=92&h=112&c=8&rs=1&qlt=80&cdv=1&pid=Local"
  },
  {
    "name": "Dr vinod Kumar aheer gynecologist bhliwara",
    "address": "Quarter no. 5, Mahatma Gandhi Hospital, Near Canteen, Bhilwara, Rajasthan",
    "phone": "Dr vinod Kumar aheer gynecologist bhliwara",
    "hours": null,
    "imageUrl": "https://www.bing.com/th?id=OLC.VggROyRJ5K2J%2bg480x360&w=92&h=112&c=8&rs=1&qlt=80&cdv=1&pid=Local"
  }
]