[
  {
    "name": "Stree Clinic ( A Clinic Of Parivar Seva Sanstha)",
    "address": "Plot No. 15, Janpath Rd, Behind Royal Midtown, Bhubaneswar, Odisha 751009",
    "phone": "Stree Clinic ( A Clinic Of Parivar Seva Sanstha)",
    "hours": null,
    "imageUrl": "https://www.bing.com/th?id=OLC.gwlsSIdVP%2blZWQ480x360&w=92&h=112&c=8&rs=1&qlt=80&cdv=1&pid=Local"
  },
  {
    "name": "Dr. Mahesh Rath",
    "address": "Maa Shakti Hospital, Behind Capital Hospital, Unit 6, Ganga Nagar, Bhubaneswar, Odisha",
    "phone": "Dr. Mahesh Rath",
    "hours": null,
    "imageUrl": "https://www.bing.com/maps/geoplat/REST/v1/Imagery/Map/RoadVibrant?ms=92,112&key=AnTcaqBi2ypp0xI-OZNi4W_ik2KhjgpqioTAtXLC8GzkMBQRMlyxvxyTnd5b73im&c=en-US&ur=in&da=n&logo=n&fmt=png&od=1&shading=hill&pp=20.267309,85.820015;dfp"
  },
  {
    "name": "Dr Nilakantha Mishra",
    "address": "Vr-60 Unit-6 Behind Bhubaneswar Club Bhubaneshwar",
    "phone": "Dr Nilakantha Mishra",
    "hours": null,
    "imageUrl": "https://www.bing.com/maps/geoplat/REST/v1/Imagery/Map/RoadVibrant?ms=92,112&key=AnTcaqBi2ypp0xI-OZNi4W_ik2KhjgpqioTAtXLC8GzkMBQRMlyxvxyTnd5b73im&c=en-US&ur=in&da=n&logo=n&fmt=png&od=1&shading=hill&pp=20.267696,85.8228;dfp"
  },
  {
    "name": "Shanti Pawan superspeciality clinic",
    "address": "Plot No: A/64, Saheed Nagar, Bhubaneswar, Odisha 751007",
    "phone": "Shanti Pawan superspeciality clinic",
    "hours": null,
    "imageUrl": "https://www.bing.com/maps/geoplat/REST/v1/Imagery/Map/RoadVibrant?ms=92,112&key=AnTcaqBi2ypp0xI-OZNi4W_ik2KhjgpqioTAtXLC8GzkMBQRMlyxvxyTnd5b73im&c=en-US&ur=in&da=n&logo=n&fmt=png&od=1&shading=hill&pp=20.294971,85.846008;dfp"
  },
  {
    "name": "Dr. Philips Routray",
    "address": "Crescent Tower, Plot Number 476& 477, 3rd and 4th Floor, Bomikhal, Cuttack Road, Orissa",
    "phone": "Dr. Philips Routray",
    "hours": "Open · Closes 17:00",
    "imageUrl": "https://www.bing.com/maps/geoplat/REST/v1/Imagery/Map/RoadVibrant?ms=92,112&key=AnTcaqBi2ypp0xI-OZNi4W_ik2KhjgpqioTAtXLC8GzkMBQRMlyxvxyTnd5b73im&c=en-US&ur=in&da=n&logo=n&fmt=png&od=1&shading=hill&pp=20.285877,85.857658;dfp"
  },
  {
    "name": "Dr. Kedarnath Naik M.D. Homeopathic Physician",
    "address": "Plot No- N 5/ 410, IRC Village, Nayapalli Land Mark, Behind Bata Show Room, Bhubaneswar, Odisha",
    "phone": "Dr. Kedarnath Naik M.D. Homeopathic Physician",
    "hours": null,
    "imageUrl": "https://www.bing.com/th?id=OLC.eEWhlG2XxlfnLw480x360&w=92&h=112&c=8&rs=1&qlt=80&cdv=1&pid=Local"
  },
  {
    "name": "Dr. Sini S Venugopal",
    "address": "Scr 62, Kharavel Nagar, Unit- 3, Landmark: Behind Priya Hotel, Bhubaneswar 751025",
    "phone": "Dr. Sini S Venugopal",
    "hours": "Closed · Opens 09:00",
    "imageUrl": "https://th.bing.com/th?id=OLC.FZU5Jb8AH8dwjw480x360&w=92&h=134&c=8&rs=1&qlt=80&cdv=1&pid=Local"
  },
  {
    "name": "DR. Muralidhar Eye Hospital Llp",
    "address": "A/24, Nilakantha Nagar, Behind Regional Passport Office, Unit-8, Nayapalli, Bhubaneswar, Odisha 751012",
    "phone": "DR. Muralidhar Eye Hospital Llp",
    "hours": "Closed · Opens 09:00",
    "imageUrl": "https://th.bing.com/th?id=OLC.im6Wfl4VatU6yw480x360&w=92&h=134&c=8&rs=1&qlt=80&cdv=1&pid=Local"
  },
  {
    "name": "All Odisha Hearing and Speech Therapy Clinic",
    "address": "All Odisha Hearing & Speech Therapy Clinic.Plot-36, District Center, Behind Chandrasekhar pur Bhart Petrol …",
    "phone": "All Odisha Hearing and Speech Therapy Clinic",
    "hours": "Closed · Opens 09:00",
    "imageUrl": "https://th.bing.com/th?id=OLC.6msu%2ffpp8U1MxA480x360&w=92&h=134&c=8&rs=1&qlt=80&cdv=1&pid=Local"
  },
  {
    "name": "Ganapati Homoeopathic Clinic",
    "address": "Plot NO-38, Budhanagar, Behind Hotel Ekamra & Deepali, Kalpana Square, Bhubaneswar, Odisha",
    "phone": "Ganapati Homoeopathic Clinic",
    "hours": null,
    "imageUrl": "https://www.bing.com/maps/geoplat/REST/v1/Imagery/Map/RoadVibrant?ms=92,112&key=AnTcaqBi2ypp0xI-OZNi4W_ik2KhjgpqioTAtXLC8GzkMBQRMlyxvxyTnd5b73im&c=en-US&ur=in&da=n&logo=n&fmt=png&od=1&shading=hill&pp=20.260298,85.842873;dfp"
  },
  {
    "name": "Sunayan Eye Care (Dr.Subal Kishor Kar and Dr Sushil Kumar Kar)",
    "address": "Sunayan Marg, Behind SP Office, Shivanand Nagar, Ward No 10, Bargarh, Odisha",
    "phone": "Sunayan Eye Care (Dr.Subal Kishor Kar and Dr Sushil Kumar Kar)",
    "hours": null,
    "imageUrl": "https://www.bing.com/maps/geoplat/REST/v1/Imagery/Map/RoadVibrant?ms=92,112&key=AnTcaqBi2ypp0xI-OZNi4W_ik2KhjgpqioTAtXLC8GzkMBQRMlyxvxyTnd5b73im&c=en-US&ur=in&da=n&logo=n&fmt=png&od=1&shading=hill&pp=20.258123,85.792511;dfp"
  },
  {
    "name": "Dr. Shashirekha G | RV Dental Baramunda",
    "address": "B-122, HIG, BDA Duplex, Behind RAJ Electronics, Baramunda, Bhubaneswar, Madhya Pradesh 751003",
    "phone": "Dr. Shashirekha G | RV Dental Baramunda",
    "hours": "Closed · Opens 10:30",
    "imageUrl": "https://th.bing.com/th?id=OLC.SOgeNPSqaBPGkg480x360&w=92&h=112&c=8&rs=1&qlt=80&cdv=1&pid=Local"
  },
  {
    "name": "Dr. Somya Ranjan Sahoo",
    "address": "Districtcentre, Behind Bharat Petrol Pump, Orissa",
    "phone": "Dr. Somya Ranjan Sahoo",
    "hours": "Closed · Opens 10:00",
    "imageUrl": "https://www.bing.com/maps/geoplat/REST/v1/Imagery/Map/RoadVibrant?ms=92,112&key=AnTcaqBi2ypp0xI-OZNi4W_ik2KhjgpqioTAtXLC8GzkMBQRMlyxvxyTnd5b73im&c=en-US&ur=in&da=n&logo=n&fmt=png&od=1&shading=hill&pp=20.326063,85.81929;dfp"
  },
  {
    "name": "Stree Clinic ( A Clinic Of Parivar Seva Sanstha)",
    "address": "Plot No. 15, Janpath Rd, Behind Royal Midtown, Bhubaneswar, Odisha 751009",
    "phone": "Stree Clinic ( A Clinic Of Parivar Seva Sanstha)",
    "hours": null,
    "imageUrl": "https://www.bing.com/th?id=OLC.gwlsSIdVP%2blZWQ480x360&w=92&h=112&c=8&rs=1&qlt=80&cdv=1&pid=Local"
  },
  {
    "name": "Dr. Mahesh Rath",
    "address": "Maa Shakti Hospital, Behind Capital Hospital, Unit 6, Ganga Nagar, Bhubaneswar, Odisha",
    "phone": "Dr. Mahesh Rath",
    "hours": null,
    "imageUrl": "https://www.bing.com/maps/geoplat/REST/v1/Imagery/Map/RoadVibrant?ms=92,112&key=AnTcaqBi2ypp0xI-OZNi4W_ik2KhjgpqioTAtXLC8GzkMBQRMlyxvxyTnd5b73im&c=en-US&ur=in&da=n&logo=n&fmt=png&od=1&shading=hill&pp=20.267309,85.820015;dfp"
  },
  {
    "name": "Dr Nilakantha Mishra",
    "address": "Vr-60 Unit-6 Behind Bhubaneswar Club Bhubaneshwar",
    "phone": "Dr Nilakantha Mishra",
    "hours": null,
    "imageUrl": "https://www.bing.com/maps/geoplat/REST/v1/Imagery/Map/RoadVibrant?ms=92,112&key=AnTcaqBi2ypp0xI-OZNi4W_ik2KhjgpqioTAtXLC8GzkMBQRMlyxvxyTnd5b73im&c=en-US&ur=in&da=n&logo=n&fmt=png&od=1&shading=hill&pp=20.267696,85.8228;dfp"
  },
  {
    "name": "Shanti Pawan superspeciality clinic",
    "address": "Plot No: A/64, Saheed Nagar, Bhubaneswar, Odisha 751007",
    "phone": "Shanti Pawan superspeciality clinic",
    "hours": null,
    "imageUrl": "https://www.bing.com/maps/geoplat/REST/v1/Imagery/Map/RoadVibrant?ms=92,112&key=AnTcaqBi2ypp0xI-OZNi4W_ik2KhjgpqioTAtXLC8GzkMBQRMlyxvxyTnd5b73im&c=en-US&ur=in&da=n&logo=n&fmt=png&od=1&shading=hill&pp=20.294971,85.846008;dfp"
  },
  {
    "name": "Dr. Philips Routray",
    "address": "Crescent Tower, Plot Number 476& 477, 3rd and 4th Floor, Bomikhal, Cuttack Road, Orissa",
    "phone": "Dr. Philips Routray",
    "hours": "Open · Closes 17:00",
    "imageUrl": "https://www.bing.com/maps/geoplat/REST/v1/Imagery/Map/RoadVibrant?ms=92,112&key=AnTcaqBi2ypp0xI-OZNi4W_ik2KhjgpqioTAtXLC8GzkMBQRMlyxvxyTnd5b73im&c=en-US&ur=in&da=n&logo=n&fmt=png&od=1&shading=hill&pp=20.285877,85.857658;dfp"
  },
  {
    "name": "Dr. Kedarnath Naik M.D. Homeopathic Physician",
    "address": "Plot No- N 5/ 410, IRC Village, Nayapalli Land Mark, Behind Bata Show Room, Bhubaneswar, Odisha",
    "phone": "Dr. Kedarnath Naik M.D. Homeopathic Physician",
    "hours": null,
    "imageUrl": "https://www.bing.com/th?id=OLC.eEWhlG2XxlfnLw480x360&w=92&h=112&c=8&rs=1&qlt=80&cdv=1&pid=Local"
  },
  {
    "name": "Dr. Sini S Venugopal",
    "address": "Scr 62, Kharavel Nagar, Unit- 3, Landmark: Behind Priya Hotel, Bhubaneswar 751025",
    "phone": "Dr. Sini S Venugopal",
    "hours": "Closed · Opens 09:00",
    "imageUrl": "https://th.bing.com/th?id=OLC.FZU5Jb8AH8dwjw480x360&w=92&h=134&c=8&rs=1&qlt=80&cdv=1&pid=Local"
  }
]