[
  {
    "name": "kaddam Multispeciality hospital",
    "address": "Mini Bypass, Near New Bus Stand, Bhiwani – 127021, Bhiwani, Haryana, Haryana 127021",
    "phone": "kaddam Multispeciality hospital",
    "hours": "Open · Closes 17:00",
    "imageUrl": "https://www.bing.com/th?id=OLC.IjBta7o2VkaJJA480x360&w=92&h=134&c=8&rs=1&qlt=80&cdv=1&pid=Local"
  },
  {
    "name": "Dr Vijay Kaushik",
    "address": "Hansi Gate, Bhiwani, Haryana, Haryana 127021",
    "phone": "Dr Vijay Kaushik",
    "hours": null,
    "imageUrl": "https://www.bing.com/th?id=OLC.YVE%2f9Ltbt7bzzg480x360&w=92&h=112&c=8&rs=1&qlt=80&cdv=1&pid=Local"
  },
  {
    "name": "Dr. Gaurav Dixit",
    "address": "Meham Gate, Jalan Nagar, Landmark: Near Old Bus Stand, Bhiwani, Haryana",
    "phone": "Dr. Gaurav Dixit",
    "hours": "Closed · Opens Sep 29 at 09:00",
    "imageUrl": "https://www.bing.com/maps/geoplat/REST/v1/Imagery/Map/RoadVibrant?ms=92,112&key=AnTcaqBi2ypp0xI-OZNi4W_ik2KhjgpqioTAtXLC8GzkMBQRMlyxvxyTnd5b73im&c=en-US&ur=in&da=n&logo=n&fmt=png&od=1&shading=hill&pp=28.79804,76.140686;dfp"
  },
  {
    "name": "Dr. Anurag Juneja- General Physician",
    "address": "Juneja Hospital, 1St Floor, Rohtak Gate, Opp. Indian Oil Petrol Pump, Bhiwani, Haryana 127021",
    "phone": "Dr. Anurag Juneja- General Physician",
    "hours": "Closed · Opens 09:00",
    "imageUrl": "https://www.bing.com/maps/geoplat/REST/v1/Imagery/Map/RoadVibrant?ms=92,134&key=AnTcaqBi2ypp0xI-OZNi4W_ik2KhjgpqioTAtXLC8GzkMBQRMlyxvxyTnd5b73im&c=en-US&ur=in&da=n&logo=n&fmt=png&od=1&shading=hill&pp=28.786091,76.124123;dfp"
  },
  {
    "name": "Dr. Triloki Gupta- General & Laparoscopic Surgeon",
    "address": "City Nursing Home & Surgical Centre, Opp. Old Bus Stand, Court Road, Bhiwani, Haryana 127021",
    "phone": "Dr. Triloki Gupta- General & Laparoscopic Surgeon",
    "hours": "Closed · Opens 09:00",
    "imageUrl": "https://www.bing.com/maps/geoplat/REST/v1/Imagery/Map/RoadVibrant?ms=92,134&key=AnTcaqBi2ypp0xI-OZNi4W_ik2KhjgpqioTAtXLC8GzkMBQRMlyxvxyTnd5b73im&c=en-US&ur=in&da=n&logo=n&fmt=png&od=1&shading=hill&pp=28.800632,76.13942;dfp"
  },
  {
    "name": "Dr Durgaji Clinic",
    "address": "Railway Road, Ghanta Ghar Chowk, Park Colony Vijay Nagar, Bhiwani, Haryana 127021",
    "phone": "Dr Durgaji Clinic",
    "hours": null,
    "imageUrl": "https://www.bing.com/maps/geoplat/REST/v1/Imagery/Map/RoadVibrant?ms=92,112&key=AnTcaqBi2ypp0xI-OZNi4W_ik2KhjgpqioTAtXLC8GzkMBQRMlyxvxyTnd5b73im&c=en-US&ur=in&da=n&logo=n&fmt=png&od=1&shading=hill&pp=28.798254,76.131035;dfp"
  },
  {
    "name": "Shuddhi Clinic Bhiwani",
    "address": "H.No 150, Chiranjivi Colony, BTM Road, Near Bhiwani Hulchul News Office, Bhiwani, Haryana 127021",
    "phone": "Shuddhi Clinic Bhiwani",
    "hours": "Closed · Opens 09:00",
    "imageUrl": "https://th.bing.com/th?id=OLC.o2Z2OM2Z2k8N%2fw480x360&w=92&h=134&c=8&rs=1&qlt=80&cdv=1&pid=Local"
  },
  {
    "name": "Dr. Savita Agarwal- Obstetrics and Gynecologist",
    "address": "Ganpatrai Maternity and General Hospital, Circular Rd, Opposite Nehru Park, Park Colony, Vijay Nagar, Bhiwa…",
    "phone": "Dr. Savita Agarwal- Obstetrics and Gynecologist",
    "hours": "Closed · Opens 09:00",
    "imageUrl": "https://th.bing.com/th?id=OLC.FDHMxsDoB575WQ480x360&w=92&h=134&c=8&rs=1&qlt=80&cdv=1&pid=Local"
  },
  {
    "name": "Balaji Clinic",
    "address": "Punia Maternity Orthopedics Hospital, Indira Nagar, Bhiwani, Haryana 127021",
    "phone": "Balaji Clinic",
    "hours": null,
    "imageUrl": "https://www.bing.com/maps/geoplat/REST/v1/Imagery/Map/RoadVibrant?ms=92,112&key=AnTcaqBi2ypp0xI-OZNi4W_ik2KhjgpqioTAtXLC8GzkMBQRMlyxvxyTnd5b73im&c=en-US&ur=in&da=n&logo=n&fmt=png&od=1&shading=hill&pp=28.804724,76.135002;dfp"
  },
  {
    "name": "Dr. Santosh Kumar",
    "address": "32, Panchayat Pocket, Zoo Road, Bhiwani, Haryana",
    "phone": "Dr. Santosh Kumar",
    "hours": "Closed · Opens 10:00",
    "imageUrl": "https://th.bing.com/th?id=OLC.PPVCPpu7uhEGpg480x360&w=92&h=112&c=8&rs=1&qlt=80&cdv=1&pid=Local"
  },
  {
    "name": "Bharat Ent Hospital",
    "address": "Near Halwasia School, Rohtak Gate Bhiwani, Bhiwani, Haryana 127021",
    "phone": "Bharat Ent Hospital",
    "hours": null,
    "imageUrl": "https://th.bing.com/th?id=OLC.PdR6wcM6KZiphw480x360&w=92&h=112&c=8&rs=1&qlt=80&cdv=1&pid=Local"
  },
  {
    "name": "ROHIT",
    "address": "Ashirwad Hospital, Circular Road, Inbetween Ghanta Ghar and Dinod Gate, Bhiwani, Haryana 127021",
    "phone": "ROHIT",
    "hours": "Closed · Opens 09:00",
    "imageUrl": "https://th.bing.com/th?id=OLC.NMo0jSFaTrfTvA480x360&w=92&h=134&c=8&rs=1&qlt=80&cdv=1&pid=Local"
  },
  {
    "name": "Dr Khetarpal Pathology Lab Llp",
    "address": "Shop No. 105, Crown Plaza, Mall, Old Bus Stand, Bhiwani, Haryana 127021",
    "phone": "Dr Khetarpal Pathology Lab Llp",
    "hours": null,
    "imageUrl": "https://www.bing.com/maps/geoplat/REST/v1/Imagery/Map/RoadVibrant?ms=92,112&key=AnTcaqBi2ypp0xI-OZNi4W_ik2KhjgpqioTAtXLC8GzkMBQRMlyxvxyTnd5b73im&c=en-US&ur=in&da=n&logo=n&fmt=png&od=1&shading=hill&pp=28.80003,76.140717;dfp"
  },
  {
    "name": "Dev Kamal Skin & Laser Clinic",
    "address": "Charkhi Dadri Road Near Rohtak Gate Near eye Q Hospital, Bhiwani, Haryana 127021",
    "phone": "Dev Kamal Skin & Laser Clinic",
    "hours": null,
    "imageUrl": "https://th.bing.com/th?id=OLC.LaGMLN8aWLbdIQ480x360&w=92&h=112&c=8&rs=1&qlt=80&cdv=1&pid=Local"
  },
  {
    "name": "Jerath Path Labs & Allergy Testing Centre",
    "address": "DR Khetarpal Pathology LAB 105, Basement, Crown Plaza Mall, Old Bus Stand Rd, Bhiwani, Haryana",
    "phone": "Jerath Path Labs & Allergy Testing Centre",
    "hours": null,
    "imageUrl": "https://th.bing.com/th?id=OLC.uwww%2b84bN261PA480x360&w=92&h=112&c=8&rs=1&qlt=80&cdv=1&pid=Local"
  },
  {
    "name": "Navneet Hospital And Maternity Home",
    "address": "Bhiwani Tosham Road, Ganesh Complex, Tosham, Haryana 127040",
    "phone": "Navneet Hospital And Maternity Home",
    "hours": null,
    "imageUrl": "https://th.bing.com/th?id=OLC.0DRvMY7eIsBVUQ480x360&w=92&h=112&c=8&rs=1&qlt=80&cdv=1&pid=Local"
  },
  {
    "name": "Dietician Richa Garg's Arogyam Bhiwani",
    "address": "Chitrakoot, Bhiwani - Hansi Rd, Park Colony, Vijay Nagar, Haryana 127021",
    "phone": "Dietician Richa Garg's Arogyam Bhiwani",
    "hours": null,
    "imageUrl": "https://www.bing.com/maps/geoplat/REST/v1/Imagery/Map/RoadVibrant?ms=92,112&key=AnTcaqBi2ypp0xI-OZNi4W_ik2KhjgpqioTAtXLC8GzkMBQRMlyxvxyTnd5b73im&c=en-US&ur=in&da=n&logo=n&fmt=png&od=1&shading=hill&pp=28.805193,76.132599;dfp"
  },
  {
    "name": "Dr. Saurabh Singhal",
    "address": "Old Anaj Mandi, Landmark: Near Shiv Mandir, Bhiwani, Haryana",
    "phone": "Dr. Saurabh Singhal",
    "hours": "Closed · Opens 10:00",
    "imageUrl": "https://th.bing.com/th?id=OLC.1d9CBTG6kDd2JA480x360&w=92&h=112&c=8&rs=1&qlt=80&cdv=1&pid=Local"
  },
  {
    "name": "kaddam Multispeciality hospital",
    "address": "Mini Bypass, Near New Bus Stand, Bhiwani – 127021, Bhiwani, Haryana, Haryana 127021",
    "phone": "kaddam Multispeciality hospital",
    "hours": "Open · Closes 17:00",
    "imageUrl": "https://www.bing.com/th?id=OLC.IjBta7o2VkaJJA480x360&w=92&h=134&c=8&rs=1&qlt=80&cdv=1&pid=Local"
  },
  {
    "name": "Dr Vijay Kaushik",
    "address": "Hansi Gate, Bhiwani, Haryana, Haryana 127021",
    "phone": "Dr Vijay Kaushik",
    "hours": null,
    "imageUrl": "https://www.bing.com/th?id=OLC.YVE%2f9Ltbt7bzzg480x360&w=92&h=112&c=8&rs=1&qlt=80&cdv=1&pid=Local"
  }
]