[
  {
    "name": "Shuddhi Clinic",
    "address": "Mission Road Girjamore, Near G Super Market, Arra Bhojpur, Bhojpur, Bihar 802301",
    "phone": "Shuddhi Clinic",
    "hours": null,
    "imageUrl": "https://www.bing.com/th?id=OLC.ocqv4kxAwmICPg480x360&w=92&h=112&c=8&rs=1&qlt=80&cdv=1&pid=Local"
  },
  {
    "name": "Bindhyachal Prasad Memorial Clinic",
    "address": "Station Road, Arrah, Bihar 802301",
    "phone": "Bindhyachal Prasad Memorial Clinic",
    "hours": "Closed 路 Opens 08:00",
    "imageUrl": "https://www.bing.com/maps/geoplat/REST/v1/Imagery/Map/RoadVibrant?ms=92,134&key=AnTcaqBi2ypp0xI-OZNi4W_ik2KhjgpqioTAtXLC8GzkMBQRMlyxvxyTnd5b73im&c=en-US&ur=in&da=n&logo=n&fmt=png&od=1&shading=hill&pp=25.549719,84.662773;dfp"
  },
  {
    "name": "Dr. B K Shukla- General Physician",
    "address": "Dr. B K Shukla's Clinic, K G Road, Nawada, Near Hari Jee Ka Hata, Arrah, Bihar 802301",
    "phone": "Dr. B K Shukla- General Physician",
    "hours": "Closed 路 Opens 10:00",
    "imageUrl": "https://www.bing.com/maps/geoplat/REST/v1/Imagery/Map/RoadVibrant?ms=92,134&key=AnTcaqBi2ypp0xI-OZNi4W_ik2KhjgpqioTAtXLC8GzkMBQRMlyxvxyTnd5b73im&c=en-US&ur=in&da=n&logo=n&fmt=png&od=1&shading=hill&pp=25.557432,84.658768;dfp"
  },
  {
    "name": "Dr R P Singh Clinic",
    "address": "Dhobi Ghat, Sh 12, Jagdev Nagar, Arrah, Bihar 802301",
    "phone": "Dr R P Singh Clinic",
    "hours": null,
    "imageUrl": "https://www.bing.com/maps/geoplat/REST/v1/Imagery/Map/RoadVibrant?ms=92,112&key=AnTcaqBi2ypp0xI-OZNi4W_ik2KhjgpqioTAtXLC8GzkMBQRMlyxvxyTnd5b73im&c=en-US&ur=in&da=n&logo=n&fmt=png&od=1&shading=hill&pp=25.549498,84.658386;dfp"
  },
  {
    "name": "Dr Virendra Kumar Clinic",
    "address": "Petrol Pump, South Ramna Road, Mahatma Gandhi Nagar, Arrah, Bihar 802301",
    "phone": "Dr Virendra Kumar Clinic",
    "hours": null,
    "imageUrl": "https://www.bing.com/maps/geoplat/REST/v1/Imagery/Map/RoadVibrant?ms=92,112&key=AnTcaqBi2ypp0xI-OZNi4W_ik2KhjgpqioTAtXLC8GzkMBQRMlyxvxyTnd5b73im&c=en-US&ur=in&da=n&logo=n&fmt=png&od=1&shading=hill&pp=25.558781,84.658066;dfp"
  },
  {
    "name": "Dr. Madhubala Sinha",
    "address": "KG Road, Near TVS Showroom, Nawada, Arrah, Bihar 802301",
    "phone": "Dr. Madhubala Sinha",
    "hours": "Open 24 hours",
    "imageUrl": "https://www.bing.com/maps/geoplat/REST/v1/Imagery/Map/RoadVibrant?ms=92,134&key=AnTcaqBi2ypp0xI-OZNi4W_ik2KhjgpqioTAtXLC8GzkMBQRMlyxvxyTnd5b73im&c=en-US&ur=in&da=n&logo=n&fmt=png&od=1&shading=hill&pp=25.555555,84.661484;dfp"
  },
  {
    "name": "Dr Vinod Prasad Singh Clinic",
    "address": "Sh12, Shivganj, Arrah, Bihar 802301",
    "phone": "Dr Vinod Prasad Singh Clinic",
    "hours": null,
    "imageUrl": "https://www.bing.com/maps/geoplat/REST/v1/Imagery/Map/RoadVibrant?ms=92,112&key=AnTcaqBi2ypp0xI-OZNi4W_ik2KhjgpqioTAtXLC8GzkMBQRMlyxvxyTnd5b73im&c=en-US&ur=in&da=n&logo=n&fmt=png&od=1&shading=hill&pp=25.550787,84.66494;dfp"
  },
  {
    "name": "Dr A K Singh Clinic",
    "address": "Station, Jagdev Nagar, Arrah, Bihar 802301",
    "phone": "Dr A K Singh Clinic",
    "hours": null,
    "imageUrl": "https://www.bing.com/maps/geoplat/REST/v1/Imagery/Map/RoadVibrant?ms=92,112&key=AnTcaqBi2ypp0xI-OZNi4W_ik2KhjgpqioTAtXLC8GzkMBQRMlyxvxyTnd5b73im&c=en-US&ur=in&da=n&logo=n&fmt=png&od=1&shading=hill&pp=25.540392,84.653053;dfp"
  },
  {
    "name": "Dr U K Chaudhary Clinic",
    "address": "Nidan Health Clinic, South Ramna Road, Mahatma Gandhi Nagar, Arrah, Bihar 802301",
    "phone": "Dr U K Chaudhary Clinic",
    "hours": null,
    "imageUrl": "https://www.bing.com/maps/geoplat/REST/v1/Imagery/Map/RoadVibrant?ms=92,112&key=AnTcaqBi2ypp0xI-OZNi4W_ik2KhjgpqioTAtXLC8GzkMBQRMlyxvxyTnd5b73im&c=en-US&ur=in&da=n&logo=n&fmt=png&od=1&shading=hill&pp=25.55961,84.668304;dfp"
  },
  {
    "name": "Dr Ramesh Mishra Clinic",
    "address": "Arti Ayush Dawa Khana, South Ramna Road, Pakri, Arrah, Bihar 802301",
    "phone": "Dr Ramesh Mishra Clinic",
    "hours": null,
    "imageUrl": "https://www.bing.com/maps/geoplat/REST/v1/Imagery/Map/RoadVibrant?ms=92,112&key=AnTcaqBi2ypp0xI-OZNi4W_ik2KhjgpqioTAtXLC8GzkMBQRMlyxvxyTnd5b73im&c=en-US&ur=in&da=n&logo=n&fmt=png&od=1&shading=hill&pp=25.558746,84.657494;dfp"
  },
  {
    "name": "Dr Ashish Vora",
    "address": "Hm55+hx6, Old Police Line, Arrah, Bihar 802301, India, Arrah, Bihar 802301",
    "phone": "Dr Ashish Vora",
    "hours": null,
    "imageUrl": "https://www.bing.com/maps/geoplat/REST/v1/Imagery/Map/RoadVibrant?ms=92,112&key=AnTcaqBi2ypp0xI-OZNi4W_ik2KhjgpqioTAtXLC8GzkMBQRMlyxvxyTnd5b73im&c=en-US&ur=in&da=n&logo=n&fmt=png&od=1&shading=hill&pp=25.557009,84.66761;dfp"
  },
  {
    "name": "Dr K B Sahay Clinic",
    "address": "Redcross Bhawan, South Ramna Road, Pakri, Arrah, Bihar 802301",
    "phone": "Dr K B Sahay Clinic",
    "hours": null,
    "imageUrl": "https://www.bing.com/maps/geoplat/REST/v1/Imagery/Map/RoadVibrant?ms=92,112&key=AnTcaqBi2ypp0xI-OZNi4W_ik2KhjgpqioTAtXLC8GzkMBQRMlyxvxyTnd5b73im&c=en-US&ur=in&da=n&logo=n&fmt=png&od=1&shading=hill&pp=25.559452,84.661446;dfp"
  },
  {
    "name": "Smrita Clinic",
    "address": "Agiaon, Bhojpur, Arrah, Bihar 802201",
    "phone": "Smrita Clinic",
    "hours": null,
    "imageUrl": "https://th.bing.com/th?id=OLC.ED8%2btuea6nfINg480x360&w=92&h=112&c=8&rs=1&qlt=80&cdv=1&pid=Local"
  },
  {
    "name": "Dr Deepak Kumar Clinic",
    "address": "Dr Amir Chand Singh, Sh 12, Shivganj, Arrah, Bihar 802301",
    "phone": "Dr Deepak Kumar Clinic",
    "hours": null,
    "imageUrl": "https://www.bing.com/maps/geoplat/REST/v1/Imagery/Map/RoadVibrant?ms=92,112&key=AnTcaqBi2ypp0xI-OZNi4W_ik2KhjgpqioTAtXLC8GzkMBQRMlyxvxyTnd5b73im&c=en-US&ur=in&da=n&logo=n&fmt=png&od=1&shading=hill&pp=25.559284,84.670029;dfp"
  },
  {
    "name": "Dr Madan Mohan Divedi Clinic",
    "address": "Nawada Thana, Shivganj, Arrah, Bihar 802301",
    "phone": "Dr Madan Mohan Divedi Clinic",
    "hours": null,
    "imageUrl": "https://www.bing.com/maps/geoplat/REST/v1/Imagery/Map/RoadVibrant?ms=92,112&key=AnTcaqBi2ypp0xI-OZNi4W_ik2KhjgpqioTAtXLC8GzkMBQRMlyxvxyTnd5b73im&c=en-US&ur=in&da=n&logo=n&fmt=png&od=1&shading=hill&pp=25.552315,84.666206;dfp"
  },
  {
    "name": "Dr Smt Sharmila Singh",
    "address": "Rajeshwari Complex, Sh 12, Mahatma Gandhi Nagar, Arrah, Bihar 802301",
    "phone": "Dr Smt Sharmila Singh",
    "hours": null,
    "imageUrl": "https://th.bing.com/th?id=OLC.J4%2fd7WuKd%2fKcHw480x360&w=92&h=112&c=8&rs=1&qlt=80&cdv=1&pid=Local"
  },
  {
    "name": "Dr.arun Mishra",
    "address": "In Front of Kendriya Vidyalay, Zero Mile, Tarari, Bihar 802207",
    "phone": "Dr.arun Mishra",
    "hours": null,
    "imageUrl": "https://www.bing.com/maps/geoplat/REST/v1/Imagery/Map/RoadVibrant?ms=92,112&key=AnTcaqBi2ypp0xI-OZNi4W_ik2KhjgpqioTAtXLC8GzkMBQRMlyxvxyTnd5b73im&c=en-US&ur=in&da=n&logo=n&fmt=png&od=1&shading=hill&pp=25.34,84.400002;dfp"
  },
  {
    "name": "Apollo Dialysis Clinic",
    "address": "Apollo Dialysis Private Limited, 1st Floor of OPD Building, Near ICU, Arrah, Bihar 802301",
    "phone": "Apollo Dialysis Clinic",
    "hours": "Closed 路 Opens 08:00",
    "imageUrl": "https://www.bing.com/maps/geoplat/REST/v1/Imagery/Map/RoadVibrant?ms=92,134&key=AnTcaqBi2ypp0xI-OZNi4W_ik2KhjgpqioTAtXLC8GzkMBQRMlyxvxyTnd5b73im&c=en-US&ur=in&da=n&logo=n&fmt=png&od=1&shading=hill&pp=25.554136,84.666481;dfp"
  },
  {
    "name": "Shuddhi Clinic",
    "address": "Mission Road Girjamore, Near G Super Market, Arra Bhojpur, Bhojpur, Bihar 802301",
    "phone": "Shuddhi Clinic",
    "hours": null,
    "imageUrl": "https://www.bing.com/th?id=OLC.ocqv4kxAwmICPg480x360&w=92&h=112&c=8&rs=1&qlt=80&cdv=1&pid=Local"
  },
  {
    "name": "Bindhyachal Prasad Memorial Clinic",
    "address": "Station Road, Arrah, Bihar 802301",
    "phone": "Bindhyachal Prasad Memorial Clinic",
    "hours": "Closed 路 Opens 08:00",
    "imageUrl": "https://www.bing.com/maps/geoplat/REST/v1/Imagery/Map/RoadVibrant?ms=92,134&key=AnTcaqBi2ypp0xI-OZNi4W_ik2KhjgpqioTAtXLC8GzkMBQRMlyxvxyTnd5b73im&c=en-US&ur=in&da=n&logo=n&fmt=png&od=1&shading=hill&pp=25.549719,84.662773;dfp"
  }
]