[
  {
    "name": "Shuddhi Clinic Bhopal",
    "address": "Shop No. F-5, 1st Floor, Metro Plaza, Bittan Market Duserah Maidan, Bhopal, Madhya Pradesh 462001",
    "phone": "Shuddhi Clinic Bhopal",
    "hours": "Closed · Opens 09:00",
    "imageUrl": "https://www.bing.com/th?id=OLC.X%2beedKHCT1ONZg480x360&w=92&h=134&c=8&rs=1&qlt=80&cdv=1&pid=Local"
  },
  {
    "name": "Dr. Ashok Gupta, Rheumatologist, Arthritis, Sle (Lupus) doctor",
    "address": "Bansal Hospital, Sector c Near Shahpura Lake, Bhopal, Madhya Pradesh 462016",
    "phone": "Dr. Ashok Gupta, Rheumatologist, Arthritis, Sle (Lupus) doctor",
    "hours": "Closed · Opens 10:30",
    "imageUrl": "https://www.bing.com/th?id=OLC.djHDThgNQBF8dQ480x360&w=92&h=134&c=8&rs=1&qlt=80&cdv=1&pid=Local"
  },
  {
    "name": "Dr. S K Gupta",
    "address": "25, Banjari, Near Jain Mandir, Bhopal, Madhya Pradesh",
    "phone": "Dr. S K Gupta",
    "hours": null,
    "imageUrl": "https://www.bing.com/maps/geoplat/REST/v1/Imagery/Map/RoadVibrant?ms=92,112&key=AnTcaqBi2ypp0xI-OZNi4W_ik2KhjgpqioTAtXLC8GzkMBQRMlyxvxyTnd5b73im&c=en-US&ur=in&da=n&logo=n&fmt=png&od=1&shading=hill&pp=23.174862,77.42366;dfp"
  },
  {
    "name": "Dr. Varun Rai",
    "address": "1st Floor, Perfect Plaza, Opposite, Bimakunj, Kolar Road, Bhopal, Madhya Pradesh 462042",
    "phone": "Dr. Varun Rai",
    "hours": "Closed · Opens 18:30",
    "imageUrl": "https://www.bing.com/maps/geoplat/REST/v1/Imagery/Map/RoadVibrant?ms=92,134&key=AnTcaqBi2ypp0xI-OZNi4W_ik2KhjgpqioTAtXLC8GzkMBQRMlyxvxyTnd5b73im&c=en-US&ur=in&da=n&logo=n&fmt=png&od=1&shading=hill&pp=23.180922,77.417732;dfp"
  },
  {
    "name": "Dr (Prof) Subroto Mandal",
    "address": "Plot No 13, Shree Ram Colony, Misrod Station, Landmark: Shree Ram Colony, Bhopal, Bhopal 462046",
    "phone": "Dr (Prof) Subroto Mandal",
    "hours": "Closed · Opens 09:00",
    "imageUrl": "https://www.bing.com/th?id=OLC.YwIrxzJ45vzIgQ480x360&w=92&h=134&c=8&rs=1&qlt=80&cdv=1&pid=Local"
  },
  {
    "name": "Dr. Amit P. Agarwal",
    "address": "b-280, Sarvadharm Colony, Bhopal, Bhopal 462001",
    "phone": "Dr. Amit P. Agarwal",
    "hours": "Closed · Opens 11:00",
    "imageUrl": "https://www.bing.com/th?id=OLC.JGeACLgoU1EPpA480x360&w=92&h=134&c=8&rs=1&qlt=80&cdv=1&pid=Local"
  },
  {
    "name": "Dr. Jaya Namdeo",
    "address": "Mig 58, Sumitra Parisar, Phase 1, Kolar Road, Bhopal, Madhya Pradesh, Madhya Pradesh 462042",
    "phone": "Dr. Jaya Namdeo",
    "hours": "Closed · Opens 10:00",
    "imageUrl": "https://th.bing.com/th?id=OLC.WTJSo021FaW79Q480x360&w=92&h=112&c=8&rs=1&qlt=80&cdv=1&pid=Local"
  },
  {
    "name": "Dr. Sandeep Sharma's ENT Clinic - Best Ent surgeon | Ent Doctor Bhopal",
    "address": "50, New, Depot Square Road, Behind Canara Bank, Near Indraprastha and, MLA Quarters, Bhopal, Madhya Prad…",
    "phone": "Dr. Sandeep Sharma's ENT Clinic - Best Ent surgeon | Ent Doctor Bhopal",
    "hours": "Closed · Opens 18:00",
    "imageUrl": "https://th.bing.com/th?id=OLC.FElWd%2frwixqozg480x360&w=92&h=134&c=8&rs=1&qlt=80&cdv=1&pid=Local"
  },
  {
    "name": "Dr Abhishek Pathak",
    "address": "DK-5/1/4, Danish Kunj Chouraha Danish Kunj Kolar Road, Bhopal, Madhya Pradesh 462042",
    "phone": "Dr Abhishek Pathak",
    "hours": "Closed · Opens 14:15",
    "imageUrl": "https://th.bing.com/th?id=OLC.NFVkd4giMJUI%2bA480x360&w=92&h=134&c=8&rs=1&qlt=80&cdv=1&pid=Local"
  },
  {
    "name": "Dr. Pragyesh Saxena",
    "address": "E-1/64 Arera Colony Road, Bhopal, Madhya Pradesh 462016",
    "phone": "Dr. Pragyesh Saxena",
    "hours": "Closed · Opens 08:00",
    "imageUrl": "https://www.bing.com/maps/geoplat/REST/v1/Imagery/Map/RoadVibrant?ms=92,134&key=AnTcaqBi2ypp0xI-OZNi4W_ik2KhjgpqioTAtXLC8GzkMBQRMlyxvxyTnd5b73im&c=en-US&ur=in&da=n&logo=n&fmt=png&od=1&shading=hill&pp=23.22027,77.432549;dfp"
  },
  {
    "name": "Dr. Ashutosh Kumar Jain",
    "address": "S-47 Mandakini Colony, Kolar Road, Bhopal, Madhya Pradesh 462042",
    "phone": "Dr. Ashutosh Kumar Jain",
    "hours": "Open · Closes 12:00",
    "imageUrl": "https://th.bing.com/th?id=OLC.cryaL1LPPXBUmA480x360&w=92&h=134&c=8&rs=1&qlt=80&cdv=1&pid=Local"
  },
  {
    "name": "Dr. Nidhi Gupta",
    "address": "L.N. Medical College Road, Near Extol College, Bawdiya, Gulmohar Colony, Bhopal, Madhya Pradesh 462026",
    "phone": "Dr. Nidhi Gupta",
    "hours": "Closed · Opens 19:00",
    "imageUrl": "https://www.bing.com/maps/geoplat/REST/v1/Imagery/Map/RoadVibrant?ms=92,134&key=AnTcaqBi2ypp0xI-OZNi4W_ik2KhjgpqioTAtXLC8GzkMBQRMlyxvxyTnd5b73im&c=en-US&ur=in&da=n&logo=n&fmt=png&od=1&shading=hill&pp=23.17145,77.422272;dfp"
  },
  {
    "name": "Dr Meet's Clinic Bhopal",
    "address": "Ashirwad, A-67, Bhopal, Madhya Pradesh 462003",
    "phone": "Dr Meet's Clinic Bhopal",
    "hours": null,
    "imageUrl": "https://th.bing.com/th?id=OLC.T%2fen4lDG7ujO7g480x360&w=92&h=112&c=8&rs=1&qlt=80&cdv=1&pid=Local"
  },
  {
    "name": "Shivoham Online Ayurvedic Clinic",
    "address": "LG7 Kolar Plaza, Near Dmart, Kolar Rd, Bhopal, Madhya Pradesh",
    "phone": "Shivoham Online Ayurvedic Clinic",
    "hours": "Closed · Opens 18:00",
    "imageUrl": "https://th.bing.com/th?id=OLC.5HQYYjtY1KssXA480x360&w=92&h=112&c=8&rs=1&qlt=80&cdv=1&pid=Local"
  },
  {
    "name": "Dr. Anubha Alghare- Homeopath, Counselling Psychologist and Dietician/ Nutritionist",
    "address": "Priy- Anmol Homeo Care, Shop No. G-16, Surendra Manik Complex, In Line Of Sagar Gaire, Awadhpuri, Bh…",
    "phone": "Dr. Anubha Alghare- Homeopath, Counselling Psychologist and Dietician/ Nutritionist",
    "hours": "Closed · Opens 10:00",
    "imageUrl": "https://th.bing.com/th?id=OLC.D366hAU5zlxchA480x360&w=92&h=134&c=8&rs=1&qlt=80&cdv=1&pid=Local"
  },
  {
    "name": "Dr Rohit Joshi (Child Neurologist)",
    "address": "Bansal Hospital, Rajharsh Colony, Kolar Rd, Bhopal, Madhya Pradesh",
    "phone": "Dr Rohit Joshi (Child Neurologist)",
    "hours": null,
    "imageUrl": "https://www.bing.com/maps/geoplat/REST/v1/Imagery/Map/RoadVibrant?ms=92,112&key=AnTcaqBi2ypp0xI-OZNi4W_ik2KhjgpqioTAtXLC8GzkMBQRMlyxvxyTnd5b73im&c=en-US&ur=in&da=n&logo=n&fmt=png&od=1&shading=hill&pp=23.166035,77.423767;dfp"
  },
  {
    "name": "Dr. Pooja Gupta",
    "address": "2nd Floor, Bittan Market, Bhopal, Madhya Pradesh",
    "phone": "Dr. Pooja Gupta",
    "hours": "Closed · Opens 11:00",
    "imageUrl": "https://th.bing.com/th?id=OLC.ZS%2bgUTT7PuP%2bXw480x360&w=92&h=112&c=8&rs=1&qlt=80&cdv=1&pid=Local"
  },
  {
    "name": "Dr. Akhilesh Agrawal",
    "address": "Showroom No 1, Bhopal, Madhya Pradesh 500087",
    "phone": "Dr. Akhilesh Agrawal",
    "hours": "Closed · Opens 12:00",
    "imageUrl": "https://th.bing.com/th?id=OLC.kZwEqwSjNDvxfA480x360&w=92&h=134&c=8&rs=1&qlt=80&cdv=1&pid=Local"
  },
  {
    "name": "Shuddhi Clinic Bhopal",
    "address": "Shop No. F-5, 1st Floor, Metro Plaza, Bittan Market Duserah Maidan, Bhopal, Madhya Pradesh 462001",
    "phone": "Shuddhi Clinic Bhopal",
    "hours": "Closed · Opens 09:00",
    "imageUrl": "https://www.bing.com/th?id=OLC.X%2beedKHCT1ONZg480x360&w=92&h=134&c=8&rs=1&qlt=80&cdv=1&pid=Local"
  },
  {
    "name": "Dr. Ashok Gupta, Rheumatologist, Arthritis, Sle (Lupus) doctor",
    "address": "Bansal Hospital, Sector c Near Shahpura Lake, Bhopal, Madhya Pradesh 462016",
    "phone": "Dr. Ashok Gupta, Rheumatologist, Arthritis, Sle (Lupus) doctor",
    "hours": "Closed · Opens 10:30",
    "imageUrl": "https://www.bing.com/th?id=OLC.djHDThgNQBF8dQ480x360&w=92&h=134&c=8&rs=1&qlt=80&cdv=1&pid=Local"
  }
]