[
  {
    "name": "Dr Vaggar",
    "address": "Meenashi Chowk, Shahu Nagar Vijayapura, Vijapura, Karnataka 586101",
    "phone": "Dr Vaggar",
    "hours": null,
    "imageUrl": "https://www.bing.com/maps/geoplat/REST/v1/Imagery/Map/RoadVibrant?ms=92,112&key=AnTcaqBi2ypp0xI-OZNi4W_ik2KhjgpqioTAtXLC8GzkMBQRMlyxvxyTnd5b73im&c=en-US&ur=in&da=n&logo=n&fmt=png&od=1&shading=hill&pp=16.828526,75.713036;dfp"
  },
  {
    "name": "Dr. C P Ravi Kumar",
    "address": "Blde Road, Vijayapura, Bijapur, Karnataka",
    "phone": "Dr. C P Ravi Kumar",
    "hours": null,
    "imageUrl": "https://www.bing.com/th?id=OLC.e6UI9O8n6W5gOw480x360&w=92&h=112&c=8&rs=1&qlt=80&cdv=1&pid=Local"
  },
  {
    "name": "Dr. Sagar Bhattad",
    "address": "Ashwini Institute of Child Health and Research Center, Blde Road, Bangaramma Sajjan Campus, Vijayapura, …",
    "phone": "Dr. Sagar Bhattad",
    "hours": null,
    "imageUrl": "https://www.bing.com/maps/geoplat/REST/v1/Imagery/Map/RoadVibrant?ms=92,112&key=AnTcaqBi2ypp0xI-OZNi4W_ik2KhjgpqioTAtXLC8GzkMBQRMlyxvxyTnd5b73im&c=en-US&ur=in&da=n&logo=n&fmt=png&od=1&shading=hill&pp=16.84441,75.715759;dfp"
  },
  {
    "name": "Dr Chinagi's AADYA CLINIC",
    "address": "Shop Number 35, Apmc Complex Beside Apmc Mangal Karyalaya, Indi Rd, Vijayapura, Karnataka",
    "phone": "Dr Chinagi's AADYA CLINIC",
    "hours": null,
    "imageUrl": "https://www.bing.com/maps/geoplat/REST/v1/Imagery/Map/RoadVibrant?ms=92,112&key=AnTcaqBi2ypp0xI-OZNi4W_ik2KhjgpqioTAtXLC8GzkMBQRMlyxvxyTnd5b73im&c=en-US&ur=in&da=n&logo=n&fmt=png&od=1&shading=hill&pp=16.837097,75.722115;dfp"
  },
  {
    "name": "Max care speciality clinic",
    "address": "Mirde Lane Menaxi Chowk Bijapur, Vijaypura, Karnataka 586101",
    "phone": "Max care speciality clinic",
    "hours": "Closed · Opens 12:00",
    "imageUrl": "https://www.bing.com/th?id=OLC.XFFjAB2wAxGLCw480x360&w=92&h=134&c=8&rs=1&qlt=80&cdv=1&pid=Local"
  },
  {
    "name": "Dr. Ravindra Singh Rajput",
    "address": "Near Uppali Burz, Bijapur, Karnataka",
    "phone": "Dr. Ravindra Singh Rajput",
    "hours": "Closed · Opens 18:00",
    "imageUrl": "https://www.bing.com/th?id=OLC.Df7IibDsE2r8rg480x360&w=92&h=112&c=8&rs=1&qlt=80&cdv=1&pid=Local"
  },
  {
    "name": "Dr Dhakani Clinic",
    "address": "Badikaman Road, Muncipal Complex, Gopalpur Galli Vijayapura, Vijapura, Karnataka 586101",
    "phone": "Dr Dhakani Clinic",
    "hours": null,
    "imageUrl": "https://th.bing.com/th?id=OLC.K4z%2fgMKEyiQGXw480x360&w=92&h=112&c=8&rs=1&qlt=80&cdv=1&pid=Local"
  },
  {
    "name": "Prabhu Clinic",
    "address": "Indi Road, Vijapura, Karnataka 586101",
    "phone": "Prabhu Clinic",
    "hours": null,
    "imageUrl": "https://th.bing.com/th?id=OLC.zgLUck7THTHTkw480x360&w=92&h=112&c=8&rs=1&qlt=80&cdv=1&pid=Local"
  },
  {
    "name": "Dr W B Karajagi Clinic",
    "address": "Jamia Masjid Road, Darbar College, Konkanapura Vijayapura, Vijayapura, Karnataka 586101",
    "phone": "Dr W B Karajagi Clinic",
    "hours": null,
    "imageUrl": "https://th.bing.com/th?id=OLC.l6FLkxzpmombGQ480x360&w=92&h=112&c=8&rs=1&qlt=80&cdv=1&pid=Local"
  },
  {
    "name": "'Manojyoti' Neuro-Psychiatric Clinic 'ಮನೋಜ್ಯೋತಿ' ನರ ಮತ್ತು ಮನೋರೋಗಗಳ ಕ್ಲಿನಿಕ್",
    "address": "Dharwadakar Building Near Samsung Show Room, Ram Mandir Rd, Near Ram Mandir, Vijayapura, Karnataka",
    "phone": "'Manojyoti' Neuro-Psychiatric Clinic 'ಮನೋಜ್ಯೋತಿ' ನರ ಮತ್ತು ಮನೋರೋಗಗಳ ಕ್ಲಿನಿಕ್",
    "hours": null,
    "imageUrl": "https://www.bing.com/maps/geoplat/REST/v1/Imagery/Map/RoadVibrant?ms=92,112&key=AnTcaqBi2ypp0xI-OZNi4W_ik2KhjgpqioTAtXLC8GzkMBQRMlyxvxyTnd5b73im&c=en-US&ur=in&da=n&logo=n&fmt=png&od=1&shading=hill&pp=16.832865,75.711685;dfp"
  },
  {
    "name": "Dr Babu Rajendra B Naik Diabetologist",
    "address": "Shri Tulasigirish Diabetes Hospital Durga Vihar, Bagalkot Meenakshi Chowk, Tilak Road, Vijaypur, Karnataka 58…",
    "phone": "Dr Babu Rajendra B Naik Diabetologist",
    "hours": "Closed · Opens 09:00",
    "imageUrl": "https://www.bing.com/maps/geoplat/REST/v1/Imagery/Map/RoadVibrant?ms=92,112&key=AnTcaqBi2ypp0xI-OZNi4W_ik2KhjgpqioTAtXLC8GzkMBQRMlyxvxyTnd5b73im&c=en-US&ur=in&da=n&logo=n&fmt=png&od=1&shading=hill&pp=16.827803,75.711327;clcp"
  },
  {
    "name": "MAULI CLINIC ( Dr Nikhil.N.Mali -BAMS)",
    "address": "Navbag Road, Kurundwad, Maharashtra",
    "phone": "MAULI CLINIC ( Dr Nikhil.N.Mali -BAMS)",
    "hours": null,
    "imageUrl": "https://www.bing.com/maps/geoplat/REST/v1/Imagery/Map/RoadVibrant?ms=92,112&key=AnTcaqBi2ypp0xI-OZNi4W_ik2KhjgpqioTAtXLC8GzkMBQRMlyxvxyTnd5b73im&c=en-US&ur=in&da=n&logo=n&fmt=png&od=1&shading=hill&pp=16.820435,75.712509;dfp"
  },
  {
    "name": "Sri Revana Siddeshwar Clinic",
    "address": "Swathanthra Colony, Durga Devi Devasthanam, Afzalpur Takke Vijayapura, Vijayapura, Karnataka 586102",
    "phone": "Sri Revana Siddeshwar Clinic",
    "hours": null,
    "imageUrl": "https://www.bing.com/maps/geoplat/REST/v1/Imagery/Map/RoadVibrant?ms=92,112&key=AnTcaqBi2ypp0xI-OZNi4W_ik2KhjgpqioTAtXLC8GzkMBQRMlyxvxyTnd5b73im&c=en-US&ur=in&da=n&logo=n&fmt=png&od=1&shading=hill&pp=16.825041,75.684334;dfp"
  },
  {
    "name": "Dr. Jyoti Korbu- Gynecologist & Fertility Specialist",
    "address": "Korbu Women's Care, No.12, Navbag Road, Behind Bus Stand, Bijapur, Karnataka 586101",
    "phone": "Dr. Jyoti Korbu- Gynecologist & Fertility Specialist",
    "hours": "Closed · Opens 10:00",
    "imageUrl": "https://www.bing.com/maps/geoplat/REST/v1/Imagery/Map/RoadVibrant?ms=92,134&key=AnTcaqBi2ypp0xI-OZNi4W_ik2KhjgpqioTAtXLC8GzkMBQRMlyxvxyTnd5b73im&c=en-US&ur=in&da=n&logo=n&fmt=png&od=1&shading=hill&pp=16.824144,75.710266;dfp"
  },
  {
    "name": "Siddhaya Clinic",
    "address": "K S R T C Colony Road, Bagawan Restaurant, Afzalpur Takke Vijayapura, Vijayapura, Karnataka 586102",
    "phone": "Siddhaya Clinic",
    "hours": null,
    "imageUrl": "https://www.bing.com/maps/geoplat/REST/v1/Imagery/Map/RoadVibrant?ms=92,112&key=AnTcaqBi2ypp0xI-OZNi4W_ik2KhjgpqioTAtXLC8GzkMBQRMlyxvxyTnd5b73im&c=en-US&ur=in&da=n&logo=n&fmt=png&od=1&shading=hill&pp=16.825308,75.67952;dfp"
  },
  {
    "name": "Dr. Sagar Jogur",
    "address": "Siddeshwar Temple Road, Bijapur, Karnataka",
    "phone": "Dr. Sagar Jogur",
    "hours": "Closed · Opens 10:00",
    "imageUrl": "https://www.bing.com/maps/geoplat/REST/v1/Imagery/Map/RoadVibrant?ms=92,112&key=AnTcaqBi2ypp0xI-OZNi4W_ik2KhjgpqioTAtXLC8GzkMBQRMlyxvxyTnd5b73im&c=en-US&ur=in&da=n&logo=n&fmt=png&od=1&shading=hill&pp=16.829813,75.714752;dfp"
  },
  {
    "name": "Dr Rakesh C Balamkar, Atharva Children Hospital",
    "address": "Upali Burj Area, Vijayapura, Karnataka",
    "phone": "Dr Rakesh C Balamkar, Atharva Children Hospital",
    "hours": null,
    "imageUrl": "https://www.bing.com/maps/geoplat/REST/v1/Imagery/Map/RoadVibrant?ms=92,112&key=AnTcaqBi2ypp0xI-OZNi4W_ik2KhjgpqioTAtXLC8GzkMBQRMlyxvxyTnd5b73im&c=en-US&ur=in&da=n&logo=n&fmt=png&od=1&shading=hill&pp=16.833265,75.709976;dfp"
  },
  {
    "name": "Homeocare International Bijapur | Homeopathic Clinic - Bijapur (ವಿಜಾಪುರ)",
    "address": "1st Floor, Basaveshwar Rd, Gacchinakatti Colony, Vijayapura, Karnataka",
    "phone": "Homeocare International Bijapur | Homeopathic Clinic - Bijapur (ವಿಜಾಪುರ)",
    "hours": null,
    "imageUrl": "https://th.bing.com/th?id=OLC.Iml1Hxnt8KpVHg480x360&w=92&h=112&c=8&rs=1&qlt=80&cdv=1&pid=Local"
  },
  {
    "name": "Dr Vaggar",
    "address": "Meenashi Chowk, Shahu Nagar Vijayapura, Vijapura, Karnataka 586101",
    "phone": "Dr Vaggar",
    "hours": null,
    "imageUrl": "https://www.bing.com/maps/geoplat/REST/v1/Imagery/Map/RoadVibrant?ms=92,112&key=AnTcaqBi2ypp0xI-OZNi4W_ik2KhjgpqioTAtXLC8GzkMBQRMlyxvxyTnd5b73im&c=en-US&ur=in&da=n&logo=n&fmt=png&od=1&shading=hill&pp=16.828526,75.713036;dfp"
  },
  {
    "name": "Dr. C P Ravi Kumar",
    "address": "Blde Road, Vijayapura, Bijapur, Karnataka",
    "phone": "Dr. C P Ravi Kumar",
    "hours": null,
    "imageUrl": "https://www.bing.com/th?id=OLC.e6UI9O8n6W5gOw480x360&w=92&h=112&c=8&rs=1&qlt=80&cdv=1&pid=Local"
  }
]