[
  {
    "name": "Dr Deepak Clinic",
    "address": "Jain Temple, Mirdgan, Bijnor, Uttar Pradesh 246701",
    "phone": "Dr Deepak Clinic",
    "hours": null,
    "imageUrl": "https://www.bing.com/maps/geoplat/REST/v1/Imagery/Map/RoadVibrant?ms=92,112&key=AnTcaqBi2ypp0xI-OZNi4W_ik2KhjgpqioTAtXLC8GzkMBQRMlyxvxyTnd5b73im&c=en-US&ur=in&da=n&logo=n&fmt=png&od=1&shading=hill&pp=29.369322,78.134911;dfp"
  },
  {
    "name": "Dr. Neha Jain- Nephrologist",
    "address": "R C Multispeciality Hospital and Trauma Centre, Near St. Mary's School, Kiratpur Road, Bijnor, Uttar Pradesh 24…",
    "phone": "Dr. Neha Jain- Nephrologist",
    "hours": "Closed · Opens 10:00",
    "imageUrl": "https://www.bing.com/maps/geoplat/REST/v1/Imagery/Map/RoadVibrant?ms=92,134&key=AnTcaqBi2ypp0xI-OZNi4W_ik2KhjgpqioTAtXLC8GzkMBQRMlyxvxyTnd5b73im&c=en-US&ur=in&da=n&logo=n&fmt=png&od=1&shading=hill&pp=29.392075,78.149231;dfp"
  },
  {
    "name": "Dr. Rakesh Agarwal",
    "address": "Prakash Bhawan Near Ram Ji Ka Chauraha, Sotiyan, Bijnor, Uttar Pradesh",
    "phone": "Dr. Rakesh Agarwal",
    "hours": "Closed · Opens 09:00",
    "imageUrl": "https://www.bing.com/maps/geoplat/REST/v1/Imagery/Map/RoadVibrant?ms=92,112&key=AnTcaqBi2ypp0xI-OZNi4W_ik2KhjgpqioTAtXLC8GzkMBQRMlyxvxyTnd5b73im&c=en-US&ur=in&da=n&logo=n&fmt=png&od=1&shading=hill&pp=29.36548,78.141884;dfp"
  },
  {
    "name": "Dr Athar Medicine Point",
    "address": "Dr Athar's Charity Eye Hospital, Mohalla Valipura, Bijnor Road, Kiratpur, Bijnor, Uttar Pradesh 246731",
    "phone": "Dr Athar Medicine Point",
    "hours": "Closed · Opens 09:00",
    "imageUrl": "https://www.bing.com/th?id=OLC.CAqzpM4EKum3Xw480x360&w=92&h=134&c=8&rs=1&qlt=80&cdv=1&pid=Local"
  },
  {
    "name": "Dr. Ayush Clinic | Best Sexologist",
    "address": "947P+4G5, Bijnor, Uttar Pradesh 246701",
    "phone": "Dr. Ayush Clinic | Best Sexologist",
    "hours": "Closed · Opens 10:00",
    "imageUrl": "https://www.bing.com/th?id=OLC.LXl7fDMZJA%2b96Q480x360&w=92&h=134&c=8&rs=1&qlt=80&cdv=1&pid=Local"
  },
  {
    "name": "Arogya Clinic",
    "address": "Mohalla Khatriyan, Chandpur Road, Bijnor, Uttar Pradesh 246701",
    "phone": "Arogya Clinic",
    "hours": null,
    "imageUrl": "https://www.bing.com/maps/geoplat/REST/v1/Imagery/Map/RoadVibrant?ms=92,112&key=AnTcaqBi2ypp0xI-OZNi4W_ik2KhjgpqioTAtXLC8GzkMBQRMlyxvxyTnd5b73im&c=en-US&ur=in&da=n&logo=n&fmt=png&od=1&shading=hill&pp=29.38278,78.1483;dfp"
  },
  {
    "name": "Dr. Neeraj Chaudhari & Dr. Seema Chaudhari",
    "address": "Shakti Chowk, Punjabi Colony, बिजनौर, Bijnor, Uttar Pradesh 246701, India, Bijnor, Uttar Pradesh 246701",
    "phone": "Dr. Neeraj Chaudhari & Dr. Seema Chaudhari",
    "hours": null,
    "imageUrl": "https://th.bing.com/th?id=OLC.VlMaGm3tuyhBnA480x360&w=92&h=112&c=8&rs=1&qlt=80&cdv=1&pid=Local"
  },
  {
    "name": "Dr. Sanjeev Rana Memorial Eye Clinic",
    "address": "Adrika Plaza Near Axis Bank, Bijnor, Uttar Pradesh 246701",
    "phone": "Dr. Sanjeev Rana Memorial Eye Clinic",
    "hours": "Closed · Opens 09:00",
    "imageUrl": "https://th.bing.com/th?id=OLC.kgBqgMEmyX%2f4%2bw480x360&w=92&h=134&c=8&rs=1&qlt=80&cdv=1&pid=Local"
  },
  {
    "name": "Arogyadham Clinic | Best Sexologist for Male & Female | Ayurveda Doctor",
    "address": "51, Prakash Bhawan, Bijnor-Noorpur Rd, Near Ram Ka Chauraha, Bijnor, Uttar Pradesh 246701",
    "phone": "Arogyadham Clinic | Best Sexologist for Male & Female | Ayurveda Doctor",
    "hours": "Closed · Opens 08:00",
    "imageUrl": "https://th.bing.com/th?id=OLC.Hh%2bYkHWVQhxk6A480x360&w=92&h=134&c=8&rs=1&qlt=80&cdv=1&pid=Local"
  },
  {
    "name": "Dr Asfak",
    "address": "5Q6X+VC7, Mangurahi, Uttar Pradesh",
    "phone": "Dr Asfak",
    "hours": null,
    "imageUrl": "https://www.bing.com/maps/geoplat/REST/v1/Imagery/Map/RoadVibrant?ms=92,112&key=AnTcaqBi2ypp0xI-OZNi4W_ik2KhjgpqioTAtXLC8GzkMBQRMlyxvxyTnd5b73im&c=en-US&ur=in&da=n&logo=n&fmt=png&od=1&shading=hill&pp=29.382547,78.147232;dfp"
  },
  {
    "name": "Chaudhary Netra Chikitsalaya",
    "address": "Kiratpur Road, S D Puram, Bijnor, Uttar Pradesh 246701",
    "phone": "Chaudhary Netra Chikitsalaya",
    "hours": null,
    "imageUrl": "https://www.bing.com/maps/geoplat/REST/v1/Imagery/Map/RoadVibrant?ms=92,112&key=AnTcaqBi2ypp0xI-OZNi4W_ik2KhjgpqioTAtXLC8GzkMBQRMlyxvxyTnd5b73im&c=en-US&ur=in&da=n&logo=n&fmt=png&od=1&shading=hill&pp=29.382263,78.141098;dfp"
  },
  {
    "name": "Bishnoi Homoeo Cure Clinic",
    "address": "Bairaj Road, मध्या गंगा कॉलोनी, Uttar Pradesh 246701",
    "phone": "Bishnoi Homoeo Cure Clinic",
    "hours": null,
    "imageUrl": "https://www.bing.com/maps/geoplat/REST/v1/Imagery/Map/RoadVibrant?ms=92,112&key=AnTcaqBi2ypp0xI-OZNi4W_ik2KhjgpqioTAtXLC8GzkMBQRMlyxvxyTnd5b73im&c=en-US&ur=in&da=n&logo=n&fmt=png&od=1&shading=hill&pp=29.382244,78.1343;dfp"
  },
  {
    "name": "Medicover Fertility Clinic & IVF Center - Bijnor",
    "address": "Gayatri Nursing Home and Skincare Centre, Civil Lines, Bijnore, Uttar Pradesh 246701",
    "phone": "Medicover Fertility Clinic & IVF Center - Bijnor",
    "hours": "Closed · Opens 10:00",
    "imageUrl": "https://th.bing.com/th?id=OLC.ws0%2bElwfmRXhDQ480x360&w=92&h=134&c=8&rs=1&qlt=80&cdv=1&pid=Local"
  },
  {
    "name": "Dr. Parvez Alam Khan",
    "address": "Nagar Palika Chowk, Bijnor, Uttar Pradesh",
    "phone": "Dr. Parvez Alam Khan",
    "hours": "Closed · Opens 10:00",
    "imageUrl": "https://www.bing.com/maps/geoplat/REST/v1/Imagery/Map/RoadVibrant?ms=92,112&key=AnTcaqBi2ypp0xI-OZNi4W_ik2KhjgpqioTAtXLC8GzkMBQRMlyxvxyTnd5b73im&c=en-US&ur=in&da=n&logo=n&fmt=png&od=1&shading=hill&pp=29.37417,78.135468;dfp"
  },
  {
    "name": "Gayatri Homoeopathic Clinic",
    "address": "Noopur Road, Gandhi Park, Bijnor, Uttar Pradesh 246701",
    "phone": "Gayatri Homoeopathic Clinic",
    "hours": null,
    "imageUrl": "https://www.bing.com/maps/geoplat/REST/v1/Imagery/Map/RoadVibrant?ms=92,112&key=AnTcaqBi2ypp0xI-OZNi4W_ik2KhjgpqioTAtXLC8GzkMBQRMlyxvxyTnd5b73im&c=en-US&ur=in&da=n&logo=n&fmt=png&od=1&shading=hill&pp=29.367243,78.139366;dfp"
  },
  {
    "name": "Bijnor Homeopathic Clinic",
    "address": "Icici Bank, Geeta Nagar, Bijnor, Uttar Pradesh 246701",
    "phone": "Bijnor Homeopathic Clinic",
    "hours": null,
    "imageUrl": "https://www.bing.com/maps/geoplat/REST/v1/Imagery/Map/RoadVibrant?ms=92,112&key=AnTcaqBi2ypp0xI-OZNi4W_ik2KhjgpqioTAtXLC8GzkMBQRMlyxvxyTnd5b73im&c=en-US&ur=in&da=n&logo=n&fmt=png&od=1&shading=hill&pp=29.387506,78.126816;dfp"
  },
  {
    "name": "Best Physio Clinic In Gurgaon - Physio For All - Best Physiotherapist In Chakkarpur MG Road Gurgaon",
    "address": "1027 Maruti Vihar Society, Opp. Union Bank and Central Bank Behind First Vatika India Palace, Metro Piller No, …",
    "phone": "Best Physio Clinic In Gurgaon - Physio For All - Best Physiotherapist In Chakkarpur MG Road Gurgaon",
    "hours": null,
    "imageUrl": "https://www.bing.com/maps/geoplat/REST/v1/Imagery/Map/RoadVibrant?ms=92,112&key=AnTcaqBi2ypp0xI-OZNi4W_ik2KhjgpqioTAtXLC8GzkMBQRMlyxvxyTnd5b73im&c=en-US&ur=in&da=n&logo=n&fmt=png&od=1&shading=hill&pp=29.374147,78.13942;dfp"
  },
  {
    "name": "Dr. Rohan Taneja",
    "address": "Ish Complex, Nagina Road, Bijnor, Uttar Pradesh",
    "phone": "Dr. Rohan Taneja",
    "hours": "Closed · Opens 10:00",
    "imageUrl": "https://th.bing.com/th?id=OLC.vd2rR1%2bQ7BhTQQ480x360&w=92&h=112&c=8&rs=1&qlt=80&cdv=1&pid=Local"
  },
  {
    "name": "Dr Deepak Clinic",
    "address": "Jain Temple, Mirdgan, Bijnor, Uttar Pradesh 246701",
    "phone": "Dr Deepak Clinic",
    "hours": null,
    "imageUrl": "https://www.bing.com/maps/geoplat/REST/v1/Imagery/Map/RoadVibrant?ms=92,112&key=AnTcaqBi2ypp0xI-OZNi4W_ik2KhjgpqioTAtXLC8GzkMBQRMlyxvxyTnd5b73im&c=en-US&ur=in&da=n&logo=n&fmt=png&od=1&shading=hill&pp=29.369322,78.134911;dfp"
  },
  {
    "name": "Dr. Neha Jain- Nephrologist",
    "address": "R C Multispeciality Hospital and Trauma Centre, Near St. Mary's School, Kiratpur Road, Bijnor, Uttar Pradesh 24…",
    "phone": "Dr. Neha Jain- Nephrologist",
    "hours": "Closed · Opens 10:00",
    "imageUrl": "https://www.bing.com/maps/geoplat/REST/v1/Imagery/Map/RoadVibrant?ms=92,134&key=AnTcaqBi2ypp0xI-OZNi4W_ik2KhjgpqioTAtXLC8GzkMBQRMlyxvxyTnd5b73im&c=en-US&ur=in&da=n&logo=n&fmt=png&od=1&shading=hill&pp=29.392075,78.149231;dfp"
  }
]