[
  {
    "name": "Dr Shaifali Dadhich Tungaria",
    "address": "1 D 80, Sector 1, Jai Narayan Vyas Colony, Bikaner, Rajasthan",
    "phone": "Dr Shaifali Dadhich Tungaria",
    "hours": null,
    "imageUrl": "https://www.bing.com/maps/geoplat/REST/v1/Imagery/Map/RoadVibrant?ms=92,112&key=AnTcaqBi2ypp0xI-OZNi4W_ik2KhjgpqioTAtXLC8GzkMBQRMlyxvxyTnd5b73im&c=en-US&ur=in&da=n&logo=n&fmt=png&od=1&shading=hill&pp=28.004164,73.342545;dfp"
  },
  {
    "name": "Dr. Gaurav Jhawar- General Physician",
    "address": "Pbm Hospital, Plot Number 102, S P Medical College, Near Ambedkar Circle & State Bank Of Bikaner, Bikane…",
    "phone": "Dr. Gaurav Jhawar- General Physician",
    "hours": "Closed · Opens 09:00",
    "imageUrl": "https://www.bing.com/maps/geoplat/REST/v1/Imagery/Map/RoadVibrant?ms=92,134&key=AnTcaqBi2ypp0xI-OZNi4W_ik2KhjgpqioTAtXLC8GzkMBQRMlyxvxyTnd5b73im&c=en-US&ur=in&da=n&logo=n&fmt=png&od=1&shading=hill&pp=28.006393,73.328323;dfp"
  },
  {
    "name": "Dr S. Madan, Md Medicine, Gangashar Clinic",
    "address": "Bikaner Rd, Opposite Durga Laboratory, Near Subh Medicose, Gangashahar, Bikaner, Rajasthan",
    "phone": "Dr S. Madan, Md Medicine, Gangashar Clinic",
    "hours": null,
    "imageUrl": "https://www.bing.com/maps/geoplat/REST/v1/Imagery/Map/RoadVibrant?ms=92,112&key=AnTcaqBi2ypp0xI-OZNi4W_ik2KhjgpqioTAtXLC8GzkMBQRMlyxvxyTnd5b73im&c=en-US&ur=in&da=n&logo=n&fmt=png&od=1&shading=hill&pp=28.01158,73.31823;dfp"
  },
  {
    "name": "Dr. Nishant Verma",
    "address": "Rajshree Complex, Opposite Tb Clinic, Duplex Colony, Road, Rajasthan 334001",
    "phone": "Dr. Nishant Verma",
    "hours": null,
    "imageUrl": "https://www.bing.com/maps/geoplat/REST/v1/Imagery/Map/RoadVibrant?ms=92,112&key=AnTcaqBi2ypp0xI-OZNi4W_ik2KhjgpqioTAtXLC8GzkMBQRMlyxvxyTnd5b73im&c=en-US&ur=in&da=n&logo=n&fmt=png&od=1&shading=hill&pp=28.008829,73.317772;dfp"
  },
  {
    "name": "Dr. R P Agrawal",
    "address": "Nh 89, Bikaner, Rajasthan 334001",
    "phone": "Dr. R P Agrawal",
    "hours": "Closed · Opens 09:00",
    "imageUrl": "https://www.bing.com/maps/geoplat/REST/v1/Imagery/Map/RoadVibrant?ms=92,112&key=AnTcaqBi2ypp0xI-OZNi4W_ik2KhjgpqioTAtXLC8GzkMBQRMlyxvxyTnd5b73im&c=en-US&ur=in&da=n&logo=n&fmt=png&od=1&shading=hill&pp=28.00775,73.318359;dfp"
  },
  {
    "name": "Dr Vaibhav Sachdev",
    "address": "Dr Sachdev's Dental Hospital Since 1932, Bikaner 334001, Bikaner, Rajasthan, Rajasthan 334001",
    "phone": "Dr Vaibhav Sachdev",
    "hours": null,
    "imageUrl": "https://www.bing.com/maps/geoplat/REST/v1/Imagery/Map/RoadVibrant?ms=92,112&key=AnTcaqBi2ypp0xI-OZNi4W_ik2KhjgpqioTAtXLC8GzkMBQRMlyxvxyTnd5b73im&c=en-US&ur=in&da=n&logo=n&fmt=png&od=1&shading=hill&pp=28.017832,73.314064;dfp"
  },
  {
    "name": "Dr Akhilesh shekhawat",
    "address": "Apex Hospital, Rani Bazar, Bikaner, Rajasthan 334001",
    "phone": "Dr Akhilesh shekhawat",
    "hours": "Closed · Opens 09:00",
    "imageUrl": "https://th.bing.com/th?id=OLC.etBBbtMaM%2bwq8w480x360&w=92&h=112&c=8&rs=1&qlt=80&cdv=1&pid=Local"
  },
  {
    "name": "Dr. Harish Sharma Clinic",
    "address": "2473 E 22, Sector 3, Jai Narayan Vyas Colony, Bikaner, Rajasthan",
    "phone": "Dr. Harish Sharma Clinic",
    "hours": null,
    "imageUrl": "https://www.bing.com/maps/geoplat/REST/v1/Imagery/Map/RoadVibrant?ms=92,112&key=AnTcaqBi2ypp0xI-OZNi4W_ik2KhjgpqioTAtXLC8GzkMBQRMlyxvxyTnd5b73im&c=en-US&ur=in&da=n&logo=n&fmt=png&od=1&shading=hill&pp=28.007385,73.343788;dfp"
  },
  {
    "name": "Dr. Agrawal's 3D Clinix",
    "address": "A-8, Shastri Nagar, Bikaner, Rajasthan, Rajasthan 334003",
    "phone": "Dr. Agrawal's 3D Clinix",
    "hours": null,
    "imageUrl": "https://th.bing.com/th?id=OLC.DXhealPrtVzNgw480x360&w=92&h=112&c=8&rs=1&qlt=80&cdv=1&pid=Local"
  },
  {
    "name": "Mathur Hospital",
    "address": "Sohan Sazzan Bhawan, Rajasthan Pan Bhandar, Main Road Rani Bazar, Bikaner, Rajasthan, Rajasthan 334001",
    "phone": "Mathur Hospital",
    "hours": null,
    "imageUrl": "https://th.bing.com/th?id=OLC.yBSurCxx5kg42Q480x360&w=92&h=112&c=8&rs=1&qlt=80&cdv=1&pid=Local"
  },
  {
    "name": "Dr. Pankaj Tantia Hemato-Oncologist",
    "address": "A-31, Vishwas Royal Building, Sadul Ganj, Bikaner, Rajasthan",
    "phone": "Dr. Pankaj Tantia Hemato-Oncologist",
    "hours": "Closed · Opens 08:00",
    "imageUrl": "https://th.bing.com/th?id=OLC.NrA2I3FyoqNmMQ480x360&w=92&h=134&c=8&rs=1&qlt=80&cdv=1&pid=Local"
  },
  {
    "name": "Vijay Homoeo clinic & consultancy center",
    "address": "1-e-124 Jnv Colony..Near Jesus & Mary School, Bikaner, Rajasthan, Rajasthan 334003",
    "phone": "Vijay Homoeo clinic & consultancy center",
    "hours": null,
    "imageUrl": "https://www.bing.com/maps/geoplat/REST/v1/Imagery/Map/RoadVibrant?ms=92,112&key=AnTcaqBi2ypp0xI-OZNi4W_ik2KhjgpqioTAtXLC8GzkMBQRMlyxvxyTnd5b73im&c=en-US&ur=in&da=n&logo=n&fmt=png&od=1&shading=hill&pp=28.004164,73.342545;dfp"
  },
  {
    "name": "Dr. Bhanu Pratap Singh",
    "address": "A1, Govind Nagar, Sagar Road, Bikaner, Rajasthan",
    "phone": "Dr. Bhanu Pratap Singh",
    "hours": "Closed · Opens 17:00",
    "imageUrl": "https://th.bing.com/th?id=OLC.esJ4mfjMbaGacQ480x360&w=92&h=134&c=8&rs=1&qlt=80&cdv=1&pid=Local"
  },
  {
    "name": "Dr.Ritu Gaur/ Dr. Abhishek Shah: Neurocare Brain and Spine Clinic",
    "address": "1-D-9, Pawanpuri Besides Dr. Manoj Meena's Clinic, Behind PBM Hospital, Bikaner, Rajasthan",
    "phone": "Dr.Ritu Gaur/ Dr. Abhishek Shah: Neurocare Brain and Spine Clinic",
    "hours": null,
    "imageUrl": "https://www.bing.com/maps/geoplat/REST/v1/Imagery/Map/RoadVibrant?ms=92,112&key=AnTcaqBi2ypp0xI-OZNi4W_ik2KhjgpqioTAtXLC8GzkMBQRMlyxvxyTnd5b73im&c=en-US&ur=in&da=n&logo=n&fmt=png&od=1&shading=hill&pp=27.999434,73.330833;dfp"
  },
  {
    "name": "Dr. Anam Ahmad",
    "address": "Shop No 169, Opp. Bhati General Store, Delhi",
    "phone": "Dr. Anam Ahmad",
    "hours": null,
    "imageUrl": "https://th.bing.com/th?id=OLC.dSyL50NA0MhKHA480x360&w=92&h=112&c=8&rs=1&qlt=80&cdv=1&pid=Local"
  },
  {
    "name": "Dr Mohit Bansal's Clinic Skin & VD",
    "address": "Infront of PBM Children's Hospital, Sadul Colony, Near Shriram Hospital, Bikaner, Rajasthan",
    "phone": "Dr Mohit Bansal's Clinic Skin & VD",
    "hours": null,
    "imageUrl": "https://www.bing.com/maps/geoplat/REST/v1/Imagery/Map/RoadVibrant?ms=92,112&key=AnTcaqBi2ypp0xI-OZNi4W_ik2KhjgpqioTAtXLC8GzkMBQRMlyxvxyTnd5b73im&c=en-US&ur=in&da=n&logo=n&fmt=png&od=1&shading=hill&pp=28.010788,73.321007;dfp"
  },
  {
    "name": "L.Khatri homoeopathic clinic, jaisalmer",
    "address": "Gandhi Chowk, Bikaner, Rajasthan 345001",
    "phone": "L.Khatri homoeopathic clinic, jaisalmer",
    "hours": null,
    "imageUrl": "https://th.bing.com/th?id=OLC.JXJ6eaDF9Kix5Q480x360&w=92&h=112&c=8&rs=1&qlt=80&cdv=1&pid=Local"
  },
  {
    "name": "Dr Batra's Homeopathy",
    "address": "No 19, Basement, Panchsati Circle, Sardul Ganj, Bikaner, Rajasthan 334003",
    "phone": "Dr Batra's Homeopathy",
    "hours": "Closed · Opens 11:00",
    "imageUrl": "https://th.bing.com/th?id=OLC.bXZjeEXQla2dqw480x360&w=92&h=134&c=8&rs=1&qlt=80&cdv=1&pid=Local"
  },
  {
    "name": "Dr Shaifali Dadhich Tungaria",
    "address": "1 D 80, Sector 1, Jai Narayan Vyas Colony, Bikaner, Rajasthan",
    "phone": "Dr Shaifali Dadhich Tungaria",
    "hours": null,
    "imageUrl": "https://www.bing.com/maps/geoplat/REST/v1/Imagery/Map/RoadVibrant?ms=92,112&key=AnTcaqBi2ypp0xI-OZNi4W_ik2KhjgpqioTAtXLC8GzkMBQRMlyxvxyTnd5b73im&c=en-US&ur=in&da=n&logo=n&fmt=png&od=1&shading=hill&pp=28.004164,73.342545;dfp"
  },
  {
    "name": "Dr. Gaurav Jhawar- General Physician",
    "address": "Pbm Hospital, Plot Number 102, S P Medical College, Near Ambedkar Circle & State Bank Of Bikaner, Bikane…",
    "phone": "Dr. Gaurav Jhawar- General Physician",
    "hours": "Closed · Opens 09:00",
    "imageUrl": "https://www.bing.com/maps/geoplat/REST/v1/Imagery/Map/RoadVibrant?ms=92,134&key=AnTcaqBi2ypp0xI-OZNi4W_ik2KhjgpqioTAtXLC8GzkMBQRMlyxvxyTnd5b73im&c=en-US&ur=in&da=n&logo=n&fmt=png&od=1&shading=hill&pp=28.006393,73.328323;dfp"
  }
]