[
  {
    "name": "Dr Raghu Clinic",
    "address": "Nh88 Bamta Kandrour Road, Bilaspur, Himachal Pradesh 174004",
    "phone": "Dr Raghu Clinic",
    "hours": null,
    "imageUrl": "https://www.bing.com/maps/geoplat/REST/v1/Imagery/Map/RoadVibrant?ms=92,112&key=AnTcaqBi2ypp0xI-OZNi4W_ik2KhjgpqioTAtXLC8GzkMBQRMlyxvxyTnd5b73im&c=en-US&ur=in&da=n&logo=n&fmt=png&od=1&shading=hill&pp=31.392895,76.752869;dfp"
  },
  {
    "name": "Shuddhi Clinic By Guru Manish Ji - Best Ayurveda Doctor & Ayurvedic Treatment",
    "address": "V.p.o - Kandror, Near bus Stop, Ghagas Road, Main Bazar Kandror, Tehsil Sadar, Distt, Bilaspur, Himachal …",
    "phone": "Shuddhi Clinic By Guru Manish Ji - Best Ayurveda Doctor & Ayurvedic Treatment",
    "hours": null,
    "imageUrl": "https://www.bing.com/th?id=OLC.70fgDO2TdB9Y0g480x360&w=92&h=112&c=8&rs=1&qlt=80&cdv=1&pid=Local"
  },
  {
    "name": "Dr Ramal Angaria",
    "address": "HDO Swarghat Bilaspur, Bilaspur, Himachal Pradesh 174001",
    "phone": "Dr Ramal Angaria",
    "hours": "Closed · Opens 09:00",
    "imageUrl": "https://www.bing.com/th?id=OLC.yc6JBx%2botLzoWQ480x360&w=92&h=134&c=8&rs=1&qlt=80&cdv=1&pid=Local"
  },
  {
    "name": "Dr Lal PathLabs",
    "address": "Mahajan Clinical Lab” Opposite Civil Hospital, Ghumarwin, Distt- Bilaspur, H.P-174021, Bilaspur, Hima…",
    "phone": "Dr Lal PathLabs",
    "hours": "Opens in 25 mins",
    "imageUrl": "https://www.bing.com/th?id=OLC.mNhIBlb5CP4%2bZg480x360&w=92&h=134&c=8&rs=1&qlt=80&cdv=1&pid=Local"
  },
  {
    "name": "Public Clinic",
    "address": "Bhager, Nh88 Shimla Ghumarwin Road, Ghumarwin, Himachal Pradesh",
    "phone": "Public Clinic",
    "hours": null,
    "imageUrl": "https://www.bing.com/maps/geoplat/REST/v1/Imagery/Map/RoadVibrant?ms=92,112&key=AnTcaqBi2ypp0xI-OZNi4W_ik2KhjgpqioTAtXLC8GzkMBQRMlyxvxyTnd5b73im&c=en-US&ur=in&da=n&logo=n&fmt=png&od=1&shading=hill&pp=31.400452,76.728096;dfp"
  },
  {
    "name": "Dr Raghu Clinic",
    "address": "Nh88 Bamta Kandrour Road, Bilaspur, Himachal Pradesh 174004",
    "phone": "Dr Raghu Clinic",
    "hours": null,
    "imageUrl": "https://www.bing.com/maps/geoplat/REST/v1/Imagery/Map/RoadVibrant?ms=92,112&key=AnTcaqBi2ypp0xI-OZNi4W_ik2KhjgpqioTAtXLC8GzkMBQRMlyxvxyTnd5b73im&c=en-US&ur=in&da=n&logo=n&fmt=png&od=1&shading=hill&pp=31.392895,76.752869;dfp"
  },
  {
    "name": "Shuddhi Clinic By Guru Manish Ji - Best Ayurveda Doctor & Ayurvedic Treatment",
    "address": "V.p.o - Kandror, Near bus Stop, Ghagas Road, Main Bazar Kandror, Tehsil Sadar, Distt, Bilaspur, Himachal …",
    "phone": "Shuddhi Clinic By Guru Manish Ji - Best Ayurveda Doctor & Ayurvedic Treatment",
    "hours": null,
    "imageUrl": "https://www.bing.com/th?id=OLC.70fgDO2TdB9Y0g480x360&w=92&h=112&c=8&rs=1&qlt=80&cdv=1&pid=Local"
  },
  {
    "name": "Dr Ramal Angaria",
    "address": "HDO Swarghat Bilaspur, Bilaspur, Himachal Pradesh 174001",
    "phone": "Dr Ramal Angaria",
    "hours": "Closed · Opens 09:00",
    "imageUrl": "https://www.bing.com/th?id=OLC.yc6JBx%2botLzoWQ480x360&w=92&h=134&c=8&rs=1&qlt=80&cdv=1&pid=Local"
  },
  {
    "name": "Dr Lal PathLabs",
    "address": "Mahajan Clinical Lab” Opposite Civil Hospital, Ghumarwin, Distt- Bilaspur, H.P-174021, Bilaspur, Hima…",
    "phone": "Dr Lal PathLabs",
    "hours": "Opens in 25 mins",
    "imageUrl": "https://www.bing.com/th?id=OLC.mNhIBlb5CP4%2bZg480x360&w=92&h=134&c=8&rs=1&qlt=80&cdv=1&pid=Local"
  },
  {
    "name": "Public Clinic",
    "address": "Bhager, Nh88 Shimla Ghumarwin Road, Ghumarwin, Himachal Pradesh",
    "phone": "Public Clinic",
    "hours": null,
    "imageUrl": "https://www.bing.com/maps/geoplat/REST/v1/Imagery/Map/RoadVibrant?ms=92,112&key=AnTcaqBi2ypp0xI-OZNi4W_ik2KhjgpqioTAtXLC8GzkMBQRMlyxvxyTnd5b73im&c=en-US&ur=in&da=n&logo=n&fmt=png&od=1&shading=hill&pp=31.400452,76.728096;dfp"
  },
  {
    "name": "Dr Raghu Clinic",
    "address": "Nh88 Bamta Kandrour Road, Bilaspur, Himachal Pradesh 174004",
    "phone": "Dr Raghu Clinic",
    "hours": null,
    "imageUrl": "https://www.bing.com/maps/geoplat/REST/v1/Imagery/Map/RoadVibrant?ms=92,112&key=AnTcaqBi2ypp0xI-OZNi4W_ik2KhjgpqioTAtXLC8GzkMBQRMlyxvxyTnd5b73im&c=en-US&ur=in&da=n&logo=n&fmt=png&od=1&shading=hill&pp=31.392895,76.752869;dfp"
  },
  {
    "name": "Shuddhi Clinic By Guru Manish Ji - Best Ayurveda Doctor & Ayurvedic Treatment",
    "address": "V.p.o - Kandror, Near bus Stop, Ghagas Road, Main Bazar Kandror, Tehsil Sadar, Distt, Bilaspur, Himachal …",
    "phone": "Shuddhi Clinic By Guru Manish Ji - Best Ayurveda Doctor & Ayurvedic Treatment",
    "hours": null,
    "imageUrl": "https://www.bing.com/th?id=OLC.70fgDO2TdB9Y0g480x360&w=92&h=112&c=8&rs=1&qlt=80&cdv=1&pid=Local"
  },
  {
    "name": "Dr Ramal Angaria",
    "address": "HDO Swarghat Bilaspur, Bilaspur, Himachal Pradesh 174001",
    "phone": "Dr Ramal Angaria",
    "hours": "Closed · Opens 09:00",
    "imageUrl": "https://www.bing.com/th?id=OLC.yc6JBx%2botLzoWQ480x360&w=92&h=134&c=8&rs=1&qlt=80&cdv=1&pid=Local"
  },
  {
    "name": "Dr Lal PathLabs",
    "address": "Mahajan Clinical Lab” Opposite Civil Hospital, Ghumarwin, Distt- Bilaspur, H.P-174021, Bilaspur, Hima…",
    "phone": "Dr Lal PathLabs",
    "hours": "Opens in 25 mins",
    "imageUrl": "https://www.bing.com/th?id=OLC.mNhIBlb5CP4%2bZg480x360&w=92&h=134&c=8&rs=1&qlt=80&cdv=1&pid=Local"
  },
  {
    "name": "Public Clinic",
    "address": "Bhager, Nh88 Shimla Ghumarwin Road, Ghumarwin, Himachal Pradesh",
    "phone": "Public Clinic",
    "hours": null,
    "imageUrl": "https://www.bing.com/maps/geoplat/REST/v1/Imagery/Map/RoadVibrant?ms=92,112&key=AnTcaqBi2ypp0xI-OZNi4W_ik2KhjgpqioTAtXLC8GzkMBQRMlyxvxyTnd5b73im&c=en-US&ur=in&da=n&logo=n&fmt=png&od=1&shading=hill&pp=31.400452,76.728096;dfp"
  },
  {
    "name": "Dr Raghu Clinic",
    "address": "Nh88 Bamta Kandrour Road, Bilaspur, Himachal Pradesh 174004",
    "phone": "Dr Raghu Clinic",
    "hours": null,
    "imageUrl": "https://www.bing.com/maps/geoplat/REST/v1/Imagery/Map/RoadVibrant?ms=92,112&key=AnTcaqBi2ypp0xI-OZNi4W_ik2KhjgpqioTAtXLC8GzkMBQRMlyxvxyTnd5b73im&c=en-US&ur=in&da=n&logo=n&fmt=png&od=1&shading=hill&pp=31.392895,76.752869;dfp"
  },
  {
    "name": "Shuddhi Clinic By Guru Manish Ji - Best Ayurveda Doctor & Ayurvedic Treatment",
    "address": "V.p.o - Kandror, Near bus Stop, Ghagas Road, Main Bazar Kandror, Tehsil Sadar, Distt, Bilaspur, Himachal …",
    "phone": "Shuddhi Clinic By Guru Manish Ji - Best Ayurveda Doctor & Ayurvedic Treatment",
    "hours": null,
    "imageUrl": "https://www.bing.com/th?id=OLC.70fgDO2TdB9Y0g480x360&w=92&h=112&c=8&rs=1&qlt=80&cdv=1&pid=Local"
  },
  {
    "name": "Dr Ramal Angaria",
    "address": "HDO Swarghat Bilaspur, Bilaspur, Himachal Pradesh 174001",
    "phone": "Dr Ramal Angaria",
    "hours": "Closed · Opens 09:00",
    "imageUrl": "https://www.bing.com/th?id=OLC.yc6JBx%2botLzoWQ480x360&w=92&h=134&c=8&rs=1&qlt=80&cdv=1&pid=Local"
  },
  {
    "name": "Dr Lal PathLabs",
    "address": "Mahajan Clinical Lab” Opposite Civil Hospital, Ghumarwin, Distt- Bilaspur, H.P-174021, Bilaspur, Hima…",
    "phone": "Dr Lal PathLabs",
    "hours": "Opens in 25 mins",
    "imageUrl": "https://www.bing.com/th?id=OLC.mNhIBlb5CP4%2bZg480x360&w=92&h=134&c=8&rs=1&qlt=80&cdv=1&pid=Local"
  },
  {
    "name": "Public Clinic",
    "address": "Bhager, Nh88 Shimla Ghumarwin Road, Ghumarwin, Himachal Pradesh",
    "phone": "Public Clinic",
    "hours": null,
    "imageUrl": "https://www.bing.com/maps/geoplat/REST/v1/Imagery/Map/RoadVibrant?ms=92,112&key=AnTcaqBi2ypp0xI-OZNi4W_ik2KhjgpqioTAtXLC8GzkMBQRMlyxvxyTnd5b73im&c=en-US&ur=in&da=n&logo=n&fmt=png&od=1&shading=hill&pp=31.400452,76.728096;dfp"
  }
]