[
  {
    "name": "Dr Banerjee Clinic",
    "address": "Bishnupur Station Road, Near Bishnupur Railway Station, Station Area, Bishnupur, West Bengal 722122",
    "phone": "Dr Banerjee Clinic",
    "hours": null,
    "imageUrl": "https://www.bing.com/maps/geoplat/REST/v1/Imagery/Map/RoadVibrant?ms=92,112&key=AnTcaqBi2ypp0xI-OZNi4W_ik2KhjgpqioTAtXLC8GzkMBQRMlyxvxyTnd5b73im&c=en-US&ur=in&da=n&logo=n&fmt=png&od=1&shading=hill&pp=23.061777,87.306267;dfp"
  },
  {
    "name": "Homoeopathic Clinic (Dr. S. Sarbajna)",
    "address": "Near Khadi Showroom, Towerpara, Bishnupur, West Bengal",
    "phone": "Homoeopathic Clinic (Dr. S. Sarbajna)",
    "hours": null,
    "imageUrl": "https://www.bing.com/maps/geoplat/REST/v1/Imagery/Map/RoadVibrant?ms=92,112&key=AnTcaqBi2ypp0xI-OZNi4W_ik2KhjgpqioTAtXLC8GzkMBQRMlyxvxyTnd5b73im&c=en-US&ur=in&da=n&logo=n&fmt=png&od=1&shading=hill&pp=24.101734,88.26564;dfp"
  },
  {
    "name": "Dr Lal Pathlabs",
    "address": "Rasik Ganj, Bishnupur, West Bengal",
    "phone": "Dr Lal Pathlabs",
    "hours": null,
    "imageUrl": "https://www.bing.com/maps/geoplat/REST/v1/Imagery/Map/RoadVibrant?ms=92,112&key=AnTcaqBi2ypp0xI-OZNi4W_ik2KhjgpqioTAtXLC8GzkMBQRMlyxvxyTnd5b73im&c=en-US&ur=in&da=n&logo=n&fmt=png&od=1&shading=hill&pp=23.060801,87.302696;dfp"
  },
  {
    "name": "Primary Health Centre",
    "address": "Indo Myanmar Road, Makakmayum Khulakpam Masjid, Lilong, Imphal, Manipur 795009",
    "phone": "Primary Health Centre",
    "hours": null,
    "imageUrl": "https://www.bing.com/maps/geoplat/REST/v1/Imagery/Map/RoadVibrant?ms=92,112&key=AnTcaqBi2ypp0xI-OZNi4W_ik2KhjgpqioTAtXLC8GzkMBQRMlyxvxyTnd5b73im&c=en-US&ur=in&da=n&logo=n&fmt=png&od=1&shading=hill&pp=24.700914,93.902832;dfp"
  },
  {
    "name": "Dr Enterprise",
    "address": "Nambol, Utlou Heibi Makhong, Nambol Sub Division, Tiddim Road, Imphal, Bishnupur, Manipur 795134",
    "phone": "Dr Enterprise",
    "hours": null,
    "imageUrl": "https://www.bing.com/maps/geoplat/REST/v1/Imagery/Map/RoadVibrant?ms=92,112&key=AnTcaqBi2ypp0xI-OZNi4W_ik2KhjgpqioTAtXLC8GzkMBQRMlyxvxyTnd5b73im&c=en-US&ur=in&da=n&logo=n&fmt=png&od=1&shading=hill&pp=24.778479,93.927727;dfp"
  },
  {
    "name": "Classical Homeopathic Clinic, Imphal",
    "address": "3rd Street, New Checkon Rd, New Lambulane, Bazar, Manipur",
    "phone": "Classical Homeopathic Clinic, Imphal",
    "hours": null,
    "imageUrl": "https://www.bing.com/maps/geoplat/REST/v1/Imagery/Map/RoadVibrant?ms=92,112&key=AnTcaqBi2ypp0xI-OZNi4W_ik2KhjgpqioTAtXLC8GzkMBQRMlyxvxyTnd5b73im&c=en-US&ur=in&da=n&logo=n&fmt=png&od=1&shading=hill&pp=24.734636,93.879875;dfp"
  },
  {
    "name": "Dr Sachindra Laishram",
    "address": "Qwpc+wxx, Kwakeithel Makha, Akham Leikai, Manipur 795004",
    "phone": "Dr Sachindra Laishram",
    "hours": null,
    "imageUrl": "https://th.bing.com/th?id=OLC.UUEgo%2b%2bDn3G6WQ480x360&w=92&h=112&c=8&rs=1&qlt=80&cdv=1&pid=Local"
  },
  {
    "name": "Imphal Hospital & Research Centre",
    "address": "Rims Road, Imphal, Manipur 795001",
    "phone": "Imphal Hospital & Research Centre",
    "hours": null,
    "imageUrl": "https://th.bing.com/th?id=OLC.JbBnomSj3jXxbg480x360&w=92&h=112&c=8&rs=1&qlt=80&cdv=1&pid=Local"
  },
  {
    "name": "Dr. Supriya Naturopathy and Yoga wellness centre ( health clinic)",
    "address": "Dr.Supriya Naturopathy And Yoga Wellness, Opposite to Rohini North Eastern School, Imphal, Manipur 795001",
    "phone": "Dr. Supriya Naturopathy and Yoga wellness centre ( health clinic)",
    "hours": "Closed Â· Opens 08:00",
    "imageUrl": "https://th.bing.com/th?id=OLC.mGbeLSfraL3yHA480x360&w=92&h=134&c=8&rs=1&qlt=80&cdv=1&pid=Local"
  },
  {
    "name": "Dr C M Dutta Clinic",
    "address": "Indo Myanmar Road, Sika Higher Secondary School, Babupara, Imphal, Manipur 795001",
    "phone": "Dr C M Dutta Clinic",
    "hours": null,
    "imageUrl": "https://www.bing.com/maps/geoplat/REST/v1/Imagery/Map/RoadVibrant?ms=92,112&key=AnTcaqBi2ypp0xI-OZNi4W_ik2KhjgpqioTAtXLC8GzkMBQRMlyxvxyTnd5b73im&c=en-US&ur=in&da=n&logo=n&fmt=png&od=1&shading=hill&pp=24.790779,93.941841;dfp"
  },
  {
    "name": "Dr.r.n.gupta",
    "address": "Rw7q+w39, Khoyathong, Thangal Bazar, Manipur 795001",
    "phone": "Dr.r.n.gupta",
    "hours": null,
    "imageUrl": "https://www.bing.com/maps/geoplat/REST/v1/Imagery/Map/RoadVibrant?ms=92,112&key=AnTcaqBi2ypp0xI-OZNi4W_ik2KhjgpqioTAtXLC8GzkMBQRMlyxvxyTnd5b73im&c=en-US&ur=in&da=n&logo=n&fmt=png&od=1&shading=hill&pp=24.809361,93.935654;dfp"
  },
  {
    "name": "People Health Clinic",
    "address": "Khurai Khomidok Heikrumakhong, Heingang - Pangei Rd, Imphal, Manipur",
    "phone": "People Health Clinic",
    "hours": null,
    "imageUrl": "https://www.bing.com/maps/geoplat/REST/v1/Imagery/Map/RoadVibrant?ms=92,112&key=AnTcaqBi2ypp0xI-OZNi4W_ik2KhjgpqioTAtXLC8GzkMBQRMlyxvxyTnd5b73im&c=en-US&ur=in&da=n&logo=n&fmt=png&od=1&shading=hill&pp=24.876877,93.970154;dfp"
  },
  {
    "name": "Dr Banerjee Clinic",
    "address": "Bishnupur Station Road, Near Bishnupur Railway Station, Station Area, Bishnupur, West Bengal 722122",
    "phone": "Dr Banerjee Clinic",
    "hours": null,
    "imageUrl": "https://www.bing.com/maps/geoplat/REST/v1/Imagery/Map/RoadVibrant?ms=92,112&key=AnTcaqBi2ypp0xI-OZNi4W_ik2KhjgpqioTAtXLC8GzkMBQRMlyxvxyTnd5b73im&c=en-US&ur=in&da=n&logo=n&fmt=png&od=1&shading=hill&pp=23.061777,87.306267;dfp"
  },
  {
    "name": "Homoeopathic Clinic (Dr. S. Sarbajna)",
    "address": "Near Khadi Showroom, Towerpara, Bishnupur, West Bengal",
    "phone": "Homoeopathic Clinic (Dr. S. Sarbajna)",
    "hours": null,
    "imageUrl": "https://www.bing.com/maps/geoplat/REST/v1/Imagery/Map/RoadVibrant?ms=92,112&key=AnTcaqBi2ypp0xI-OZNi4W_ik2KhjgpqioTAtXLC8GzkMBQRMlyxvxyTnd5b73im&c=en-US&ur=in&da=n&logo=n&fmt=png&od=1&shading=hill&pp=24.101734,88.26564;dfp"
  },
  {
    "name": "Dr Lal Pathlabs",
    "address": "Rasik Ganj, Bishnupur, West Bengal",
    "phone": "Dr Lal Pathlabs",
    "hours": null,
    "imageUrl": "https://www.bing.com/maps/geoplat/REST/v1/Imagery/Map/RoadVibrant?ms=92,112&key=AnTcaqBi2ypp0xI-OZNi4W_ik2KhjgpqioTAtXLC8GzkMBQRMlyxvxyTnd5b73im&c=en-US&ur=in&da=n&logo=n&fmt=png&od=1&shading=hill&pp=23.060801,87.302696;dfp"
  },
  {
    "name": "Primary Health Centre",
    "address": "Indo Myanmar Road, Makakmayum Khulakpam Masjid, Lilong, Imphal, Manipur 795009",
    "phone": "Primary Health Centre",
    "hours": null,
    "imageUrl": "https://www.bing.com/maps/geoplat/REST/v1/Imagery/Map/RoadVibrant?ms=92,112&key=AnTcaqBi2ypp0xI-OZNi4W_ik2KhjgpqioTAtXLC8GzkMBQRMlyxvxyTnd5b73im&c=en-US&ur=in&da=n&logo=n&fmt=png&od=1&shading=hill&pp=24.700914,93.902832;dfp"
  },
  {
    "name": "Dr Enterprise",
    "address": "Nambol, Utlou Heibi Makhong, Nambol Sub Division, Tiddim Road, Imphal, Bishnupur, Manipur 795134",
    "phone": "Dr Enterprise",
    "hours": null,
    "imageUrl": "https://www.bing.com/maps/geoplat/REST/v1/Imagery/Map/RoadVibrant?ms=92,112&key=AnTcaqBi2ypp0xI-OZNi4W_ik2KhjgpqioTAtXLC8GzkMBQRMlyxvxyTnd5b73im&c=en-US&ur=in&da=n&logo=n&fmt=png&od=1&shading=hill&pp=24.778479,93.927727;dfp"
  },
  {
    "name": "Classical Homeopathic Clinic, Imphal",
    "address": "3rd Street, New Checkon Rd, New Lambulane, Bazar, Manipur",
    "phone": "Classical Homeopathic Clinic, Imphal",
    "hours": null,
    "imageUrl": "https://www.bing.com/maps/geoplat/REST/v1/Imagery/Map/RoadVibrant?ms=92,112&key=AnTcaqBi2ypp0xI-OZNi4W_ik2KhjgpqioTAtXLC8GzkMBQRMlyxvxyTnd5b73im&c=en-US&ur=in&da=n&logo=n&fmt=png&od=1&shading=hill&pp=24.734636,93.879875;dfp"
  },
  {
    "name": "Dr Sachindra Laishram",
    "address": "Qwpc+wxx, Kwakeithel Makha, Akham Leikai, Manipur 795004",
    "phone": "Dr Sachindra Laishram",
    "hours": null,
    "imageUrl": "https://th.bing.com/th?id=OLC.UUEgo%2b%2bDn3G6WQ480x360&w=92&h=112&c=8&rs=1&qlt=80&cdv=1&pid=Local"
  },
  {
    "name": "Imphal Hospital & Research Centre",
    "address": "Rims Road, Imphal, Manipur 795001",
    "phone": "Imphal Hospital & Research Centre",
    "hours": null,
    "imageUrl": "https://th.bing.com/th?id=OLC.JbBnomSj3jXxbg480x360&w=92&h=112&c=8&rs=1&qlt=80&cdv=1&pid=Local"
  }
]