[
  {
    "name": "Dr Praveen Pushkar- Best Urologist, Kidney Stone Doctor, Transplant Surgeon, Laser Prostate Surgery in …",
    "address": "Medicant Hospital & Research Center, Biada Housing Colony, Ritudih, Near Sudha Dairy, Bokaro Steel, Jhark…",
    "phone": "Dr Praveen Pushkar- Best Urologist, Kidney Stone Doctor, Transplant Surgeon, Laser Prostate Surgery in …",
    "hours": "Closed · Opens 09:00",
    "imageUrl": "https://www.bing.com/th?id=OLC.7Vh5C59JmidEzQ480x360&w=92&h=134&c=8&rs=1&qlt=80&cdv=1&pid=Local"
  },
  {
    "name": "Wellmark Hospital",
    "address": "Plot NO.15E\\3, Western Avenue, Marafari Road, Bokaro, Jharkhand 827001",
    "phone": "Wellmark Hospital",
    "hours": null,
    "imageUrl": "https://www.bing.com/th?id=OLC.wbQG8ZQc2E7suQ480x360&w=92&h=112&c=8&rs=1&qlt=80&cdv=1&pid=Local"
  },
  {
    "name": "Dr. Khuroo’s Medical Centre",
    "address": "Sector 1, Sher-e-Kashmir Colony Qamarwari",
    "phone": "Dr. Khuroo’s Medical Centre",
    "hours": null,
    "imageUrl": "https://www.bing.com/maps/geoplat/REST/v1/Imagery/Map/RoadVibrant?ms=92,112&key=AnTcaqBi2ypp0xI-OZNi4W_ik2KhjgpqioTAtXLC8GzkMBQRMlyxvxyTnd5b73im&c=en-US&ur=in&da=n&logo=n&fmt=png&od=1&shading=hill&pp=23.650007,86.155205;dfp"
  },
  {
    "name": "Bokaro General Hospital",
    "address": "Mahatma Ghandhi Marg, Bokaro Steel, Jharkhand 827004",
    "phone": "Bokaro General Hospital",
    "hours": null,
    "imageUrl": "https://www.bing.com/th?id=OLC.ymDfeIpFct%2fT8w480x360&w=92&h=112&c=8&rs=1&qlt=80&cdv=1&pid=Local"
  },
  {
    "name": "Dr. Satish Kumar, HOD (Cardio), ICU, BGH",
    "address": "BGH, Sector 4, Bokaro Steel, Jharkhand",
    "phone": "Dr. Satish Kumar, HOD (Cardio), ICU, BGH",
    "hours": null,
    "imageUrl": "https://www.bing.com/th?id=OLC.p8L3spizmcaHgQ480x360&w=92&h=112&c=8&rs=1&qlt=80&cdv=1&pid=Local"
  },
  {
    "name": "Dr. Dharmendra Kumar- Dermatologist",
    "address": "Skin & Smile Laser Clinic, Sector- Iv, Plot No. Jb- 12, Landmark: Behind Jeetendra Cinema, Bokaro, Jharkha…",
    "phone": "Dr. Dharmendra Kumar- Dermatologist",
    "hours": "Closed · Opens 09:00",
    "imageUrl": "https://www.bing.com/maps/geoplat/REST/v1/Imagery/Map/RoadVibrant?ms=92,134&key=AnTcaqBi2ypp0xI-OZNi4W_ik2KhjgpqioTAtXLC8GzkMBQRMlyxvxyTnd5b73im&c=en-US&ur=in&da=n&logo=n&fmt=png&od=1&shading=hill&pp=23.666471,86.147987;dfp"
  },
  {
    "name": "Shuddhi Clinic Bokaro",
    "address": "Chas Chas, Gujrat Colony, Near Garga Bridge And St Mary's School, Bokaro, Jharkhand 827013",
    "phone": "Shuddhi Clinic Bokaro",
    "hours": "Closed · Opens 09:00",
    "imageUrl": "https://th.bing.com/th?id=OLC.26eP9usMYdcCZA480x360&w=92&h=134&c=8&rs=1&qlt=80&cdv=1&pid=Local"
  },
  {
    "name": "Dr. Vinod Priyadarshi",
    "address": "Laxmi Market, Opposite to Bokaro General Hospital, Bokaro, Jharkhand 827004",
    "phone": "Dr. Vinod Priyadarshi",
    "hours": "Closed · Opens Sep 28 at 13:00",
    "imageUrl": "https://th.bing.com/th?id=OLC.Ygrb%2ff0LRpMfgw480x360&w=92&h=134&c=8&rs=1&qlt=80&cdv=1&pid=Local"
  },
  {
    "name": "Rakesh Kumar",
    "address": "Sector-4, City Center, Chas, Near Friends Madical, Sector-4, Bokaro, Jharkhand 827004",
    "phone": "Rakesh Kumar",
    "hours": null,
    "imageUrl": "https://www.bing.com/maps/geoplat/REST/v1/Imagery/Map/RoadVibrant?ms=92,112&key=AnTcaqBi2ypp0xI-OZNi4W_ik2KhjgpqioTAtXLC8GzkMBQRMlyxvxyTnd5b73im&c=en-US&ur=in&da=n&logo=n&fmt=png&od=1&shading=hill&pp=23.635406,86.170349;dfp"
  },
  {
    "name": "Dr Anil Kumar Jha Clinic",
    "address": "Bokaro Steel City, Bokaro Steel, Jharkhand 827001",
    "phone": "Dr Anil Kumar Jha Clinic",
    "hours": null,
    "imageUrl": "https://www.bing.com/maps/geoplat/REST/v1/Imagery/Map/RoadVibrant?ms=92,112&key=AnTcaqBi2ypp0xI-OZNi4W_ik2KhjgpqioTAtXLC8GzkMBQRMlyxvxyTnd5b73im&c=en-US&ur=in&da=n&logo=n&fmt=png&od=1&shading=hill&pp=23.668352,86.145416;dfp"
  },
  {
    "name": "Sanjeevani Fracture Clinic(Dr A.K Pandey) - Orthopedic Clinic in Bokaro | M.B.B.S, DNB, MS",
    "address": "115, Co-Operative Colony Rd, Cooperative Colony, Bokaro Steel, Jharkhand",
    "phone": "Sanjeevani Fracture Clinic(Dr A.K Pandey) - Orthopedic Clinic in Bokaro | M.B.B.S, DNB, MS",
    "hours": null,
    "imageUrl": "https://www.bing.com/maps/geoplat/REST/v1/Imagery/Map/RoadVibrant?ms=92,112&key=AnTcaqBi2ypp0xI-OZNi4W_ik2KhjgpqioTAtXLC8GzkMBQRMlyxvxyTnd5b73im&c=en-US&ur=in&da=n&logo=n&fmt=png&od=1&shading=hill&pp=23.637932,86.119965;dfp"
  },
  {
    "name": "Sharma Clinic",
    "address": "Nh23, Bokaro Steel, Jharkhand 827001",
    "phone": "Sharma Clinic",
    "hours": null,
    "imageUrl": "https://th.bing.com/th?id=OLC.p%2fX%2bVXLhrVYtXQ480x360&w=92&h=112&c=8&rs=1&qlt=80&cdv=1&pid=Local"
  },
  {
    "name": "Dr Pradeep",
    "address": "Shri RAM Medical, Plot no.51, Co-Operative Colony, Police Line, Bokaro Steel, Jharkhand",
    "phone": "Dr Pradeep",
    "hours": null,
    "imageUrl": "https://www.bing.com/maps/geoplat/REST/v1/Imagery/Map/RoadVibrant?ms=92,112&key=AnTcaqBi2ypp0xI-OZNi4W_ik2KhjgpqioTAtXLC8GzkMBQRMlyxvxyTnd5b73im&c=en-US&ur=in&da=n&logo=n&fmt=png&od=1&shading=hill&pp=23.641581,86.119499;dfp"
  },
  {
    "name": "Dr. Anupam Bala- Homeopathy",
    "address": "G.H- 10, City Center Sector-4, Bokaro, Jharkhand 827004",
    "phone": "Dr. Anupam Bala- Homeopathy",
    "hours": "Closed · Opens 10:00",
    "imageUrl": "https://th.bing.com/th?id=OLC.FfbhEGnW14XELQ480x360&w=92&h=134&c=8&rs=1&qlt=80&cdv=1&pid=Local"
  },
  {
    "name": "Dr Ranbir Singh Clinic",
    "address": "Sh12, Bihar Colony, Bokaro Steel, Jharkhand 827013",
    "phone": "Dr Ranbir Singh Clinic",
    "hours": null,
    "imageUrl": "https://www.bing.com/maps/geoplat/REST/v1/Imagery/Map/RoadVibrant?ms=92,112&key=AnTcaqBi2ypp0xI-OZNi4W_ik2KhjgpqioTAtXLC8GzkMBQRMlyxvxyTnd5b73im&c=en-US&ur=in&da=n&logo=n&fmt=png&od=1&shading=hill&pp=23.632298,86.18306;dfp"
  },
  {
    "name": "Advanced Medi Centre, Diabetes Speciality Clinic",
    "address": "Hb-5 City Centre, Bokaro Steel City, Jharkhand 827004, India, Bokaro (Thermal), Jharkhand 827004",
    "phone": "Advanced Medi Centre, Diabetes Speciality Clinic",
    "hours": null,
    "imageUrl": "https://th.bing.com/th?id=OLC.fGjBkG6h9Dzgug480x360&w=92&h=112&c=8&rs=1&qlt=80&cdv=1&pid=Local"
  },
  {
    "name": "Dr. Sinha Pathological Clinic",
    "address": "Plot No. 39, Co-Operative Colony, Police Line, Jharkhand 827001",
    "phone": "Dr. Sinha Pathological Clinic",
    "hours": null,
    "imageUrl": "https://www.bing.com/maps/geoplat/REST/v1/Imagery/Map/RoadVibrant?ms=92,112&key=AnTcaqBi2ypp0xI-OZNi4W_ik2KhjgpqioTAtXLC8GzkMBQRMlyxvxyTnd5b73im&c=en-US&ur=in&da=n&logo=n&fmt=png&od=1&shading=hill&pp=23.637932,86.119965;dfp"
  },
  {
    "name": "Dr Sanjay Singh",
    "address": "Mahavir Chowk, Bokaro Steel, Jharkhand 827013",
    "phone": "Dr Sanjay Singh",
    "hours": null,
    "imageUrl": "https://www.bing.com/maps/geoplat/REST/v1/Imagery/Map/RoadVibrant?ms=92,112&key=AnTcaqBi2ypp0xI-OZNi4W_ik2KhjgpqioTAtXLC8GzkMBQRMlyxvxyTnd5b73im&c=en-US&ur=in&da=n&logo=n&fmt=png&od=1&shading=hill&pp=23.633329,86.174934;dfp"
  },
  {
    "name": "Dr Praveen Pushkar- Best Urologist, Kidney Stone Doctor, Transplant Surgeon, Laser Prostate Surgery in …",
    "address": "Medicant Hospital & Research Center, Biada Housing Colony, Ritudih, Near Sudha Dairy, Bokaro Steel, Jhark…",
    "phone": "Dr Praveen Pushkar- Best Urologist, Kidney Stone Doctor, Transplant Surgeon, Laser Prostate Surgery in …",
    "hours": "Closed · Opens 09:00",
    "imageUrl": "https://www.bing.com/th?id=OLC.7Vh5C59JmidEzQ480x360&w=92&h=134&c=8&rs=1&qlt=80&cdv=1&pid=Local"
  },
  {
    "name": "Wellmark Hospital",
    "address": "Plot NO.15E\\3, Western Avenue, Marafari Road, Bokaro, Jharkhand 827001",
    "phone": "Wellmark Hospital",
    "hours": null,
    "imageUrl": "https://www.bing.com/th?id=OLC.wbQG8ZQc2E7suQ480x360&w=92&h=112&c=8&rs=1&qlt=80&cdv=1&pid=Local"
  }
]