[
  {
    "name": "Dr. Shalini's Navjeevan Clinic",
    "address": "Main Rd, Borpara, Mayapuri, Bongaigaon, Assam",
    "phone": "Dr. Shalini's Navjeevan Clinic",
    "hours": null,
    "imageUrl": "https://www.bing.com/maps/geoplat/REST/v1/Imagery/Map/RoadVibrant?ms=92,112&key=AnTcaqBi2ypp0xI-OZNi4W_ik2KhjgpqioTAtXLC8GzkMBQRMlyxvxyTnd5b73im&c=en-US&ur=in&da=n&logo=n&fmt=png&od=1&shading=hill&pp=26.474941,90.557289;dfp"
  },
  {
    "name": "Dr. DR.SODAGOR SINGHA | Orthopedic | Wellness care",
    "address": "Wellness Care, Chapaguri Road, Bongaigaon, Assam, India, 783380, Bongaigaon, Madhya Pradesh 783380",
    "phone": "Dr. DR.SODAGOR SINGHA | Orthopedic | Wellness care",
    "hours": "Closed · Opens 09:00",
    "imageUrl": "https://www.bing.com/th?id=OLC.lZ2tytoAlJtohw480x360&w=92&h=134&c=8&rs=1&qlt=80&cdv=1&pid=Local"
  },
  {
    "name": "Mb's Rooftop Inn",
    "address": "A.K. Choudhury Path, Barpara, Bongaigaon, Ward No-05, Bongaigaon, Assam 783380",
    "phone": "Mb's Rooftop Inn",
    "hours": null,
    "imageUrl": "https://www.bing.com/th?id=OLC.J%2f8z4R5C7urU%2bw480x360&w=92&h=112&c=8&rs=1&qlt=80&cdv=1&pid=Local"
  },
  {
    "name": "SM Hospital and Diagnostics Center",
    "address": "Joyti Nagar Jyoti Nagar, Sh2 Chapaguri Road, Bongaigaon Refinery, Assam 783380",
    "phone": "SM Hospital and Diagnostics Center",
    "hours": null,
    "imageUrl": "https://www.bing.com/th?id=OLC.3azjiKZR9D1YRA480x360&w=92&h=112&c=8&rs=1&qlt=80&cdv=1&pid=Local"
  },
  {
    "name": "Primary Health Centre",
    "address": "Boitamari North Salmara Besimari, Nh31, Goalpara, Assam 783389",
    "phone": "Primary Health Centre",
    "hours": null,
    "imageUrl": "https://www.bing.com/maps/geoplat/REST/v1/Imagery/Map/RoadVibrant?ms=92,112&key=AnTcaqBi2ypp0xI-OZNi4W_ik2KhjgpqioTAtXLC8GzkMBQRMlyxvxyTnd5b73im&c=en-US&ur=in&da=n&logo=n&fmt=png&od=1&shading=hill&pp=26.344076,90.515244;dfp"
  },
  {
    "name": "Primary Health Centre",
    "address": "Chaprakata, Nh31c, Goalpara, Assam 783380",
    "phone": "Primary Health Centre",
    "hours": null,
    "imageUrl": "https://www.bing.com/maps/geoplat/REST/v1/Imagery/Map/RoadVibrant?ms=92,112&key=AnTcaqBi2ypp0xI-OZNi4W_ik2KhjgpqioTAtXLC8GzkMBQRMlyxvxyTnd5b73im&c=en-US&ur=in&da=n&logo=n&fmt=png&od=1&shading=hill&pp=26.490976,90.616394;dfp"
  },
  {
    "name": "Apollo Dialysis Clinics",
    "address": "Bongaigaon Civil Hospital, Bongaigaon, Assam 783380",
    "phone": "Apollo Dialysis Clinics",
    "hours": "Open · Closes 21:00",
    "imageUrl": "https://www.bing.com/maps/geoplat/REST/v1/Imagery/Map/RoadVibrant?ms=92,134&key=AnTcaqBi2ypp0xI-OZNi4W_ik2KhjgpqioTAtXLC8GzkMBQRMlyxvxyTnd5b73im&c=en-US&ur=in&da=n&logo=n&fmt=png&od=1&shading=hill&pp=26.431141,90.576912;dfp"
  },
  {
    "name": "Dr. Ashad Islam- MBBS (general practitioner)",
    "address": "Dinaram Memorial Hospital, Ward No.1 Roumari, Abhayapuri, Assam 783384",
    "phone": "Dr. Ashad Islam- MBBS (general practitioner)",
    "hours": "Closed · Opens tomorrow 00:00",
    "imageUrl": "https://www.bing.com/maps/geoplat/REST/v1/Imagery/Map/RoadVibrant?ms=92,134&key=AnTcaqBi2ypp0xI-OZNi4W_ik2KhjgpqioTAtXLC8GzkMBQRMlyxvxyTnd5b73im&c=en-US&ur=in&da=n&logo=n&fmt=png&od=1&shading=hill&pp=26.32708,90.667412;dfp"
  },
  {
    "name": "Dr Lal PathLabs",
    "address": "ITI Road, BOC Gate, Back Side Of Mistimukh, North Bongaigaon, Assam - 783380, Bongaigaon, Assam 783…",
    "phone": "Dr Lal PathLabs",
    "hours": "Opens in 24 mins",
    "imageUrl": "https://www.bing.com/maps/geoplat/REST/v1/Imagery/Map/RoadVibrant?ms=92,134&key=AnTcaqBi2ypp0xI-OZNi4W_ik2KhjgpqioTAtXLC8GzkMBQRMlyxvxyTnd5b73im&c=en-US&ur=in&da=n&logo=n&fmt=png&od=1&shading=hill&pp=26.487675,90.551323;dfp"
  },
  {
    "name": "Dr. Probal Soud",
    "address": "Chapaguri Road, North Bongaigaon, Bongaigaon, Assam",
    "phone": "Dr. Probal Soud",
    "hours": "Closed · Opens 09:00",
    "imageUrl": "https://www.bing.com/maps/geoplat/REST/v1/Imagery/Map/RoadVibrant?ms=92,112&key=AnTcaqBi2ypp0xI-OZNi4W_ik2KhjgpqioTAtXLC8GzkMBQRMlyxvxyTnd5b73im&c=en-US&ur=in&da=n&logo=n&fmt=png&od=1&shading=hill&pp=26.482817,90.553879;dfp"
  },
  {
    "name": "Dr. Subrata's Pain Clinic - Home | Facebook",
    "address": "Opposite of Hindi L.P School, Majid Road, Main Market, Lumding, Lumding, Assam, Assam 782447",
    "phone": "Dr. Subrata's Pain Clinic - Home | Facebook",
    "hours": null,
    "imageUrl": "https://www.bing.com/maps/geoplat/REST/v1/Imagery/Map/RoadVibrant?ms=92,112&key=AnTcaqBi2ypp0xI-OZNi4W_ik2KhjgpqioTAtXLC8GzkMBQRMlyxvxyTnd5b73im&c=en-US&ur=in&da=n&logo=n&fmt=png&od=1&shading=hill&pp=26.342546,90.657646;dfp"
  },
  {
    "name": "Dwipen Talukdar",
    "address": "Ward NO. 1, Near Circle Office, Kanaklata Road, Bongaigaon, Assam 783380",
    "phone": "Dwipen Talukdar",
    "hours": null,
    "imageUrl": "https://www.bing.com/maps/geoplat/REST/v1/Imagery/Map/RoadVibrant?ms=92,112&key=AnTcaqBi2ypp0xI-OZNi4W_ik2KhjgpqioTAtXLC8GzkMBQRMlyxvxyTnd5b73im&c=en-US&ur=in&da=n&logo=n&fmt=png&od=1&shading=hill&pp=26.493999,90.551102;dfp"
  },
  {
    "name": "Dr. Shalini's Navjeevan Clinic",
    "address": "Main Rd, Borpara, Mayapuri, Bongaigaon, Assam",
    "phone": "Dr. Shalini's Navjeevan Clinic",
    "hours": null,
    "imageUrl": "https://www.bing.com/maps/geoplat/REST/v1/Imagery/Map/RoadVibrant?ms=92,112&key=AnTcaqBi2ypp0xI-OZNi4W_ik2KhjgpqioTAtXLC8GzkMBQRMlyxvxyTnd5b73im&c=en-US&ur=in&da=n&logo=n&fmt=png&od=1&shading=hill&pp=26.474941,90.557289;dfp"
  },
  {
    "name": "Dr. DR.SODAGOR SINGHA | Orthopedic | Wellness care",
    "address": "Wellness Care, Chapaguri Road, Bongaigaon, Assam, India, 783380, Bongaigaon, Madhya Pradesh 783380",
    "phone": "Dr. DR.SODAGOR SINGHA | Orthopedic | Wellness care",
    "hours": "Closed · Opens 09:00",
    "imageUrl": "https://www.bing.com/th?id=OLC.lZ2tytoAlJtohw480x360&w=92&h=134&c=8&rs=1&qlt=80&cdv=1&pid=Local"
  },
  {
    "name": "Mb's Rooftop Inn",
    "address": "A.K. Choudhury Path, Barpara, Bongaigaon, Ward No-05, Bongaigaon, Assam 783380",
    "phone": "Mb's Rooftop Inn",
    "hours": null,
    "imageUrl": "https://www.bing.com/th?id=OLC.J%2f8z4R5C7urU%2bw480x360&w=92&h=112&c=8&rs=1&qlt=80&cdv=1&pid=Local"
  },
  {
    "name": "SM Hospital and Diagnostics Center",
    "address": "Joyti Nagar Jyoti Nagar, Sh2 Chapaguri Road, Bongaigaon Refinery, Assam 783380",
    "phone": "SM Hospital and Diagnostics Center",
    "hours": null,
    "imageUrl": "https://www.bing.com/th?id=OLC.3azjiKZR9D1YRA480x360&w=92&h=112&c=8&rs=1&qlt=80&cdv=1&pid=Local"
  },
  {
    "name": "Primary Health Centre",
    "address": "Boitamari North Salmara Besimari, Nh31, Goalpara, Assam 783389",
    "phone": "Primary Health Centre",
    "hours": null,
    "imageUrl": "https://www.bing.com/maps/geoplat/REST/v1/Imagery/Map/RoadVibrant?ms=92,112&key=AnTcaqBi2ypp0xI-OZNi4W_ik2KhjgpqioTAtXLC8GzkMBQRMlyxvxyTnd5b73im&c=en-US&ur=in&da=n&logo=n&fmt=png&od=1&shading=hill&pp=26.344076,90.515244;dfp"
  },
  {
    "name": "Primary Health Centre",
    "address": "Chaprakata, Nh31c, Goalpara, Assam 783380",
    "phone": "Primary Health Centre",
    "hours": null,
    "imageUrl": "https://www.bing.com/maps/geoplat/REST/v1/Imagery/Map/RoadVibrant?ms=92,112&key=AnTcaqBi2ypp0xI-OZNi4W_ik2KhjgpqioTAtXLC8GzkMBQRMlyxvxyTnd5b73im&c=en-US&ur=in&da=n&logo=n&fmt=png&od=1&shading=hill&pp=26.490976,90.616394;dfp"
  },
  {
    "name": "Apollo Dialysis Clinics",
    "address": "Bongaigaon Civil Hospital, Bongaigaon, Assam 783380",
    "phone": "Apollo Dialysis Clinics",
    "hours": "Open · Closes 21:00",
    "imageUrl": "https://www.bing.com/maps/geoplat/REST/v1/Imagery/Map/RoadVibrant?ms=92,134&key=AnTcaqBi2ypp0xI-OZNi4W_ik2KhjgpqioTAtXLC8GzkMBQRMlyxvxyTnd5b73im&c=en-US&ur=in&da=n&logo=n&fmt=png&od=1&shading=hill&pp=26.431141,90.576912;dfp"
  },
  {
    "name": "Dr. Ashad Islam- MBBS (general practitioner)",
    "address": "Dinaram Memorial Hospital, Ward No.1 Roumari, Abhayapuri, Assam 783384",
    "phone": "Dr. Ashad Islam- MBBS (general practitioner)",
    "hours": "Closed · Opens tomorrow 00:00",
    "imageUrl": "https://www.bing.com/maps/geoplat/REST/v1/Imagery/Map/RoadVibrant?ms=92,134&key=AnTcaqBi2ypp0xI-OZNi4W_ik2KhjgpqioTAtXLC8GzkMBQRMlyxvxyTnd5b73im&c=en-US&ur=in&da=n&logo=n&fmt=png&od=1&shading=hill&pp=26.32708,90.667412;dfp"
  }
]