[
  {
    "name": "Dr. Sanjay- Ayush",
    "address": "Dr. Sanjay Clinic, Ticket Ganj, Sarafa Market, Near Hanuman Mandir, Budaun, Uttar Pradesh 243601",
    "phone": "Dr. Sanjay- Ayush",
    "hours": "Closed · Opens 10:00",
    "imageUrl": "https://www.bing.com/maps/geoplat/REST/v1/Imagery/Map/RoadVibrant?ms=92,134&key=AnTcaqBi2ypp0xI-OZNi4W_ik2KhjgpqioTAtXLC8GzkMBQRMlyxvxyTnd5b73im&c=en-US&ur=in&da=n&logo=n&fmt=png&od=1&shading=hill&pp=28.039223,79.125832;dfp"
  },
  {
    "name": "Sai Hospital & Heart Care Centre",
    "address": "Gandhi Ground Near PND Bank, Budaun, Uttar Pradesh 243601",
    "phone": "Sai Hospital & Heart Care Centre",
    "hours": null,
    "imageUrl": "https://www.bing.com/th?id=OLC.cRDKXUP48wdfuw480x360&w=92&h=112&c=8&rs=1&qlt=80&cdv=1&pid=Local"
  },
  {
    "name": "Dr S. Kumar",
    "address": "Railway Station Road, Budaun, Uttar Pradesh 243601",
    "phone": "Dr S. Kumar",
    "hours": null,
    "imageUrl": "https://www.bing.com/maps/geoplat/REST/v1/Imagery/Map/RoadVibrant?ms=92,112&key=AnTcaqBi2ypp0xI-OZNi4W_ik2KhjgpqioTAtXLC8GzkMBQRMlyxvxyTnd5b73im&c=en-US&ur=in&da=n&logo=n&fmt=png&od=1&shading=hill&pp=28.030289,79.132919;dfp"
  },
  {
    "name": "Dr Yash Pal",
    "address": "Nagla Mandir Rd, Jawaharpuri, Budaun, Uttar Pradesh",
    "phone": "Dr Yash Pal",
    "hours": null,
    "imageUrl": "https://www.bing.com/maps/geoplat/REST/v1/Imagery/Map/RoadVibrant?ms=92,112&key=AnTcaqBi2ypp0xI-OZNi4W_ik2KhjgpqioTAtXLC8GzkMBQRMlyxvxyTnd5b73im&c=en-US&ur=in&da=n&logo=n&fmt=png&od=1&shading=hill&pp=28.045347,79.129875;dfp"
  },
  {
    "name": "Dr. Raizada",
    "address": "Civil Lines, Budaun, Uttar Pradesh 243601",
    "phone": "Dr. Raizada",
    "hours": null,
    "imageUrl": "https://www.bing.com/maps/geoplat/REST/v1/Imagery/Map/RoadVibrant?ms=92,112&key=AnTcaqBi2ypp0xI-OZNi4W_ik2KhjgpqioTAtXLC8GzkMBQRMlyxvxyTnd5b73im&c=en-US&ur=in&da=n&logo=n&fmt=png&od=1&shading=hill&pp=28.030794,79.132187;dfp"
  },
  {
    "name": "Dr. Geetesh Govil",
    "address": "Shiv-Kuteer, Jogipura, Budaun, Uttar Pradesh",
    "phone": "Dr. Geetesh Govil",
    "hours": "Closed · Opens 17:00",
    "imageUrl": "https://www.bing.com/maps/geoplat/REST/v1/Imagery/Map/RoadVibrant?ms=92,112&key=AnTcaqBi2ypp0xI-OZNi4W_ik2KhjgpqioTAtXLC8GzkMBQRMlyxvxyTnd5b73im&c=en-US&ur=in&da=n&logo=n&fmt=png&od=1&shading=hill&pp=28.031111,79.127121;dfp"
  },
  {
    "name": "Arya Clinic",
    "address": "Arya Clinc Budaun Road, Bilsi, Uttar Pradesh",
    "phone": "Arya Clinic",
    "hours": null,
    "imageUrl": "https://www.bing.com/maps/geoplat/REST/v1/Imagery/Map/RoadVibrant?ms=92,112&key=AnTcaqBi2ypp0xI-OZNi4W_ik2KhjgpqioTAtXLC8GzkMBQRMlyxvxyTnd5b73im&c=en-US&ur=in&da=n&logo=n&fmt=png&od=1&shading=hill&pp=28.039261,79.129875;dfp"
  },
  {
    "name": "Ashok Clinic",
    "address": "Kotwali Road, Budaun, Uttar Pradesh 243601",
    "phone": "Ashok Clinic",
    "hours": null,
    "imageUrl": "https://www.bing.com/maps/geoplat/REST/v1/Imagery/Map/RoadVibrant?ms=92,112&key=AnTcaqBi2ypp0xI-OZNi4W_ik2KhjgpqioTAtXLC8GzkMBQRMlyxvxyTnd5b73im&c=en-US&ur=in&da=n&logo=n&fmt=png&od=1&shading=hill&pp=28.034048,79.121323;dfp"
  },
  {
    "name": "Ram Clinic",
    "address": "Nh93, Rajkiya Kanya Inter Colleges, Budaun, Uttar Pradesh 243601",
    "phone": "Ram Clinic",
    "hours": null,
    "imageUrl": "https://www.bing.com/maps/geoplat/REST/v1/Imagery/Map/RoadVibrant?ms=92,112&key=AnTcaqBi2ypp0xI-OZNi4W_ik2KhjgpqioTAtXLC8GzkMBQRMlyxvxyTnd5b73im&c=en-US&ur=in&da=n&logo=n&fmt=png&od=1&shading=hill&pp=28.026169,79.134529;dfp"
  },
  {
    "name": "Dr Ajeet Pal Singh, MBBS, MD",
    "address": "Civil Lines, Budaun, Madhya Pradesh 243601",
    "phone": "Dr Ajeet Pal Singh, MBBS, MD",
    "hours": "Closed · Opens 11:30",
    "imageUrl": "https://th.bing.com/th?id=OLC.o%2bNjDAESmlV0Mg480x360&w=92&h=112&c=8&rs=1&qlt=80&cdv=1&pid=Local"
  },
  {
    "name": "Bhai Clinic",
    "address": "Near Shakeel Road, Shehnai Marriage Hall, Budaun, Uttar Pradesh 243601",
    "phone": "Bhai Clinic",
    "hours": null,
    "imageUrl": "https://www.bing.com/maps/geoplat/REST/v1/Imagery/Map/RoadVibrant?ms=92,112&key=AnTcaqBi2ypp0xI-OZNi4W_ik2KhjgpqioTAtXLC8GzkMBQRMlyxvxyTnd5b73im&c=en-US&ur=in&da=n&logo=n&fmt=png&od=1&shading=hill&pp=28.037003,79.11924;dfp"
  },
  {
    "name": "Sarla Clinic",
    "address": "6 Civil Lines, Badaun, Uttar Pradesh, Uttar Pradesh 243601",
    "phone": "Sarla Clinic",
    "hours": null,
    "imageUrl": "https://www.bing.com/maps/geoplat/REST/v1/Imagery/Map/RoadVibrant?ms=92,112&key=AnTcaqBi2ypp0xI-OZNi4W_ik2KhjgpqioTAtXLC8GzkMBQRMlyxvxyTnd5b73im&c=en-US&ur=in&da=n&logo=n&fmt=png&od=1&shading=hill&pp=28.031832,79.127663;dfp"
  },
  {
    "name": "Dr. HarshitRaj Gupta | Gastroenterologist | HarshGupta",
    "address": "Harshgupta, Budaun, Uttar Pradesh, India, 243601, Budaun, Madhya Pradesh 243601",
    "phone": "Dr. HarshitRaj Gupta | Gastroenterologist | HarshGupta",
    "hours": null,
    "imageUrl": "https://th.bing.com/th?id=OLC.HzXSXR7TEVMp1A480x360&w=92&h=112&c=8&rs=1&qlt=80&cdv=1&pid=Local"
  },
  {
    "name": "Life Neurotherapy Clinic",
    "address": "Geeta Bhawan Road Opposite Arora Attachi House, Nawanshahr Doaba, Punjab Region 144514",
    "phone": "Life Neurotherapy Clinic",
    "hours": null,
    "imageUrl": "https://th.bing.com/th?id=OLC.DVbdU14BfxnI5Q480x360&w=92&h=112&c=8&rs=1&qlt=80&cdv=1&pid=Local"
  },
  {
    "name": "Sharma Homoeo Clinic And Reasearch Center",
    "address": "Near Railway Station, Badaun, Uttar Pradesh 243601",
    "phone": "Sharma Homoeo Clinic And Reasearch Center",
    "hours": "Closed · Opens 09:30",
    "imageUrl": "https://th.bing.com/th?id=OLC.EVX6fgTAKLTb5A480x360&w=92&h=134&c=8&rs=1&qlt=80&cdv=1&pid=Local"
  },
  {
    "name": "Dashmesh Clinical Lab",
    "address": "Opposite Civil Hospital, Near Icici Bank, Mukerian, Punjab Region 144211",
    "phone": "Dashmesh Clinical Lab",
    "hours": null,
    "imageUrl": "https://th.bing.com/th?id=OLC.QM0GxdcleanmyA480x360&w=92&h=112&c=8&rs=1&qlt=80&cdv=1&pid=Local"
  },
  {
    "name": "Jerath Path Labs & Allergy Testing Centre",
    "address": "Ultrasound Center K Samne, Choudhry Sarai, Shakeel Rd, Near Budaun, Budaun, Uttar Pradesh",
    "phone": "Jerath Path Labs & Allergy Testing Centre",
    "hours": null,
    "imageUrl": "https://th.bing.com/th?id=OLC.uwww%2b84bN261PA480x360&w=92&h=112&c=8&rs=1&qlt=80&cdv=1&pid=Local"
  },
  {
    "name": "Gungun pathology lab",
    "address": "Opposite Asrar Petrol Pump, Near Railway Crossing Batra Complex, Budaun, Uttar Pradesh",
    "phone": "Gungun pathology lab",
    "hours": null,
    "imageUrl": "https://www.bing.com/maps/geoplat/REST/v1/Imagery/Map/RoadVibrant?ms=92,112&key=AnTcaqBi2ypp0xI-OZNi4W_ik2KhjgpqioTAtXLC8GzkMBQRMlyxvxyTnd5b73im&c=en-US&ur=in&da=n&logo=n&fmt=png&od=1&shading=hill&pp=28.03014,79.133492;dfp"
  },
  {
    "name": "Dr. Sanjay- Ayush",
    "address": "Dr. Sanjay Clinic, Ticket Ganj, Sarafa Market, Near Hanuman Mandir, Budaun, Uttar Pradesh 243601",
    "phone": "Dr. Sanjay- Ayush",
    "hours": "Closed · Opens 10:00",
    "imageUrl": "https://www.bing.com/maps/geoplat/REST/v1/Imagery/Map/RoadVibrant?ms=92,134&key=AnTcaqBi2ypp0xI-OZNi4W_ik2KhjgpqioTAtXLC8GzkMBQRMlyxvxyTnd5b73im&c=en-US&ur=in&da=n&logo=n&fmt=png&od=1&shading=hill&pp=28.039223,79.125832;dfp"
  },
  {
    "name": "Sai Hospital & Heart Care Centre",
    "address": "Gandhi Ground Near PND Bank, Budaun, Uttar Pradesh 243601",
    "phone": "Sai Hospital & Heart Care Centre",
    "hours": null,
    "imageUrl": "https://www.bing.com/th?id=OLC.cRDKXUP48wdfuw480x360&w=92&h=112&c=8&rs=1&qlt=80&cdv=1&pid=Local"
  }
]