[
  {
    "name": "Dr. Javaid | General Physician | Dr javaids health clinic",
    "address": "Budgam, Bus Stand, Srinagar, Jammu and Kashmir, India, 190021, Srinagar, Madhya Pradesh 190021",
    "phone": "Dr. Javaid | General Physician | Dr javaids health clinic",
    "hours": "Closed · Opens Sep 29 at 10:00",
    "imageUrl": "https://www.bing.com/th?id=OLC.HhGmDHsOOYLLYw480x360&w=92&h=134&c=8&rs=1&qlt=80&cdv=1&pid=Local"
  },
  {
    "name": "DR. Obaid Khursheed",
    "address": "Opposite Govt. Girls HR. SEC, Radio Colony, Near RAJ Bagh Police Station -190008, Srinagar",
    "phone": "DR. Obaid Khursheed",
    "hours": null,
    "imageUrl": "https://www.bing.com/maps/geoplat/REST/v1/Imagery/Map/RoadVibrant?ms=92,112&key=AnTcaqBi2ypp0xI-OZNi4W_ik2KhjgpqioTAtXLC8GzkMBQRMlyxvxyTnd5b73im&c=en-US&ur=in&da=n&logo=n&fmt=png&od=1&shading=hill&pp=34.072987,74.79998;dfp"
  },
  {
    "name": "Medipol Multi-speciality Clinic",
    "address": "Gousia Opposite New Bus Stand Budgam, Badgam, Jammu and Kashmir 191111",
    "phone": "Medipol Multi-speciality Clinic",
    "hours": null,
    "imageUrl": "https://www.bing.com/maps/geoplat/REST/v1/Imagery/Map/RoadVibrant?ms=92,112&key=AnTcaqBi2ypp0xI-OZNi4W_ik2KhjgpqioTAtXLC8GzkMBQRMlyxvxyTnd5b73im&c=en-US&ur=in&da=n&logo=n&fmt=png&od=1&shading=hill&pp=34.01878,74.719879;dfp"
  },
  {
    "name": "Dr Furqan's Medicity Diagnostics and Polyclinic",
    "address": "Main Chowk, Chadoora",
    "phone": "Dr Furqan's Medicity Diagnostics and Polyclinic",
    "hours": null,
    "imageUrl": "https://www.bing.com/maps/geoplat/REST/v1/Imagery/Map/RoadVibrant?ms=92,112&key=AnTcaqBi2ypp0xI-OZNi4W_ik2KhjgpqioTAtXLC8GzkMBQRMlyxvxyTnd5b73im&c=en-US&ur=in&da=n&logo=n&fmt=png&od=1&shading=hill&pp=34.03767,74.817146;dfp"
  },
  {
    "name": "Dr. Mukhtar Masoodi- Rheumatologist",
    "address": "Rheumax Arthritis and Rheumatology Center, Ground Floor, Shah Complex, Near Panaash Coaching Center, …",
    "phone": "Dr. Mukhtar Masoodi- Rheumatologist",
    "hours": "Closed · Opens Wed 16:00",
    "imageUrl": "https://www.bing.com/th?id=OLC.33piYIZM6w8e1w480x360&w=92&h=134&c=8&rs=1&qlt=80&cdv=1&pid=Local"
  },
  {
    "name": "Dr. Naveed Anwar",
    "address": "Zafar Ali Rd, Gulberg V, Lahore, Punjab, Pakistan, کھرڑ 160103",
    "phone": "Dr. Naveed Anwar",
    "hours": null,
    "imageUrl": "https://www.bing.com/maps/geoplat/REST/v1/Imagery/Map/RoadVibrant?ms=92,112&key=AnTcaqBi2ypp0xI-OZNi4W_ik2KhjgpqioTAtXLC8GzkMBQRMlyxvxyTnd5b73im&c=en-US&ur=in&da=n&logo=n&fmt=png&od=1&shading=hill&pp=34.093254,74.790604;dfp"
  },
  {
    "name": "Nulife Clinic",
    "address": "Main Road, Govt Degree College Jammu and Kashmir, Bemina, Srinagar",
    "phone": "Nulife Clinic",
    "hours": "Open · Closes 19:00",
    "imageUrl": "https://th.bing.com/th?id=OLC.qD0ONqV9JDNpmg480x360&w=92&h=112&c=8&rs=1&qlt=80&cdv=1&pid=Local"
  },
  {
    "name": "Dr M Akbar, CABG, Minimally invasive cadiac surgery, VATS, Endovascular surgery.",
    "address": "Skims, Soura, Srinagar Skims, Srinagar",
    "phone": "Dr M Akbar, CABG, Minimally invasive cadiac surgery, VATS, Endovascular surgery.",
    "hours": null,
    "imageUrl": "https://th.bing.com/th?id=OLC.nUq4zMslpgv9Ew480x360&w=92&h=112&c=8&rs=1&qlt=80&cdv=1&pid=Local"
  },
  {
    "name": "Dr Shah Naveed - Cancer Surgeon",
    "address": "Paras Hospitals, Durganag, Dalgate, Srinagar 190001",
    "phone": "Dr Shah Naveed - Cancer Surgeon",
    "hours": "Closed · Opens 10:00",
    "imageUrl": "https://th.bing.com/th?id=OLC.W9uU99S1o91psw480x360&w=92&h=134&c=8&rs=1&qlt=80&cdv=1&pid=Local"
  },
  {
    "name": "Dr. Ashaq Hussain Parrey- Rheumatologist",
    "address": "Angel Pharmacy Iqbal Complex, Srinagar 190011",
    "phone": "Dr. Ashaq Hussain Parrey- Rheumatologist",
    "hours": "Closed · Opens 08:00",
    "imageUrl": "https://th.bing.com/th?id=OLC.JkslklgkhVKVEA480x360&w=92&h=134&c=8&rs=1&qlt=80&cdv=1&pid=Local"
  },
  {
    "name": "Medicover Fertility Clinic- Best IVF Center in Srinagar, Jammu and Kashmir",
    "address": "Nowgam, Baypass, Srinagar, Jammu and Kashmir (State) 190014",
    "phone": "Medicover Fertility Clinic- Best IVF Center in Srinagar, Jammu and Kashmir",
    "hours": "Closed · Opens 10:00",
    "imageUrl": "https://th.bing.com/th?id=OLC.25uuDPmaKZBmyA480x360&w=92&h=134&c=8&rs=1&qlt=80&cdv=1&pid=Local"
  },
  {
    "name": "Srinagar Diagnostic Centre",
    "address": "Bagh I Hyder Street, Srinagar 190014",
    "phone": "Srinagar Diagnostic Centre",
    "hours": null,
    "imageUrl": "https://www.bing.com/maps/geoplat/REST/v1/Imagery/Map/RoadVibrant?ms=92,112&key=AnTcaqBi2ypp0xI-OZNi4W_ik2KhjgpqioTAtXLC8GzkMBQRMlyxvxyTnd5b73im&c=en-US&ur=in&da=n&logo=n&fmt=png&od=1&shading=hill&pp=34.035336,74.79026;dfp"
  },
  {
    "name": "Dr Lal pathLabs",
    "address": "Sub District Hospital, Beerwah",
    "phone": "Dr Lal pathLabs",
    "hours": null,
    "imageUrl": "https://www.bing.com/maps/geoplat/REST/v1/Imagery/Map/RoadVibrant?ms=92,112&key=AnTcaqBi2ypp0xI-OZNi4W_ik2KhjgpqioTAtXLC8GzkMBQRMlyxvxyTnd5b73im&c=en-US&ur=in&da=n&logo=n&fmt=png&od=1&shading=hill&pp=34.01445,74.589691;dfp"
  },
  {
    "name": "Vardaan IVF Clinic",
    "address": "at jk Sonography, 2, Magarmal Bagh Rd, Shergarhi, Srinagar",
    "phone": "Vardaan IVF Clinic",
    "hours": null,
    "imageUrl": "https://th.bing.com/th?id=OLC.BbiT6gKmJMoqVg480x360&w=92&h=112&c=8&rs=1&qlt=80&cdv=1&pid=Local"
  },
  {
    "name": "Madina Diagnostic Centre",
    "address": "Near JK Bank ATM, Budgam 191111",
    "phone": "Madina Diagnostic Centre",
    "hours": null,
    "imageUrl": "https://www.bing.com/maps/geoplat/REST/v1/Imagery/Map/RoadVibrant?ms=92,112&key=AnTcaqBi2ypp0xI-OZNi4W_ik2KhjgpqioTAtXLC8GzkMBQRMlyxvxyTnd5b73im&c=en-US&ur=in&da=n&logo=n&fmt=png&od=1&shading=hill&pp=34.070175,74.760437;dfp"
  },
  {
    "name": "DR.Abid's Sexology Clinic",
    "address": "77, Ibrahim Sector Bemina, Bemina Housing Colony, Opp Police Public School Gate, Srinagar, Srinagar 190018",
    "phone": "DR.Abid's Sexology Clinic",
    "hours": "Closed · Opens tomorrow 00:00",
    "imageUrl": "https://www.bing.com/maps/geoplat/REST/v1/Imagery/Map/RoadVibrant?ms=92,134&key=AnTcaqBi2ypp0xI-OZNi4W_ik2KhjgpqioTAtXLC8GzkMBQRMlyxvxyTnd5b73im&c=en-US&ur=in&da=n&logo=n&fmt=png&od=1&shading=hill&pp=34.0742,74.767914;dfp"
  },
  {
    "name": "Chest Care Clinic",
    "address": "Hazratbal Gulab Bagh Road, Zakura Petrol Pump, Zakoora, Srinagar, Jammu and Kashmir (State) 190006",
    "phone": "Chest Care Clinic",
    "hours": null,
    "imageUrl": "https://www.bing.com/maps/geoplat/REST/v1/Imagery/Map/RoadVibrant?ms=92,112&key=AnTcaqBi2ypp0xI-OZNi4W_ik2KhjgpqioTAtXLC8GzkMBQRMlyxvxyTnd5b73im&c=en-US&ur=in&da=n&logo=n&fmt=png&od=1&shading=hill&pp=34.154148,74.834862;dfp"
  },
  {
    "name": "Dr. Javaid | General Physician | Dr javaids health clinic",
    "address": "Budgam, Bus Stand, Srinagar, Jammu and Kashmir, India, 190021, Srinagar, Madhya Pradesh 190021",
    "phone": "Dr. Javaid | General Physician | Dr javaids health clinic",
    "hours": "Closed · Opens Sep 29 at 10:00",
    "imageUrl": "https://www.bing.com/th?id=OLC.HhGmDHsOOYLLYw480x360&w=92&h=134&c=8&rs=1&qlt=80&cdv=1&pid=Local"
  },
  {
    "name": "DR. Obaid Khursheed",
    "address": "Opposite Govt. Girls HR. SEC, Radio Colony, Near RAJ Bagh Police Station -190008, Srinagar",
    "phone": "DR. Obaid Khursheed",
    "hours": null,
    "imageUrl": "https://www.bing.com/maps/geoplat/REST/v1/Imagery/Map/RoadVibrant?ms=92,112&key=AnTcaqBi2ypp0xI-OZNi4W_ik2KhjgpqioTAtXLC8GzkMBQRMlyxvxyTnd5b73im&c=en-US&ur=in&da=n&logo=n&fmt=png&od=1&shading=hill&pp=34.072987,74.79998;dfp"
  },
  {
    "name": "Medipol Multi-speciality Clinic",
    "address": "Gousia Opposite New Bus Stand Budgam, Badgam, Jammu and Kashmir 191111",
    "phone": "Medipol Multi-speciality Clinic",
    "hours": null,
    "imageUrl": "https://www.bing.com/maps/geoplat/REST/v1/Imagery/Map/RoadVibrant?ms=92,112&key=AnTcaqBi2ypp0xI-OZNi4W_ik2KhjgpqioTAtXLC8GzkMBQRMlyxvxyTnd5b73im&c=en-US&ur=in&da=n&logo=n&fmt=png&od=1&shading=hill&pp=34.01878,74.719879;dfp"
  }
]