[
  {
    "name": "Dr. Gurdeep Kumar Rajan",
    "address": "469, Kothiyat, DM Road, Bulandshahr, Uttar Pradesh",
    "phone": "Dr. Gurdeep Kumar Rajan",
    "hours": "Closed · Opens 10:00",
    "imageUrl": "https://www.bing.com/maps/geoplat/REST/v1/Imagery/Map/RoadVibrant?ms=92,112&key=AnTcaqBi2ypp0xI-OZNi4W_ik2KhjgpqioTAtXLC8GzkMBQRMlyxvxyTnd5b73im&c=en-US&ur=in&da=n&logo=n&fmt=png&od=1&shading=hill&pp=28.416311,77.84156;dfp"
  },
  {
    "name": "Dr BK Jindal Clinic",
    "address": "Bulandshahr Siyana Road, Moti Bagh Kotiyat Bulandshahr, Bulandshahr, Uttar Pradesh 203001",
    "phone": "Dr BK Jindal Clinic",
    "hours": null,
    "imageUrl": "https://www.bing.com/maps/geoplat/REST/v1/Imagery/Map/RoadVibrant?ms=92,112&key=AnTcaqBi2ypp0xI-OZNi4W_ik2KhjgpqioTAtXLC8GzkMBQRMlyxvxyTnd5b73im&c=en-US&ur=in&da=n&logo=n&fmt=png&od=1&shading=hill&pp=28.406994,77.854263;dfp"
  },
  {
    "name": "Dr B P Singh",
    "address": "Devipura 1St Street, Krishna Palace, Devipura I Bulandshahr, Bulandshahr, Uttar Pradesh 203001",
    "phone": "Dr B P Singh",
    "hours": null,
    "imageUrl": "https://www.bing.com/maps/geoplat/REST/v1/Imagery/Map/RoadVibrant?ms=92,112&key=AnTcaqBi2ypp0xI-OZNi4W_ik2KhjgpqioTAtXLC8GzkMBQRMlyxvxyTnd5b73im&c=en-US&ur=in&da=n&logo=n&fmt=png&od=1&shading=hill&pp=28.414898,77.85054;dfp"
  },
  {
    "name": "Dr Sanjeev Aggarwal Clinic",
    "address": "63 B Avas Vikas 1 Opposite Swastik Lodge Bulandshahr 203001, Bulandshahar, Uttar Pradesh 203001",
    "phone": "Dr Sanjeev Aggarwal Clinic",
    "hours": null,
    "imageUrl": "https://www.bing.com/maps/geoplat/REST/v1/Imagery/Map/RoadVibrant?ms=92,112&key=AnTcaqBi2ypp0xI-OZNi4W_ik2KhjgpqioTAtXLC8GzkMBQRMlyxvxyTnd5b73im&c=en-US&ur=in&da=n&logo=n&fmt=png&od=1&shading=hill&pp=28.411461,77.848885;dfp"
  },
  {
    "name": "Dr Vivek Agrawal",
    "address": "K P Road Bulandshahr, Bulandshahr, Bulandshahr 203001",
    "phone": "Dr Vivek Agrawal",
    "hours": "Closed · Opens 11:00",
    "imageUrl": "https://www.bing.com/maps/geoplat/REST/v1/Imagery/Map/RoadVibrant?ms=92,112&key=AnTcaqBi2ypp0xI-OZNi4W_ik2KhjgpqioTAtXLC8GzkMBQRMlyxvxyTnd5b73im&c=en-US&ur=in&da=n&logo=n&fmt=png&od=1&shading=hill&pp=28.40222,77.85466;dfp"
  },
  {
    "name": "Dr. S. V. Singh",
    "address": "Cr2r+cfj, Chandpur Rd, Bulandshahr, Uttar Pradesh 203001",
    "phone": "Dr. S. V. Singh",
    "hours": null,
    "imageUrl": "https://www.bing.com/th?id=OLC.48XAf44RsXbjdg480x360&w=92&h=112&c=8&rs=1&qlt=80&cdv=1&pid=Local"
  },
  {
    "name": "Aiysha Verma Medical Clinic",
    "address": "01, Badarkha, Post Budhana, Bulandshahr, Uttar Pradesh 203150",
    "phone": "Aiysha Verma Medical Clinic",
    "hours": null,
    "imageUrl": "https://www.bing.com/maps/geoplat/REST/v1/Imagery/Map/RoadVibrant?ms=92,112&key=AnTcaqBi2ypp0xI-OZNi4W_ik2KhjgpqioTAtXLC8GzkMBQRMlyxvxyTnd5b73im&c=en-US&ur=in&da=n&logo=n&fmt=png&od=1&shading=hill&pp=28.409525,77.854759;dfp"
  },
  {
    "name": "Arogya Clinic",
    "address": "Nh65 Bulandshahr Siyana Road, Minar Masjid, Kali Nadi Bulandshahr, Bulandshahr, Uttar Pradesh 203001",
    "phone": "Arogya Clinic",
    "hours": null,
    "imageUrl": "https://www.bing.com/maps/geoplat/REST/v1/Imagery/Map/RoadVibrant?ms=92,112&key=AnTcaqBi2ypp0xI-OZNi4W_ik2KhjgpqioTAtXLC8GzkMBQRMlyxvxyTnd5b73im&c=en-US&ur=in&da=n&logo=n&fmt=png&od=1&shading=hill&pp=28.40881,77.868835;dfp"
  },
  {
    "name": "Dr Rajiv Mittal",
    "address": "Delhi Road, Bhoor Nagar, Bulandshahr, Uttar Pradesh 203001",
    "phone": "Dr Rajiv Mittal",
    "hours": null,
    "imageUrl": "https://www.bing.com/maps/geoplat/REST/v1/Imagery/Map/RoadVibrant?ms=92,112&key=AnTcaqBi2ypp0xI-OZNi4W_ik2KhjgpqioTAtXLC8GzkMBQRMlyxvxyTnd5b73im&c=en-US&ur=in&da=n&logo=n&fmt=png&od=1&shading=hill&pp=28.414501,77.833054;dfp"
  },
  {
    "name": "Babu Banarsi Das Rajkiya Jila Chikitsalaya",
    "address": "Moti Bagh Hospital Road, Thana Kotawali, Preet Vihar, Bulandshahr, Uttar Pradesh 203001",
    "phone": "Babu Banarsi Das Rajkiya Jila Chikitsalaya",
    "hours": null,
    "imageUrl": "https://www.bing.com/maps/geoplat/REST/v1/Imagery/Map/RoadVibrant?ms=92,112&key=AnTcaqBi2ypp0xI-OZNi4W_ik2KhjgpqioTAtXLC8GzkMBQRMlyxvxyTnd5b73im&c=en-US&ur=in&da=n&logo=n&fmt=png&od=1&shading=hill&pp=28.405367,77.853577;dfp"
  },
  {
    "name": "Shuddhi Clinic By Guru Manish Ji - Best Ayurveda Doctor & Ayurvedic Treatment",
    "address": "House No. 71, Amba Colony-2 Infront of Sri Vatika, Delhi Road, Khurja Rd, Bulandshahr, Uttar Pradesh",
    "phone": "Shuddhi Clinic By Guru Manish Ji - Best Ayurveda Doctor & Ayurvedic Treatment",
    "hours": null,
    "imageUrl": "https://www.bing.com/maps/geoplat/REST/v1/Imagery/Map/RoadVibrant?ms=92,112&key=AnTcaqBi2ypp0xI-OZNi4W_ik2KhjgpqioTAtXLC8GzkMBQRMlyxvxyTnd5b73im&c=en-US&ur=in&da=n&logo=n&fmt=png&od=1&shading=hill&pp=28.392984,77.841667;dfp"
  },
  {
    "name": "Rajeev Mittal",
    "address": "Kamla Place Ansari Road, Ansari Road, Bulandshahr, Bulandshahar, Uttar Pradesh 203001",
    "phone": "Rajeev Mittal",
    "hours": null,
    "imageUrl": "https://th.bing.com/th?id=OLC.yhGrvqrNZBtyEw480x360&w=92&h=112&c=8&rs=1&qlt=80&cdv=1&pid=Local"
  },
  {
    "name": "Dr. A.K.Jain | Ophthalmology",
    "address": "Opposite Nagar Palika Office, Bulandshahr, Uttar Pradesh, India, 203001, Bulandshahr, Madhya Prades…",
    "phone": "Dr. A.K.Jain | Ophthalmology",
    "hours": "Closed · Opens 10:00",
    "imageUrl": "https://th.bing.com/th?id=OLC.R7%2bO83JOOo%2fqsA480x360&w=92&h=134&c=8&rs=1&qlt=80&cdv=1&pid=Local"
  },
  {
    "name": "Aditya Bengali Clinic",
    "address": "SH NO 18, Main Choraha, Mmain Choraha, Jahangirpur, Bulandshahr, Uttar Pradesh 203141",
    "phone": "Aditya Bengali Clinic",
    "hours": null,
    "imageUrl": "https://www.bing.com/maps/geoplat/REST/v1/Imagery/Map/RoadVibrant?ms=92,112&key=AnTcaqBi2ypp0xI-OZNi4W_ik2KhjgpqioTAtXLC8GzkMBQRMlyxvxyTnd5b73im&c=en-US&ur=in&da=n&logo=n&fmt=png&od=1&shading=hill&pp=28.397169,77.848564;dfp"
  },
  {
    "name": "Dr. Akbar Eye Centre | Eye Specialist bulandshahr",
    "address": "10, Pallav Vihar, Bhoor Crossing, Near Anchal Hotel, Bulandshahr, Uttar Pradesh 203001",
    "phone": "Dr. Akbar Eye Centre | Eye Specialist bulandshahr",
    "hours": "Closed · Opens 10:00",
    "imageUrl": "https://th.bing.com/th?id=OLC.WQKXz2%2fXMDUIbg480x360&w=92&h=134&c=8&rs=1&qlt=80&cdv=1&pid=Local"
  },
  {
    "name": "Ayurved Lifestyle Clinic",
    "address": "Matushree-20 Shivpuri, Railway Road, Bulandshahr, Uttar Pradesh 203001",
    "phone": "Ayurved Lifestyle Clinic",
    "hours": "Closed · Opens 09:00",
    "imageUrl": "https://th.bing.com/th?id=OLC.a3SBXJaqcXx3JA480x360&w=92&h=134&c=8&rs=1&qlt=80&cdv=1&pid=Local"
  },
  {
    "name": "Astha Dental Orthodontic And Implant Centre Dr Nagendra Tyagi",
    "address": "203001 729 Radha Nager Opp, Bye Pass Road, Hydel Colony, Bulandshahr, Uttar Pradesh",
    "phone": "Astha Dental Orthodontic And Implant Centre Dr Nagendra Tyagi",
    "hours": "Closed · Opens tomorrow 09:00",
    "imageUrl": "https://www.bing.com/maps/geoplat/REST/v1/Imagery/Map/RoadVibrant?ms=92,112&key=AnTcaqBi2ypp0xI-OZNi4W_ik2KhjgpqioTAtXLC8GzkMBQRMlyxvxyTnd5b73im&c=en-US&ur=in&da=n&logo=n&fmt=png&od=1&shading=hill&pp=28.393583,77.853882;dfp"
  },
  {
    "name": "Dr Lal PathLabs",
    "address": "C-13, Panchvati Colony, Jewar Road, Khurja, Bulandshahar, Jewar Road, Uttar Pradesh",
    "phone": "Dr Lal PathLabs",
    "hours": null,
    "imageUrl": "https://www.bing.com/maps/geoplat/REST/v1/Imagery/Map/RoadVibrant?ms=92,112&key=AnTcaqBi2ypp0xI-OZNi4W_ik2KhjgpqioTAtXLC8GzkMBQRMlyxvxyTnd5b73im&c=en-US&ur=in&da=n&logo=n&fmt=png&od=1&shading=hill&pp=28.394485,77.839493;dfp"
  },
  {
    "name": "Dr. Gurdeep Kumar Rajan",
    "address": "469, Kothiyat, DM Road, Bulandshahr, Uttar Pradesh",
    "phone": "Dr. Gurdeep Kumar Rajan",
    "hours": "Closed · Opens 10:00",
    "imageUrl": "https://www.bing.com/maps/geoplat/REST/v1/Imagery/Map/RoadVibrant?ms=92,112&key=AnTcaqBi2ypp0xI-OZNi4W_ik2KhjgpqioTAtXLC8GzkMBQRMlyxvxyTnd5b73im&c=en-US&ur=in&da=n&logo=n&fmt=png&od=1&shading=hill&pp=28.416311,77.84156;dfp"
  },
  {
    "name": "Dr BK Jindal Clinic",
    "address": "Bulandshahr Siyana Road, Moti Bagh Kotiyat Bulandshahr, Bulandshahr, Uttar Pradesh 203001",
    "phone": "Dr BK Jindal Clinic",
    "hours": null,
    "imageUrl": "https://www.bing.com/maps/geoplat/REST/v1/Imagery/Map/RoadVibrant?ms=92,112&key=AnTcaqBi2ypp0xI-OZNi4W_ik2KhjgpqioTAtXLC8GzkMBQRMlyxvxyTnd5b73im&c=en-US&ur=in&da=n&logo=n&fmt=png&od=1&shading=hill&pp=28.406994,77.854263;dfp"
  }
]