[
  {
    "name": "Dr. Zakera Salim- General Physician",
    "address": "Shikha Clinic, Jalwa Main Road, Jalna Road, Near Ds Building, Buldhana, Maharashtra 443402",
    "phone": "Dr. Zakera Salim- General Physician",
    "hours": "Closed · Opens 11:00",
    "imageUrl": "https://www.bing.com/maps/geoplat/REST/v1/Imagery/Map/RoadVibrant?ms=92,134&key=AnTcaqBi2ypp0xI-OZNi4W_ik2KhjgpqioTAtXLC8GzkMBQRMlyxvxyTnd5b73im&c=en-US&ur=in&da=n&logo=n&fmt=png&od=1&shading=hill&pp=20.533497,76.175339;dfp"
  },
  {
    "name": "Dr. Vivek Prakash Rajput",
    "address": "Shanti Niketan Nagar, Near Shivsai School, Sai Nagar, Buldana, Maharashtra 443001",
    "phone": "Dr. Vivek Prakash Rajput",
    "hours": "Closed · Opens 09:00",
    "imageUrl": "https://www.bing.com/maps/geoplat/REST/v1/Imagery/Map/RoadVibrant?ms=92,134&key=AnTcaqBi2ypp0xI-OZNi4W_ik2KhjgpqioTAtXLC8GzkMBQRMlyxvxyTnd5b73im&c=en-US&ur=in&da=n&logo=n&fmt=png&od=1&shading=hill&pp=20.521839,76.177765;dfp"
  },
  {
    "name": "Dr. Dhananjay Pawar- Gynecologist And Fertility Specialist In Buldhana",
    "address": "Pawar Maternity Hospital, Jambrun Rd, Buldana H O, Buldana, Maharashtra 443001",
    "phone": "Dr. Dhananjay Pawar- Gynecologist And Fertility Specialist In Buldhana",
    "hours": "Closed · Opens 11:00",
    "imageUrl": "https://www.bing.com/maps/geoplat/REST/v1/Imagery/Map/RoadVibrant?ms=92,134&key=AnTcaqBi2ypp0xI-OZNi4W_ik2KhjgpqioTAtXLC8GzkMBQRMlyxvxyTnd5b73im&c=en-US&ur=in&da=n&logo=n&fmt=png&od=1&shading=hill&pp=20.533459,76.169464;dfp"
  },
  {
    "name": "Shatayushi Surgical Hospital and Cancer Center Dr Nikhil Nalawade",
    "address": "Behind Datta Mandir, Suvarna Nagaar, Buldana, Maharashtra",
    "phone": "Shatayushi Surgical Hospital and Cancer Center Dr Nikhil Nalawade",
    "hours": null,
    "imageUrl": "https://www.bing.com/maps/geoplat/REST/v1/Imagery/Map/RoadVibrant?ms=92,112&key=AnTcaqBi2ypp0xI-OZNi4W_ik2KhjgpqioTAtXLC8GzkMBQRMlyxvxyTnd5b73im&c=en-US&ur=in&da=n&logo=n&fmt=png&od=1&shading=hill&pp=20.539303,76.168808;dfp"
  },
  {
    "name": "Vinayak Clinic and Diabetes Reversal Centre",
    "address": "Near Akshayjyot Eye Hospital (Dr Bahekar), Mutthe lay out, Behind Bus Stand, Buldana, Maharashtra 443001",
    "phone": "Vinayak Clinic and Diabetes Reversal Centre",
    "hours": "Closed · Opens 11:00",
    "imageUrl": "https://www.bing.com/maps/geoplat/REST/v1/Imagery/Map/RoadVibrant?ms=92,134&key=AnTcaqBi2ypp0xI-OZNi4W_ik2KhjgpqioTAtXLC8GzkMBQRMlyxvxyTnd5b73im&c=en-US&ur=in&da=n&logo=n&fmt=png&od=1&shading=hill&pp=20.539909,76.170731;dfp"
  },
  {
    "name": "Sancheti Hrudayalay Buldhana",
    "address": "Sunderkhed, Buldana, Maharashtra 443001",
    "phone": "Sancheti Hrudayalay Buldhana",
    "hours": null,
    "imageUrl": "https://www.bing.com/th?id=OLC.4XKzE%2b1YeR86Mg480x360&w=92&h=112&c=8&rs=1&qlt=80&cdv=1&pid=Local"
  },
  {
    "name": "Madhavbaug Clinic Buldana, Dr Shailesh Kinge",
    "address": "Behind Bus Stand Road, Opposite Netralay eye Hospital ( Dr Joshi eye Hospital, Muthe lay out, Chaitanyawadi, B…",
    "phone": "Madhavbaug Clinic Buldana, Dr Shailesh Kinge",
    "hours": null,
    "imageUrl": "https://www.bing.com/maps/geoplat/REST/v1/Imagery/Map/RoadVibrant?ms=92,112&key=AnTcaqBi2ypp0xI-OZNi4W_ik2KhjgpqioTAtXLC8GzkMBQRMlyxvxyTnd5b73im&c=en-US&ur=in&da=n&logo=n&fmt=png&od=1&shading=hill&pp=20.525385,76.166222;dfp"
  },
  {
    "name": "Vashnavi Clinic (Dr. R.D. Bhakare)",
    "address": "Chikhali Rd, Ashtavinayak Nagar, Buldana, Maharashtra",
    "phone": "Vashnavi Clinic (Dr. R.D. Bhakare)",
    "hours": null,
    "imageUrl": "https://www.bing.com/maps/geoplat/REST/v1/Imagery/Map/RoadVibrant?ms=92,112&key=AnTcaqBi2ypp0xI-OZNi4W_ik2KhjgpqioTAtXLC8GzkMBQRMlyxvxyTnd5b73im&c=en-US&ur=in&da=n&logo=n&fmt=png&od=1&shading=hill&pp=20.505138,76.201012;dfp"
  },
  {
    "name": "Dr. Yogesh Zalte- General Physician",
    "address": "Gurukrupa Clinic, Sakharkharda, Sindkheda Raja, Buldhana, Maharashtra 443202",
    "phone": "Dr. Yogesh Zalte- General Physician",
    "hours": "Closed · Opens 09:00",
    "imageUrl": "https://www.bing.com/maps/geoplat/REST/v1/Imagery/Map/RoadVibrant?ms=92,134&key=AnTcaqBi2ypp0xI-OZNi4W_ik2KhjgpqioTAtXLC8GzkMBQRMlyxvxyTnd5b73im&c=en-US&ur=in&da=n&logo=n&fmt=png&od=1&shading=hill&pp=20.528305,76.151527;dfp"
  },
  {
    "name": "Ayurveda Hospital",
    "address": "Opp.Bus Stand, Sangam Chowk, Dahad Road, Bus Stand Area, Buldhana, Maharashtra 443001",
    "phone": "Ayurveda Hospital",
    "hours": null,
    "imageUrl": "https://www.bing.com/maps/geoplat/REST/v1/Imagery/Map/RoadVibrant?ms=92,112&key=AnTcaqBi2ypp0xI-OZNi4W_ik2KhjgpqioTAtXLC8GzkMBQRMlyxvxyTnd5b73im&c=en-US&ur=in&da=n&logo=n&fmt=png&od=1&shading=hill&pp=20.533503,76.177521;dfp"
  },
  {
    "name": "Atharva Clinic",
    "address": "1, Vishnupant Tambekar Road, Near Nalanda Chowk, Jijamata Nagar, Buldhana, Maharashtra 443001",
    "phone": "Atharva Clinic",
    "hours": null,
    "imageUrl": "https://www.bing.com/maps/geoplat/REST/v1/Imagery/Map/RoadVibrant?ms=92,112&key=AnTcaqBi2ypp0xI-OZNi4W_ik2KhjgpqioTAtXLC8GzkMBQRMlyxvxyTnd5b73im&c=en-US&ur=in&da=n&logo=n&fmt=png&od=1&shading=hill&pp=20.523071,76.180847;dfp"
  },
  {
    "name": "Dr. UMESH PATIL | Jadhav Homeopathy Clinic",
    "address": "Behind Bus Stand, Near Bahekar Eye Hospital, Muthe Layout, Vishnuwadi, Amravati, Madhya Pradesh 443001",
    "phone": "Dr. UMESH PATIL | Jadhav Homeopathy Clinic",
    "hours": "Closed · Opens 11:00",
    "imageUrl": "https://th.bing.com/th?id=OLC.gyGWh8lIF3yixQ480x360&w=92&h=134&c=8&rs=1&qlt=80&cdv=1&pid=Local"
  },
  {
    "name": "Doctor B J Rajput Ent Hospital",
    "address": "5, Jabhmrun Road, Near Bus Stand, Suvarna Nagar, Buldhana, Maharashtra 443001",
    "phone": "Doctor B J Rajput Ent Hospital",
    "hours": null,
    "imageUrl": "https://www.bing.com/maps/geoplat/REST/v1/Imagery/Map/RoadVibrant?ms=92,112&key=AnTcaqBi2ypp0xI-OZNi4W_ik2KhjgpqioTAtXLC8GzkMBQRMlyxvxyTnd5b73im&c=en-US&ur=in&da=n&logo=n&fmt=png&od=1&shading=hill&pp=20.534216,76.173965;dfp"
  },
  {
    "name": "Doctor Joshi Obesity And Skin Care Clinic",
    "address": "Savitribai Phule Chowk, Wankhede Layout, Buldhana, Maharashtra 443001",
    "phone": "Doctor Joshi Obesity And Skin Care Clinic",
    "hours": null,
    "imageUrl": "https://www.bing.com/maps/geoplat/REST/v1/Imagery/Map/RoadVibrant?ms=92,112&key=AnTcaqBi2ypp0xI-OZNi4W_ik2KhjgpqioTAtXLC8GzkMBQRMlyxvxyTnd5b73im&c=en-US&ur=in&da=n&logo=n&fmt=png&od=1&shading=hill&pp=20.536446,76.173073;dfp"
  },
  {
    "name": "Seva Advance Homeopathic Clinic",
    "address": "Jambhrun Road, Vishnuwadi, Buldana, Maharashtra",
    "phone": "Seva Advance Homeopathic Clinic",
    "hours": null,
    "imageUrl": "https://www.bing.com/maps/geoplat/REST/v1/Imagery/Map/RoadVibrant?ms=92,112&key=AnTcaqBi2ypp0xI-OZNi4W_ik2KhjgpqioTAtXLC8GzkMBQRMlyxvxyTnd5b73im&c=en-US&ur=in&da=n&logo=n&fmt=png&od=1&shading=hill&pp=20.522738,76.158676;dfp"
  },
  {
    "name": "Shri Child Care Clinic",
    "address": "Muthe Layout Road, Near Bus Stand, Muthe Layout Vishnuwadi, Buldhana, Maharashtra 443001",
    "phone": "Shri Child Care Clinic",
    "hours": null,
    "imageUrl": "https://www.bing.com/maps/geoplat/REST/v1/Imagery/Map/RoadVibrant?ms=92,112&key=AnTcaqBi2ypp0xI-OZNi4W_ik2KhjgpqioTAtXLC8GzkMBQRMlyxvxyTnd5b73im&c=en-US&ur=in&da=n&logo=n&fmt=png&od=1&shading=hill&pp=20.532576,76.174118;dfp"
  },
  {
    "name": "Rajput Hospital",
    "address": "Shree Ambika Co Op Housing Society, Chikhali Peth Road, Chikhali, Chikhli, Maharashtra 443201",
    "phone": "Rajput Hospital",
    "hours": null,
    "imageUrl": "https://www.bing.com/maps/geoplat/REST/v1/Imagery/Map/RoadVibrant?ms=92,112&key=AnTcaqBi2ypp0xI-OZNi4W_ik2KhjgpqioTAtXLC8GzkMBQRMlyxvxyTnd5b73im&c=en-US&ur=in&da=n&logo=n&fmt=png&od=1&shading=hill&pp=20.345833,76.258423;dfp"
  },
  {
    "name": "Dr. Zakera Salim- General Physician",
    "address": "Shikha Clinic, Jalwa Main Road, Jalna Road, Near Ds Building, Buldhana, Maharashtra 443402",
    "phone": "Dr. Zakera Salim- General Physician",
    "hours": "Closed · Opens 11:00",
    "imageUrl": "https://www.bing.com/maps/geoplat/REST/v1/Imagery/Map/RoadVibrant?ms=92,134&key=AnTcaqBi2ypp0xI-OZNi4W_ik2KhjgpqioTAtXLC8GzkMBQRMlyxvxyTnd5b73im&c=en-US&ur=in&da=n&logo=n&fmt=png&od=1&shading=hill&pp=20.533497,76.175339;dfp"
  },
  {
    "name": "Dr. Vivek Prakash Rajput",
    "address": "Shanti Niketan Nagar, Near Shivsai School, Sai Nagar, Buldana, Maharashtra 443001",
    "phone": "Dr. Vivek Prakash Rajput",
    "hours": "Closed · Opens 09:00",
    "imageUrl": "https://www.bing.com/maps/geoplat/REST/v1/Imagery/Map/RoadVibrant?ms=92,134&key=AnTcaqBi2ypp0xI-OZNi4W_ik2KhjgpqioTAtXLC8GzkMBQRMlyxvxyTnd5b73im&c=en-US&ur=in&da=n&logo=n&fmt=png&od=1&shading=hill&pp=20.521839,76.177765;dfp"
  },
  {
    "name": "Dr. Dhananjay Pawar- Gynecologist And Fertility Specialist In Buldhana",
    "address": "Pawar Maternity Hospital, Jambrun Rd, Buldana H O, Buldana, Maharashtra 443001",
    "phone": "Dr. Dhananjay Pawar- Gynecologist And Fertility Specialist In Buldhana",
    "hours": "Closed · Opens 11:00",
    "imageUrl": "https://www.bing.com/maps/geoplat/REST/v1/Imagery/Map/RoadVibrant?ms=92,134&key=AnTcaqBi2ypp0xI-OZNi4W_ik2KhjgpqioTAtXLC8GzkMBQRMlyxvxyTnd5b73im&c=en-US&ur=in&da=n&logo=n&fmt=png&od=1&shading=hill&pp=20.533459,76.169464;dfp"
  }
]