[
  {
    "name": "Pawan Bharadwaj Clinic",
    "address": "Police Lines, Bundi, Madhya Pradesh 323001",
    "phone": "Pawan Bharadwaj Clinic",
    "hours": "Closed · Opens 15:00",
    "imageUrl": "https://www.bing.com/th?id=OLC.8aPevTti8bjspg480x360&w=92&h=134&c=8&rs=1&qlt=80&cdv=1&pid=Local"
  },
  {
    "name": "Dr. Nitin Bhakal | Best Brian and Spine Surgeon | Narayana Health",
    "address": "Ekta Medical, Near Devpura Petrol Pump, Kota Road, Bundi, Rajasthan 323001",
    "phone": "Dr. Nitin Bhakal | Best Brian and Spine Surgeon | Narayana Health",
    "hours": "Closed · Opens Sep 27 at 10:00",
    "imageUrl": "https://www.bing.com/maps/geoplat/REST/v1/Imagery/Map/RoadVibrant?ms=92,134&key=AnTcaqBi2ypp0xI-OZNi4W_ik2KhjgpqioTAtXLC8GzkMBQRMlyxvxyTnd5b73im&c=en-US&ur=in&da=n&logo=n&fmt=png&od=1&shading=hill&pp=25.440626,75.638649;dfp"
  },
  {
    "name": "Dr Govind Gupta",
    "address": "Chhatarapura Road, Devpura, Bundi, Rajasthan 323001, India, Bundi, Rajasthan 323001",
    "phone": "Dr Govind Gupta",
    "hours": null,
    "imageUrl": "https://www.bing.com/th?id=OLC.ijiNthuaXVjqzA480x360&w=92&h=112&c=8&rs=1&qlt=80&cdv=1&pid=Local"
  },
  {
    "name": "Classical Homeopathy Clinic (Dr.Zeeshan Siddiqui))",
    "address": "Khoja Gate Rd, Opposite Govindam lab Baharali, Gayatri Nagar, Bundi, Rajasthan",
    "phone": "Classical Homeopathy Clinic (Dr.Zeeshan Siddiqui))",
    "hours": "Closed · Opens 10:00",
    "imageUrl": "https://www.bing.com/maps/geoplat/REST/v1/Imagery/Map/RoadVibrant?ms=92,112&key=AnTcaqBi2ypp0xI-OZNi4W_ik2KhjgpqioTAtXLC8GzkMBQRMlyxvxyTnd5b73im&c=en-US&ur=in&da=n&logo=n&fmt=png&od=1&shading=hill&pp=25.421751,75.640816;dfp"
  },
  {
    "name": "Dr B S Meena Clinic",
    "address": "Nainwa Road, Near Government Upper Primary Public School, Bundi, Rajasthan 323001",
    "phone": "Dr B S Meena Clinic",
    "hours": null,
    "imageUrl": "https://www.bing.com/maps/geoplat/REST/v1/Imagery/Map/RoadVibrant?ms=92,112&key=AnTcaqBi2ypp0xI-OZNi4W_ik2KhjgpqioTAtXLC8GzkMBQRMlyxvxyTnd5b73im&c=en-US&ur=in&da=n&logo=n&fmt=png&od=1&shading=hill&pp=25.439596,75.658409;dfp"
  },
  {
    "name": "Dr. O P Samar- Pulmonologist in Kota",
    "address": "Bundi Rd, Police Lines, Bundi, Rajasthan",
    "phone": "Dr. O P Samar- Pulmonologist in Kota",
    "hours": null,
    "imageUrl": "https://www.bing.com/maps/geoplat/REST/v1/Imagery/Map/RoadVibrant?ms=92,112&key=AnTcaqBi2ypp0xI-OZNi4W_ik2KhjgpqioTAtXLC8GzkMBQRMlyxvxyTnd5b73im&c=en-US&ur=in&da=n&logo=n&fmt=png&od=1&shading=hill&pp=25.423733,75.650879;dfp"
  },
  {
    "name": "Dr Manoj Jain Clinic",
    "address": "Nainwa Road, Near Hanuman Ji Temple, Bundi, Rajasthan 323001",
    "phone": "Dr Manoj Jain Clinic",
    "hours": null,
    "imageUrl": "https://www.bing.com/maps/geoplat/REST/v1/Imagery/Map/RoadVibrant?ms=92,112&key=AnTcaqBi2ypp0xI-OZNi4W_ik2KhjgpqioTAtXLC8GzkMBQRMlyxvxyTnd5b73im&c=en-US&ur=in&da=n&logo=n&fmt=png&od=1&shading=hill&pp=25.440899,75.665321;dfp"
  },
  {
    "name": "Shree Kalyan Clinic",
    "address": "Nainwa Road, Near Farniture, Bundi, Rajasthan 323001",
    "phone": "Shree Kalyan Clinic",
    "hours": null,
    "imageUrl": "https://www.bing.com/maps/geoplat/REST/v1/Imagery/Map/RoadVibrant?ms=92,112&key=AnTcaqBi2ypp0xI-OZNi4W_ik2KhjgpqioTAtXLC8GzkMBQRMlyxvxyTnd5b73im&c=en-US&ur=in&da=n&logo=n&fmt=png&od=1&shading=hill&pp=25.439566,75.660332;dfp"
  },
  {
    "name": "Surya Clinic",
    "address": "Badanayaganv Ashok Factory Main Road, Bundi, Rajasthan 323001",
    "phone": "Surya Clinic",
    "hours": null,
    "imageUrl": "https://www.bing.com/maps/geoplat/REST/v1/Imagery/Map/RoadVibrant?ms=92,112&key=AnTcaqBi2ypp0xI-OZNi4W_ik2KhjgpqioTAtXLC8GzkMBQRMlyxvxyTnd5b73im&c=en-US&ur=in&da=n&logo=n&fmt=png&od=1&shading=hill&pp=25.442539,75.64505;dfp"
  },
  {
    "name": "Suman Clinic",
    "address": "11, Vpo Khatkar, Main Road, Bundi, Rajasthan 323803",
    "phone": "Suman Clinic",
    "hours": null,
    "imageUrl": "https://www.bing.com/maps/geoplat/REST/v1/Imagery/Map/RoadVibrant?ms=92,112&key=AnTcaqBi2ypp0xI-OZNi4W_ik2KhjgpqioTAtXLC8GzkMBQRMlyxvxyTnd5b73im&c=en-US&ur=in&da=n&logo=n&fmt=png&od=1&shading=hill&pp=25.439814,75.656517;dfp"
  },
  {
    "name": "Ankit Clinic",
    "address": "Ward NO. 9 Near Taxi Stand, Girwar Aburoad, Sirohi, Rajasthan 307026",
    "phone": "Ankit Clinic",
    "hours": null,
    "imageUrl": "https://www.bing.com/maps/geoplat/REST/v1/Imagery/Map/RoadVibrant?ms=92,112&key=AnTcaqBi2ypp0xI-OZNi4W_ik2KhjgpqioTAtXLC8GzkMBQRMlyxvxyTnd5b73im&c=en-US&ur=in&da=n&logo=n&fmt=png&od=1&shading=hill&pp=25.444124,75.643036;dfp"
  },
  {
    "name": "Nehal Clinic",
    "address": "Dalelpura, A, Bundi, Rajasthan 323001",
    "phone": "Nehal Clinic",
    "hours": null,
    "imageUrl": "https://www.bing.com/maps/geoplat/REST/v1/Imagery/Map/RoadVibrant?ms=92,112&key=AnTcaqBi2ypp0xI-OZNi4W_ik2KhjgpqioTAtXLC8GzkMBQRMlyxvxyTnd5b73im&c=en-US&ur=in&da=n&logo=n&fmt=png&od=1&shading=hill&pp=25.434795,75.658493;dfp"
  },
  {
    "name": "Shree Dhanvantari Ayurvedic Hospital and Research Center",
    "address": "Kota Road, Near Saint Sandeepan Middle School, Bundi, Rajasthan 323001",
    "phone": "Shree Dhanvantari Ayurvedic Hospital and Research Center",
    "hours": null,
    "imageUrl": "https://www.bing.com/maps/geoplat/REST/v1/Imagery/Map/RoadVibrant?ms=92,112&key=AnTcaqBi2ypp0xI-OZNi4W_ik2KhjgpqioTAtXLC8GzkMBQRMlyxvxyTnd5b73im&c=en-US&ur=in&da=n&logo=n&fmt=png&od=1&shading=hill&pp=25.435396,75.646965;dfp"
  },
  {
    "name": "Government Ayurvedic Hospital",
    "address": "Bundi Nanwa Road, Near Kasera Hotel, Bundi, Rajasthan 323001",
    "phone": "Government Ayurvedic Hospital",
    "hours": null,
    "imageUrl": "https://www.bing.com/maps/geoplat/REST/v1/Imagery/Map/RoadVibrant?ms=92,112&key=AnTcaqBi2ypp0xI-OZNi4W_ik2KhjgpqioTAtXLC8GzkMBQRMlyxvxyTnd5b73im&c=en-US&ur=in&da=n&logo=n&fmt=png&od=1&shading=hill&pp=25.447309,75.635239;dfp"
  },
  {
    "name": "Maheshwari Children Hospital and Research Center - Best Pathology Lab, NICU & PICU Services, Malnutritio…",
    "address": "Gayatri Nargar, Bundi Sh-29, Bundi Rd, Bundi, Rajasthan 323001, India, Bundi, Rajasthan 323001",
    "phone": "Maheshwari Children Hospital and Research Center - Best Pathology Lab, NICU & PICU Services, Malnutritio…",
    "hours": null,
    "imageUrl": "https://th.bing.com/th?id=OLC.VDlZvdQSPPFIrw480x360&w=92&h=112&c=8&rs=1&qlt=80&cdv=1&pid=Local"
  },
  {
    "name": "Dr Lal PathLabs - Patient Service Centre",
    "address": "Ground Floor, Khoja Gate, Bundi, Rajasthan 323001",
    "phone": "Dr Lal PathLabs - Patient Service Centre",
    "hours": "Opens in 22 mins",
    "imageUrl": "https://www.bing.com/maps/geoplat/REST/v1/Imagery/Map/RoadVibrant?ms=92,134&key=AnTcaqBi2ypp0xI-OZNi4W_ik2KhjgpqioTAtXLC8GzkMBQRMlyxvxyTnd5b73im&c=en-US&ur=in&da=n&logo=n&fmt=png&od=1&shading=hill&pp=25.437622,75.642075;dfp"
  },
  {
    "name": "Agarwal Eye and Skin Hospital",
    "address": "Bundi Road, Near Adarsh Credit Cooperative Society Limited, Bundi, Rajasthan 323001",
    "phone": "Agarwal Eye and Skin Hospital",
    "hours": null,
    "imageUrl": "https://www.bing.com/maps/geoplat/REST/v1/Imagery/Map/RoadVibrant?ms=92,112&key=AnTcaqBi2ypp0xI-OZNi4W_ik2KhjgpqioTAtXLC8GzkMBQRMlyxvxyTnd5b73im&c=en-US&ur=in&da=n&logo=n&fmt=png&od=1&shading=hill&pp=25.438875,75.64212;dfp"
  },
  {
    "name": "Dr Anukriti Dental Clinic",
    "address": "Bundi Road, Near Krisna Niwas, Bundi, Rajasthan 323001",
    "phone": "Dr Anukriti Dental Clinic",
    "hours": null,
    "imageUrl": "https://www.bing.com/maps/geoplat/REST/v1/Imagery/Map/RoadVibrant?ms=92,112&key=AnTcaqBi2ypp0xI-OZNi4W_ik2KhjgpqioTAtXLC8GzkMBQRMlyxvxyTnd5b73im&c=en-US&ur=in&da=n&logo=n&fmt=png&od=1&shading=hill&pp=25.436302,75.642059;dfp"
  },
  {
    "name": "Pawan Bharadwaj Clinic",
    "address": "Police Lines, Bundi, Madhya Pradesh 323001",
    "phone": "Pawan Bharadwaj Clinic",
    "hours": "Closed · Opens 15:00",
    "imageUrl": "https://www.bing.com/th?id=OLC.8aPevTti8bjspg480x360&w=92&h=134&c=8&rs=1&qlt=80&cdv=1&pid=Local"
  },
  {
    "name": "Dr. Nitin Bhakal | Best Brian and Spine Surgeon | Narayana Health",
    "address": "Ekta Medical, Near Devpura Petrol Pump, Kota Road, Bundi, Rajasthan 323001",
    "phone": "Dr. Nitin Bhakal | Best Brian and Spine Surgeon | Narayana Health",
    "hours": "Closed · Opens Sep 27 at 10:00",
    "imageUrl": "https://www.bing.com/maps/geoplat/REST/v1/Imagery/Map/RoadVibrant?ms=92,134&key=AnTcaqBi2ypp0xI-OZNi4W_ik2KhjgpqioTAtXLC8GzkMBQRMlyxvxyTnd5b73im&c=en-US&ur=in&da=n&logo=n&fmt=png&od=1&shading=hill&pp=25.440626,75.638649;dfp"
  }
]