[
  {
    "name": "Dr. Tushar Singh | Surgeon",
    "address": "SH 13, Nehru Nagar, Buxar, Bihar, India, 802101, Buxar, Madhya Pradesh 802101",
    "phone": "Dr. Tushar Singh | Surgeon",
    "hours": "Closed · Opens 10:00",
    "imageUrl": "https://www.bing.com/th?id=OLC.7qZGxEoc73TK8w480x360&w=92&h=134&c=8&rs=1&qlt=80&cdv=1&pid=Local"
  },
  {
    "name": "Dr. Painuly's Homeopathy clinic",
    "address": "Balawala, Vivek Bihar Lean no. 09 House no. 13, Harrawala, Uttarakhand",
    "phone": "Dr. Painuly's Homeopathy clinic",
    "hours": null,
    "imageUrl": "https://www.bing.com/maps/geoplat/REST/v1/Imagery/Map/RoadVibrant?ms=92,112&key=AnTcaqBi2ypp0xI-OZNi4W_ik2KhjgpqioTAtXLC8GzkMBQRMlyxvxyTnd5b73im&c=en-US&ur=in&da=n&logo=n&fmt=png&od=1&shading=hill&pp=25.566801,83.981743;dfp"
  },
  {
    "name": "DR. Arun Kumar",
    "address": "Civil Lines, Sidhnath Ghat, Buxar, Thana Road Buxar, Buxar, Bihar 802101",
    "phone": "DR. Arun Kumar",
    "hours": null,
    "imageUrl": "https://www.bing.com/maps/geoplat/REST/v1/Imagery/Map/RoadVibrant?ms=92,112&key=AnTcaqBi2ypp0xI-OZNi4W_ik2KhjgpqioTAtXLC8GzkMBQRMlyxvxyTnd5b73im&c=en-US&ur=in&da=n&logo=n&fmt=png&od=1&shading=hill&pp=25.568821,83.98539;dfp"
  },
  {
    "name": "Dr Akhauri Sinha Clinic",
    "address": "Main Road Suhani Patti, Hotel Shivram, Buxar, Bihar 802101",
    "phone": "Dr Akhauri Sinha Clinic",
    "hours": null,
    "imageUrl": "https://www.bing.com/maps/geoplat/REST/v1/Imagery/Map/RoadVibrant?ms=92,112&key=AnTcaqBi2ypp0xI-OZNi4W_ik2KhjgpqioTAtXLC8GzkMBQRMlyxvxyTnd5b73im&c=en-US&ur=in&da=n&logo=n&fmt=png&od=1&shading=hill&pp=25.576164,83.981888;dfp"
  },
  {
    "name": "Dr. Afroz Ahmad Khan",
    "address": "Ward NO. 18 Afroz Manzil Raza Nagar, Jamui, Bihar 811307",
    "phone": "Dr. Afroz Ahmad Khan",
    "hours": "Closed · Opens 18:00",
    "imageUrl": "https://www.bing.com/maps/geoplat/REST/v1/Imagery/Map/RoadVibrant?ms=92,134&key=AnTcaqBi2ypp0xI-OZNi4W_ik2KhjgpqioTAtXLC8GzkMBQRMlyxvxyTnd5b73im&c=en-US&ur=in&da=n&logo=n&fmt=png&od=1&shading=hill&pp=25.563019,83.980293;dfp"
  },
  {
    "name": "Anand Clinic",
    "address": "Sh13, Buxar, Bihar 802101",
    "phone": "Anand Clinic",
    "hours": null,
    "imageUrl": "https://www.bing.com/maps/geoplat/REST/v1/Imagery/Map/RoadVibrant?ms=92,112&key=AnTcaqBi2ypp0xI-OZNi4W_ik2KhjgpqioTAtXLC8GzkMBQRMlyxvxyTnd5b73im&c=en-US&ur=in&da=n&logo=n&fmt=png&od=1&shading=hill&pp=25.567781,83.976265;dfp"
  },
  {
    "name": "Hi-Tek Clinic",
    "address": "Front of NCC Office, ITI College Rd, Van Shakti Nagar, Naya Bazar, Buxar, Bihar",
    "phone": "Hi-Tek Clinic",
    "hours": null,
    "imageUrl": "https://www.bing.com/maps/geoplat/REST/v1/Imagery/Map/RoadVibrant?ms=92,112&key=AnTcaqBi2ypp0xI-OZNi4W_ik2KhjgpqioTAtXLC8GzkMBQRMlyxvxyTnd5b73im&c=en-US&ur=in&da=n&logo=n&fmt=png&od=1&shading=hill&pp=25.554398,83.969254;dfp"
  },
  {
    "name": "Lic Dr Rama Shankar Singh",
    "address": "Saroj Singh Kirana Shop Darawa, Mohania, Bihar",
    "phone": "Lic Dr Rama Shankar Singh",
    "hours": null,
    "imageUrl": "https://www.bing.com/maps/geoplat/REST/v1/Imagery/Map/RoadVibrant?ms=92,112&key=AnTcaqBi2ypp0xI-OZNi4W_ik2KhjgpqioTAtXLC8GzkMBQRMlyxvxyTnd5b73im&c=en-US&ur=in&da=n&logo=n&fmt=png&od=1&shading=hill&pp=25.565868,83.981529;dfp"
  },
  {
    "name": "Dr B S Rai Clinic",
    "address": "Sareempur Road, Woodland School, Golamber Chhutki Sareempur, Buxar, Bihar 802101",
    "phone": "Dr B S Rai Clinic",
    "hours": null,
    "imageUrl": "https://www.bing.com/maps/geoplat/REST/v1/Imagery/Map/RoadVibrant?ms=92,112&key=AnTcaqBi2ypp0xI-OZNi4W_ik2KhjgpqioTAtXLC8GzkMBQRMlyxvxyTnd5b73im&c=en-US&ur=in&da=n&logo=n&fmt=png&od=1&shading=hill&pp=25.579914,83.992134;dfp"
  },
  {
    "name": "Kesar Clinic",
    "address": "Siddhanath Ghaat Mathiya Road, Medicare Pathology, Siddha Nath Ghaat, Buxar, Bihar 802101",
    "phone": "Kesar Clinic",
    "hours": null,
    "imageUrl": "https://www.bing.com/maps/geoplat/REST/v1/Imagery/Map/RoadVibrant?ms=92,112&key=AnTcaqBi2ypp0xI-OZNi4W_ik2KhjgpqioTAtXLC8GzkMBQRMlyxvxyTnd5b73im&c=en-US&ur=in&da=n&logo=n&fmt=png&od=1&shading=hill&pp=25.582451,83.983139;dfp"
  },
  {
    "name": "Dr D. N Singh | Shiv Rama Children Hospital",
    "address": "Teacher Colony, Chaitra van, Buxar, Bihar, India, 802101, Buxar, Madhya Pradesh 802101",
    "phone": "Dr D. N Singh | Shiv Rama Children Hospital",
    "hours": "Closed · Opens 10:00",
    "imageUrl": "https://th.bing.com/th?id=OLC.xcnMfG6vzWjHFA480x360&w=92&h=134&c=8&rs=1&qlt=80&cdv=1&pid=Local"
  },
  {
    "name": "Dr Arun's Multispeciality",
    "address": "19, Jamui, Dharamshala Road, Maharajganj, Jamui, Bihar 811307",
    "phone": "Dr Arun's Multispeciality",
    "hours": null,
    "imageUrl": "https://www.bing.com/maps/geoplat/REST/v1/Imagery/Map/RoadVibrant?ms=92,112&key=AnTcaqBi2ypp0xI-OZNi4W_ik2KhjgpqioTAtXLC8GzkMBQRMlyxvxyTnd5b73im&c=en-US&ur=in&da=n&logo=n&fmt=png&od=1&shading=hill&pp=25.562939,83.980278;dfp"
  },
  {
    "name": "Ramvruksh Roy Memorial Clinic",
    "address": "Station Road, Buxar, Bihar 802101",
    "phone": "Ramvruksh Roy Memorial Clinic",
    "hours": null,
    "imageUrl": "https://www.bing.com/maps/geoplat/REST/v1/Imagery/Map/RoadVibrant?ms=92,112&key=AnTcaqBi2ypp0xI-OZNi4W_ik2KhjgpqioTAtXLC8GzkMBQRMlyxvxyTnd5b73im&c=en-US&ur=in&da=n&logo=n&fmt=png&od=1&shading=hill&pp=25.58172,83.982002;dfp"
  },
  {
    "name": "Dr Kumar Gangeya Roy Child Clinic Hospital",
    "address": "Smashan Morr, S H-18, Charitra Van, Buxar, Bihar 802101, India, Buxar, Bihar 802101",
    "phone": "Dr Kumar Gangeya Roy Child Clinic Hospital",
    "hours": null,
    "imageUrl": "https://www.bing.com/maps/geoplat/REST/v1/Imagery/Map/RoadVibrant?ms=92,112&key=AnTcaqBi2ypp0xI-OZNi4W_ik2KhjgpqioTAtXLC8GzkMBQRMlyxvxyTnd5b73im&c=en-US&ur=in&da=n&logo=n&fmt=png&od=1&shading=hill&pp=25.566351,83.964203;dfp"
  },
  {
    "name": "LBS EYE CARE CENTER, Dr UP Singh, Dr.Abhay kumar singh, Dr.Nivedita singh, Eye Specialist",
    "address": "Musafirganj Rd, Civil Lines, Buxar, Bihar",
    "phone": "LBS EYE CARE CENTER, Dr UP Singh, Dr.Abhay kumar singh, Dr.Nivedita singh, Eye Specialist",
    "hours": null,
    "imageUrl": "https://www.bing.com/maps/geoplat/REST/v1/Imagery/Map/RoadVibrant?ms=92,112&key=AnTcaqBi2ypp0xI-OZNi4W_ik2KhjgpqioTAtXLC8GzkMBQRMlyxvxyTnd5b73im&c=en-US&ur=in&da=n&logo=n&fmt=png&od=1&shading=hill&pp=25.574499,83.97612;dfp"
  },
  {
    "name": "Dr. Kd Pathak Clinic (skin Specialist)",
    "address": "Gola Ghat, Buxar, Bihar 802101, India, Buxar, Bihar 802101",
    "phone": "Dr. Kd Pathak Clinic (skin Specialist)",
    "hours": null,
    "imageUrl": "https://www.bing.com/maps/geoplat/REST/v1/Imagery/Map/RoadVibrant?ms=92,112&key=AnTcaqBi2ypp0xI-OZNi4W_ik2KhjgpqioTAtXLC8GzkMBQRMlyxvxyTnd5b73im&c=en-US&ur=in&da=n&logo=n&fmt=png&od=1&shading=hill&pp=25.568821,83.98539;dfp"
  },
  {
    "name": "Apollo Dialysis Clinic",
    "address": "Apollo Dialysis Private Limited, New Sadar Hospital, Jail Road, Bibiganj, Buxar, Bihar 802102",
    "phone": "Apollo Dialysis Clinic",
    "hours": "Closed · Opens 08:00",
    "imageUrl": "https://www.bing.com/maps/geoplat/REST/v1/Imagery/Map/RoadVibrant?ms=92,134&key=AnTcaqBi2ypp0xI-OZNi4W_ik2KhjgpqioTAtXLC8GzkMBQRMlyxvxyTnd5b73im&c=en-US&ur=in&da=n&logo=n&fmt=png&od=1&shading=hill&pp=25.555124,83.953239;dfp"
  },
  {
    "name": "Pratik X-Ray",
    "address": "Station Road, Near Punjab National Bank, Majhaulia, Bihar",
    "phone": "Pratik X-Ray",
    "hours": null,
    "imageUrl": "https://www.bing.com/maps/geoplat/REST/v1/Imagery/Map/RoadVibrant?ms=92,112&key=AnTcaqBi2ypp0xI-OZNi4W_ik2KhjgpqioTAtXLC8GzkMBQRMlyxvxyTnd5b73im&c=en-US&ur=in&da=n&logo=n&fmt=png&od=1&shading=hill&pp=25.563658,83.97921;clcp"
  },
  {
    "name": "Dr. Tushar Singh | Surgeon",
    "address": "SH 13, Nehru Nagar, Buxar, Bihar, India, 802101, Buxar, Madhya Pradesh 802101",
    "phone": "Dr. Tushar Singh | Surgeon",
    "hours": "Closed · Opens 10:00",
    "imageUrl": "https://www.bing.com/th?id=OLC.7qZGxEoc73TK8w480x360&w=92&h=134&c=8&rs=1&qlt=80&cdv=1&pid=Local"
  },
  {
    "name": "Dr. Painuly's Homeopathy clinic",
    "address": "Balawala, Vivek Bihar Lean no. 09 House no. 13, Harrawala, Uttarakhand",
    "phone": "Dr. Painuly's Homeopathy clinic",
    "hours": null,
    "imageUrl": "https://www.bing.com/maps/geoplat/REST/v1/Imagery/Map/RoadVibrant?ms=92,112&key=AnTcaqBi2ypp0xI-OZNi4W_ik2KhjgpqioTAtXLC8GzkMBQRMlyxvxyTnd5b73im&c=en-US&ur=in&da=n&logo=n&fmt=png&od=1&shading=hill&pp=25.566801,83.981743;dfp"
  }
]