[
  {
    "name": "Dr. KISHORE UPADHYAY | Best Cardiologist near me Itkhola Silchar",
    "address": "Biral Dudhpatil, Silchar, Assam 788003",
    "phone": "Dr. KISHORE UPADHYAY | Best Cardiologist near me Itkhola Silchar",
    "hours": null,
    "imageUrl": "https://www.bing.com/maps/geoplat/REST/v1/Imagery/Map/RoadVibrant?ms=92,112&key=AnTcaqBi2ypp0xI-OZNi4W_ik2KhjgpqioTAtXLC8GzkMBQRMlyxvxyTnd5b73im&c=en-US&ur=in&da=n&logo=n&fmt=png&od=1&shading=hill&pp=24.82,92.800003;dfp"
  },
  {
    "name": "Dr. Pankaj Chaudhary- Diabetologist",
    "address": "S R Metro, Rangirkhari, Near Bata Point, Opposite Ishan Bangla, Silchar, Assam 788005",
    "phone": "Dr. Pankaj Chaudhary- Diabetologist",
    "hours": "Closed · Opens 09:00",
    "imageUrl": "https://www.bing.com/maps/geoplat/REST/v1/Imagery/Map/RoadVibrant?ms=92,112&key=AnTcaqBi2ypp0xI-OZNi4W_ik2KhjgpqioTAtXLC8GzkMBQRMlyxvxyTnd5b73im&c=en-US&ur=in&da=n&logo=n&fmt=png&od=1&shading=hill&pp=24.811531,92.793724;clcp"
  },
  {
    "name": "DR. Clinic",
    "address": "248, Kathal, Chandmari, Tapang, Kathal Raod, Silchar, Cachar, Assam 788005",
    "phone": "DR. Clinic",
    "hours": null,
    "imageUrl": "https://www.bing.com/maps/geoplat/REST/v1/Imagery/Map/RoadVibrant?ms=92,112&key=AnTcaqBi2ypp0xI-OZNi4W_ik2KhjgpqioTAtXLC8GzkMBQRMlyxvxyTnd5b73im&c=en-US&ur=in&da=n&logo=n&fmt=png&od=1&shading=hill&pp=24.765236,92.797089;dfp"
  },
  {
    "name": "Dr. Suman Baidya | Neuro-Psychiatrist",
    "address": "Meherpur, Beltola. Near Green Heals Hospital, Silchar, Assam, India, 788015, Silchar, Madhya Pradesh 788015",
    "phone": "Dr. Suman Baidya | Neuro-Psychiatrist",
    "hours": "Closed · Opens 10:00",
    "imageUrl": "https://www.bing.com/th?id=OLC.F56ymhhXl4jKEw480x360&w=92&h=134&c=8&rs=1&qlt=80&cdv=1&pid=Local"
  },
  {
    "name": "Dr. Saugata Roy | General Surgeon | Green Heals",
    "address": "Green Heals, Meherpur, Silchar, Madhya Pradesh 788015",
    "phone": "Dr. Saugata Roy | General Surgeon | Green Heals",
    "hours": "Closed · Opens 14:00",
    "imageUrl": "https://www.bing.com/th?id=OLC.xvs%2f%2ficGlJxIew480x360&w=92&h=134&c=8&rs=1&qlt=80&cdv=1&pid=Local"
  },
  {
    "name": "Bhowal Clinic",
    "address": "Sadarghat Road, Silchar, Assam 788003",
    "phone": "Bhowal Clinic",
    "hours": null,
    "imageUrl": "https://www.bing.com/maps/geoplat/REST/v1/Imagery/Map/RoadVibrant?ms=92,112&key=AnTcaqBi2ypp0xI-OZNi4W_ik2KhjgpqioTAtXLC8GzkMBQRMlyxvxyTnd5b73im&c=en-US&ur=in&da=n&logo=n&fmt=png&od=1&shading=hill&pp=24.828098,92.803535;dfp"
  },
  {
    "name": "Maa Tara Homoeo Clinic",
    "address": "Central Road, Silchar, Assam 788001",
    "phone": "Maa Tara Homoeo Clinic",
    "hours": "Closed · Opens 09:00",
    "imageUrl": "https://th.bing.com/th?id=OLC.nwzb5ufkG4r5vw480x360&w=92&h=134&c=8&rs=1&qlt=80&cdv=1&pid=Local"
  },
  {
    "name": "Dr Sambuddha Dhar Head Neurosciences SMCH",
    "address": "Neins, Meherpur Rd, Birbal Bazar, Silchar, Assam",
    "phone": "Dr Sambuddha Dhar Head Neurosciences SMCH",
    "hours": null,
    "imageUrl": "https://www.bing.com/maps/geoplat/REST/v1/Imagery/Map/RoadVibrant?ms=92,112&key=AnTcaqBi2ypp0xI-OZNi4W_ik2KhjgpqioTAtXLC8GzkMBQRMlyxvxyTnd5b73im&c=en-US&ur=in&da=n&logo=n&fmt=png&od=1&shading=hill&pp=24.803349,92.802025;dfp"
  },
  {
    "name": "Madrasi Clinic",
    "address": "Mela Road, Silchar, Assam 788003",
    "phone": "Madrasi Clinic",
    "hours": null,
    "imageUrl": "https://www.bing.com/maps/geoplat/REST/v1/Imagery/Map/RoadVibrant?ms=92,112&key=AnTcaqBi2ypp0xI-OZNi4W_ik2KhjgpqioTAtXLC8GzkMBQRMlyxvxyTnd5b73im&c=en-US&ur=in&da=n&logo=n&fmt=png&od=1&shading=hill&pp=24.837133,92.804123;dfp"
  },
  {
    "name": "Sadhrishalaya # Chamber of DR.Rajib Kar, Md",
    "address": "46, NN Dutta Rd, Nazirpatty, Tarapur, Silchar, Assam",
    "phone": "Sadhrishalaya # Chamber of DR.Rajib Kar, Md",
    "hours": null,
    "imageUrl": "https://th.bing.com/th?id=OLC.nsB%2fdcT%2bIcz3UQ480x360&w=92&h=112&c=8&rs=1&qlt=80&cdv=1&pid=Local"
  },
  {
    "name": "Dr. Jyotsnamoy Paul | Child health",
    "address": "Kusum Mansion, Hospital Road, Silchar 788001, Silchar, Assam, India, 788001, Silchar, Madhya Pradesh 788001",
    "phone": "Dr. Jyotsnamoy Paul | Child health",
    "hours": "Closed · Opens 10:00",
    "imageUrl": "https://th.bing.com/th?id=OLC.DfY%2bK5nXlrzdQQ480x360&w=92&h=134&c=8&rs=1&qlt=80&cdv=1&pid=Local"
  },
  {
    "name": "Dr Joydeep Roy's Skin Clinic, New S.S.Medicos, (near Cachar high school)",
    "address": "Malugram, Silchar, Assam",
    "phone": "Dr Joydeep Roy's Skin Clinic, New S.S.Medicos, (near Cachar high school)",
    "hours": null,
    "imageUrl": "https://www.bing.com/maps/geoplat/REST/v1/Imagery/Map/RoadVibrant?ms=92,112&key=AnTcaqBi2ypp0xI-OZNi4W_ik2KhjgpqioTAtXLC8GzkMBQRMlyxvxyTnd5b73im&c=en-US&ur=in&da=n&logo=n&fmt=png&od=1&shading=hill&pp=24.842836,92.806648;dfp"
  },
  {
    "name": "Dr. Zahid Zubair | Best Gastroenterologist",
    "address": "Opposite UCO Bank, Meherpur, Birbal Bazar, Silchar, Assam",
    "phone": "Dr. Zahid Zubair | Best Gastroenterologist",
    "hours": null,
    "imageUrl": "https://www.bing.com/maps/geoplat/REST/v1/Imagery/Map/RoadVibrant?ms=92,112&key=AnTcaqBi2ypp0xI-OZNi4W_ik2KhjgpqioTAtXLC8GzkMBQRMlyxvxyTnd5b73im&c=en-US&ur=in&da=n&logo=n&fmt=png&od=1&shading=hill&pp=24.796415,92.769974;dfp"
  },
  {
    "name": "Dr Lal PathLabs",
    "address": "Modern Diagnostic, Near Kali Mandir, Opp Dist Control Room, Hospital Road, Opp District Control Room, Jhar…",
    "phone": "Dr Lal PathLabs",
    "hours": null,
    "imageUrl": "https://www.bing.com/maps/geoplat/REST/v1/Imagery/Map/RoadVibrant?ms=92,112&key=AnTcaqBi2ypp0xI-OZNi4W_ik2KhjgpqioTAtXLC8GzkMBQRMlyxvxyTnd5b73im&c=en-US&ur=in&da=n&logo=n&fmt=png&od=1&shading=hill&pp=24.814676,92.798546;dfp"
  },
  {
    "name": "Dr. A. K. Sipani Orthopaedic Clinic",
    "address": "Rqfx+JC2, Nazirpatty, Tarapur, Silchar, Assam",
    "phone": "Dr. A. K. Sipani Orthopaedic Clinic",
    "hours": null,
    "imageUrl": "https://www.bing.com/maps/geoplat/REST/v1/Imagery/Map/RoadVibrant?ms=92,112&key=AnTcaqBi2ypp0xI-OZNi4W_ik2KhjgpqioTAtXLC8GzkMBQRMlyxvxyTnd5b73im&c=en-US&ur=in&da=n&logo=n&fmt=png&od=1&shading=hill&pp=24.822706,92.792328;dfp"
  },
  {
    "name": "Prime Diagnostic Centre",
    "address": "Rq6w+7fj, Dr.s.m. Dutta Lane, Rangirkhari, Ambicapatty, Assam 788005",
    "phone": "Prime Diagnostic Centre",
    "hours": null,
    "imageUrl": "https://th.bing.com/th?id=OLC.3a%2bsmtYyOIkY4Q480x360&w=92&h=112&c=8&rs=1&qlt=80&cdv=1&pid=Local"
  },
  {
    "name": "SUJATA DENTAL CLINIC best dental clinic DR KALPAJYOTI BHATTACHARJEE MDS",
    "address": "Kedarnath Appartment, Near, Iskcon Mandir Road, Ambicapatty, Silchar, Assam",
    "phone": "SUJATA DENTAL CLINIC best dental clinic DR KALPAJYOTI BHATTACHARJEE MDS",
    "hours": null,
    "imageUrl": "https://www.bing.com/maps/geoplat/REST/v1/Imagery/Map/RoadVibrant?ms=92,112&key=AnTcaqBi2ypp0xI-OZNi4W_ik2KhjgpqioTAtXLC8GzkMBQRMlyxvxyTnd5b73im&c=en-US&ur=in&da=n&logo=n&fmt=png&od=1&shading=hill&pp=24.819765,92.801521;dfp"
  },
  {
    "name": "Apollo Dialysis Clinic, Samstipur",
    "address": "Apollo Dialysis Private Limited, 14, SH 50, Ward Number 14, Uttarayan, Azad, Nagar, Samastipur, Bihar 848101",
    "phone": "Apollo Dialysis Clinic, Samstipur",
    "hours": "Closed · Opens 08:00",
    "imageUrl": "https://www.bing.com/maps/geoplat/REST/v1/Imagery/Map/RoadVibrant?ms=92,134&key=AnTcaqBi2ypp0xI-OZNi4W_ik2KhjgpqioTAtXLC8GzkMBQRMlyxvxyTnd5b73im&c=en-US&ur=in&da=n&logo=n&fmt=png&od=1&shading=hill&pp=24.775801,92.79493;dfp"
  },
  {
    "name": "Dr. KISHORE UPADHYAY | Best Cardiologist near me Itkhola Silchar",
    "address": "Biral Dudhpatil, Silchar, Assam 788003",
    "phone": "Dr. KISHORE UPADHYAY | Best Cardiologist near me Itkhola Silchar",
    "hours": null,
    "imageUrl": "https://www.bing.com/maps/geoplat/REST/v1/Imagery/Map/RoadVibrant?ms=92,112&key=AnTcaqBi2ypp0xI-OZNi4W_ik2KhjgpqioTAtXLC8GzkMBQRMlyxvxyTnd5b73im&c=en-US&ur=in&da=n&logo=n&fmt=png&od=1&shading=hill&pp=24.82,92.800003;dfp"
  },
  {
    "name": "Dr. Pankaj Chaudhary- Diabetologist",
    "address": "S R Metro, Rangirkhari, Near Bata Point, Opposite Ishan Bangla, Silchar, Assam 788005",
    "phone": "Dr. Pankaj Chaudhary- Diabetologist",
    "hours": "Closed · Opens 09:00",
    "imageUrl": "https://www.bing.com/maps/geoplat/REST/v1/Imagery/Map/RoadVibrant?ms=92,112&key=AnTcaqBi2ypp0xI-OZNi4W_ik2KhjgpqioTAtXLC8GzkMBQRMlyxvxyTnd5b73im&c=en-US&ur=in&da=n&logo=n&fmt=png&od=1&shading=hill&pp=24.811531,92.793724;clcp"
  }
]