[
  {
    "name": "Semwal Clinic",
    "address": "Gopeshwar Chamoli Road, Hotel Heaven, Chamoli, Uttarakhand 246424",
    "phone": "Semwal Clinic",
    "hours": null,
    "imageUrl": "https://www.bing.com/maps/geoplat/REST/v1/Imagery/Map/RoadVibrant?ms=92,112&key=AnTcaqBi2ypp0xI-OZNi4W_ik2KhjgpqioTAtXLC8GzkMBQRMlyxvxyTnd5b73im&c=en-US&ur=in&da=n&logo=n&fmt=png&od=1&shading=hill&pp=30.402782,79.330811;dfp"
  },
  {
    "name": "Guru Kirpa Clinic",
    "address": "Gopeshwar Chamoli Rd, Ghursal, Gopeshwar, Uttarakhand 246401, India, Chamoli Gopeshwar, Uttara…",
    "phone": "Guru Kirpa Clinic",
    "hours": null,
    "imageUrl": "https://www.bing.com/th?id=OLC.L3meKxIpbZcT3w480x360&w=92&h=112&c=8&rs=1&qlt=80&cdv=1&pid=Local"
  },
  {
    "name": "Mansukh Clinic",
    "address": "Chamoli, Mahendra Singh Sayana, Near BUS Stand, Chamoli, Uttarakhand 246401",
    "phone": "Mansukh Clinic",
    "hours": null,
    "imageUrl": "https://www.bing.com/maps/geoplat/REST/v1/Imagery/Map/RoadVibrant?ms=92,112&key=AnTcaqBi2ypp0xI-OZNi4W_ik2KhjgpqioTAtXLC8GzkMBQRMlyxvxyTnd5b73im&c=en-US&ur=in&da=n&logo=n&fmt=png&od=1&shading=hill&pp=30.412544,79.32177;dfp"
  },
  {
    "name": "K.D.Bhatt",
    "address": "Krishna Dutt Bhatt Pharmacist Medical, Health & Family Welfare Department Uttarakhand, Chamoli, Uttarakhan…",
    "phone": "K.D.Bhatt",
    "hours": null,
    "imageUrl": "https://www.bing.com/th?id=OLC.61ncW3cnI8ZcHA480x360&w=92&h=112&c=8&rs=1&qlt=80&cdv=1&pid=Local"
  },
  {
    "name": "Biswas Clinic",
    "address": "Malari Road Tapovan, 06, Malari, Tapovan, Chamoli, Uttarakhand 246483",
    "phone": "Biswas Clinic",
    "hours": null,
    "imageUrl": "https://www.bing.com/maps/geoplat/REST/v1/Imagery/Map/RoadVibrant?ms=92,112&key=AnTcaqBi2ypp0xI-OZNi4W_ik2KhjgpqioTAtXLC8GzkMBQRMlyxvxyTnd5b73im&c=en-US&ur=in&da=n&logo=n&fmt=png&od=1&shading=hill&pp=30.498117,79.714111;dfp"
  },
  {
    "name": "Shah Clinic",
    "address": "Nh87, Nagar Palika Parishad Karnaprayag, Karanprayag Chamoli, Karnaprayag, Uttarakhand 246444",
    "phone": "Shah Clinic",
    "hours": null,
    "imageUrl": "https://www.bing.com/maps/geoplat/REST/v1/Imagery/Map/RoadVibrant?ms=92,112&key=AnTcaqBi2ypp0xI-OZNi4W_ik2KhjgpqioTAtXLC8GzkMBQRMlyxvxyTnd5b73im&c=en-US&ur=in&da=n&logo=n&fmt=png&od=1&shading=hill&pp=30.260178,79.216278;dfp"
  },
  {
    "name": "Dr. Mahima Shandilya- General Physician in Dehradun",
    "address": "Mahima Shandilya Clinic, Devi Rd, Near Bridge, Chukkuwala, Kotdwar, Uttarakhand",
    "phone": "Dr. Mahima Shandilya- General Physician in Dehradun",
    "hours": null,
    "imageUrl": "https://www.bing.com/maps/geoplat/REST/v1/Imagery/Map/RoadVibrant?ms=92,112&key=AnTcaqBi2ypp0xI-OZNi4W_ik2KhjgpqioTAtXLC8GzkMBQRMlyxvxyTnd5b73im&c=en-US&ur=in&da=n&logo=n&fmt=png&od=1&shading=hill&pp=30.132027,79.20533;dfp"
  },
  {
    "name": "Somwal Clinic",
    "address": "Karanprayag Main Bazar Road, Prayag Tourist Lodge, Karanprayag Chamoli, Karnaprayag, Uttarakhand 246444",
    "phone": "Somwal Clinic",
    "hours": null,
    "imageUrl": "https://www.bing.com/maps/geoplat/REST/v1/Imagery/Map/RoadVibrant?ms=92,112&key=AnTcaqBi2ypp0xI-OZNi4W_ik2KhjgpqioTAtXLC8GzkMBQRMlyxvxyTnd5b73im&c=en-US&ur=in&da=n&logo=n&fmt=png&od=1&shading=hill&pp=30.260241,79.217552;dfp"
  },
  {
    "name": "Dr Lal Pathlabs",
    "address": "New Market Upper Bazar, National Highway 109, Karnaprayag, Chamoli, Uttarakhand 246444",
    "phone": "Dr Lal Pathlabs",
    "hours": null,
    "imageUrl": "https://www.bing.com/maps/geoplat/REST/v1/Imagery/Map/RoadVibrant?ms=92,112&key=AnTcaqBi2ypp0xI-OZNi4W_ik2KhjgpqioTAtXLC8GzkMBQRMlyxvxyTnd5b73im&c=en-US&ur=in&da=n&logo=n&fmt=png&od=1&shading=hill&pp=30.263132,79.218674;dfp"
  },
  {
    "name": "Jai Nanda Ultrasound Centers",
    "address": "1, Badrnath Road, Karanprayag, Chamoli, Uttarakhand 246444",
    "phone": "Jai Nanda Ultrasound Centers",
    "hours": null,
    "imageUrl": "https://www.bing.com/maps/geoplat/REST/v1/Imagery/Map/RoadVibrant?ms=92,112&key=AnTcaqBi2ypp0xI-OZNi4W_ik2KhjgpqioTAtXLC8GzkMBQRMlyxvxyTnd5b73im&c=en-US&ur=in&da=n&logo=n&fmt=png&od=1&shading=hill&pp=30.249434,79.258186;dfp"
  },
  {
    "name": "Semwal Clinic",
    "address": "Gopeshwar Chamoli Road, Hotel Heaven, Chamoli, Uttarakhand 246424",
    "phone": "Semwal Clinic",
    "hours": null,
    "imageUrl": "https://www.bing.com/maps/geoplat/REST/v1/Imagery/Map/RoadVibrant?ms=92,112&key=AnTcaqBi2ypp0xI-OZNi4W_ik2KhjgpqioTAtXLC8GzkMBQRMlyxvxyTnd5b73im&c=en-US&ur=in&da=n&logo=n&fmt=png&od=1&shading=hill&pp=30.402782,79.330811;dfp"
  },
  {
    "name": "Guru Kirpa Clinic",
    "address": "Gopeshwar Chamoli Rd, Ghursal, Gopeshwar, Uttarakhand 246401, India, Chamoli Gopeshwar, Uttara…",
    "phone": "Guru Kirpa Clinic",
    "hours": null,
    "imageUrl": "https://www.bing.com/th?id=OLC.L3meKxIpbZcT3w480x360&w=92&h=112&c=8&rs=1&qlt=80&cdv=1&pid=Local"
  },
  {
    "name": "Mansukh Clinic",
    "address": "Chamoli, Mahendra Singh Sayana, Near BUS Stand, Chamoli, Uttarakhand 246401",
    "phone": "Mansukh Clinic",
    "hours": null,
    "imageUrl": "https://www.bing.com/maps/geoplat/REST/v1/Imagery/Map/RoadVibrant?ms=92,112&key=AnTcaqBi2ypp0xI-OZNi4W_ik2KhjgpqioTAtXLC8GzkMBQRMlyxvxyTnd5b73im&c=en-US&ur=in&da=n&logo=n&fmt=png&od=1&shading=hill&pp=30.412544,79.32177;dfp"
  },
  {
    "name": "K.D.Bhatt",
    "address": "Krishna Dutt Bhatt Pharmacist Medical, Health & Family Welfare Department Uttarakhand, Chamoli, Uttarakhan…",
    "phone": "K.D.Bhatt",
    "hours": null,
    "imageUrl": "https://www.bing.com/th?id=OLC.61ncW3cnI8ZcHA480x360&w=92&h=112&c=8&rs=1&qlt=80&cdv=1&pid=Local"
  },
  {
    "name": "Biswas Clinic",
    "address": "Malari Road Tapovan, 06, Malari, Tapovan, Chamoli, Uttarakhand 246483",
    "phone": "Biswas Clinic",
    "hours": null,
    "imageUrl": "https://www.bing.com/maps/geoplat/REST/v1/Imagery/Map/RoadVibrant?ms=92,112&key=AnTcaqBi2ypp0xI-OZNi4W_ik2KhjgpqioTAtXLC8GzkMBQRMlyxvxyTnd5b73im&c=en-US&ur=in&da=n&logo=n&fmt=png&od=1&shading=hill&pp=30.498117,79.714111;dfp"
  },
  {
    "name": "Shah Clinic",
    "address": "Nh87, Nagar Palika Parishad Karnaprayag, Karanprayag Chamoli, Karnaprayag, Uttarakhand 246444",
    "phone": "Shah Clinic",
    "hours": null,
    "imageUrl": "https://www.bing.com/maps/geoplat/REST/v1/Imagery/Map/RoadVibrant?ms=92,112&key=AnTcaqBi2ypp0xI-OZNi4W_ik2KhjgpqioTAtXLC8GzkMBQRMlyxvxyTnd5b73im&c=en-US&ur=in&da=n&logo=n&fmt=png&od=1&shading=hill&pp=30.260178,79.216278;dfp"
  },
  {
    "name": "Dr. Mahima Shandilya- General Physician in Dehradun",
    "address": "Mahima Shandilya Clinic, Devi Rd, Near Bridge, Chukkuwala, Kotdwar, Uttarakhand",
    "phone": "Dr. Mahima Shandilya- General Physician in Dehradun",
    "hours": null,
    "imageUrl": "https://www.bing.com/maps/geoplat/REST/v1/Imagery/Map/RoadVibrant?ms=92,112&key=AnTcaqBi2ypp0xI-OZNi4W_ik2KhjgpqioTAtXLC8GzkMBQRMlyxvxyTnd5b73im&c=en-US&ur=in&da=n&logo=n&fmt=png&od=1&shading=hill&pp=30.132027,79.20533;dfp"
  },
  {
    "name": "Somwal Clinic",
    "address": "Karanprayag Main Bazar Road, Prayag Tourist Lodge, Karanprayag Chamoli, Karnaprayag, Uttarakhand 246444",
    "phone": "Somwal Clinic",
    "hours": null,
    "imageUrl": "https://www.bing.com/maps/geoplat/REST/v1/Imagery/Map/RoadVibrant?ms=92,112&key=AnTcaqBi2ypp0xI-OZNi4W_ik2KhjgpqioTAtXLC8GzkMBQRMlyxvxyTnd5b73im&c=en-US&ur=in&da=n&logo=n&fmt=png&od=1&shading=hill&pp=30.260241,79.217552;dfp"
  },
  {
    "name": "Dr Lal Pathlabs",
    "address": "New Market Upper Bazar, National Highway 109, Karnaprayag, Chamoli, Uttarakhand 246444",
    "phone": "Dr Lal Pathlabs",
    "hours": null,
    "imageUrl": "https://www.bing.com/maps/geoplat/REST/v1/Imagery/Map/RoadVibrant?ms=92,112&key=AnTcaqBi2ypp0xI-OZNi4W_ik2KhjgpqioTAtXLC8GzkMBQRMlyxvxyTnd5b73im&c=en-US&ur=in&da=n&logo=n&fmt=png&od=1&shading=hill&pp=30.263132,79.218674;dfp"
  },
  {
    "name": "Jai Nanda Ultrasound Centers",
    "address": "1, Badrnath Road, Karanprayag, Chamoli, Uttarakhand 246444",
    "phone": "Jai Nanda Ultrasound Centers",
    "hours": null,
    "imageUrl": "https://www.bing.com/maps/geoplat/REST/v1/Imagery/Map/RoadVibrant?ms=92,112&key=AnTcaqBi2ypp0xI-OZNi4W_ik2KhjgpqioTAtXLC8GzkMBQRMlyxvxyTnd5b73im&c=en-US&ur=in&da=n&logo=n&fmt=png&od=1&shading=hill&pp=30.249434,79.258186;dfp"
  }
]