[
  {
    "name": "Sh Chandershekhar homeopathic clinic",
    "address": "Hatnala Gali, Near Laxmi Narayan Temple, Chowgan Mohalla, Chamba, Himachal Pradesh",
    "phone": "Sh Chandershekhar homeopathic clinic",
    "hours": null,
    "imageUrl": "https://www.bing.com/maps/geoplat/REST/v1/Imagery/Map/RoadVibrant?ms=92,112&key=AnTcaqBi2ypp0xI-OZNi4W_ik2KhjgpqioTAtXLC8GzkMBQRMlyxvxyTnd5b73im&c=en-US&ur=in&da=n&logo=n&fmt=png&od=1&shading=hill&pp=32.556599,76.124702;dfp"
  },
  {
    "name": "Sh Chandershekhar homeopathic clinic chamba",
    "address": "Hatnala Close to Shri Laxmi Narayan Temple Chamba (HP), Chamba, Himachal Pradesh",
    "phone": "Sh Chandershekhar homeopathic clinic chamba",
    "hours": null,
    "imageUrl": "https://www.bing.com/maps/geoplat/REST/v1/Imagery/Map/RoadVibrant?ms=92,112&key=AnTcaqBi2ypp0xI-OZNi4W_ik2KhjgpqioTAtXLC8GzkMBQRMlyxvxyTnd5b73im&c=en-US&ur=in&da=n&logo=n&fmt=png&od=1&shading=hill&pp=32.557755,76.124443;dfp"
  },
  {
    "name": "Dr Lal PathLabs",
    "address": "C/o Om Sai Ram Lab, Shop No- 4, Near Church Gate, Chamba (h.p) – 176310, Chamba, Himachal Pradesh, …",
    "phone": "Dr Lal PathLabs",
    "hours": "Opens in 22 mins",
    "imageUrl": "https://www.bing.com/maps/geoplat/REST/v1/Imagery/Map/RoadVibrant?ms=92,134&key=AnTcaqBi2ypp0xI-OZNi4W_ik2KhjgpqioTAtXLC8GzkMBQRMlyxvxyTnd5b73im&c=en-US&ur=in&da=n&logo=n&fmt=png&od=1&shading=hill&pp=32.55537,76.124901;dfp"
  },
  {
    "name": "Anand Homeopathic Clinic",
    "address": "Crystal Restaurant, Dogra Bazar, Chamba, Himachal Pradesh 176310",
    "phone": "Anand Homeopathic Clinic",
    "hours": null,
    "imageUrl": "https://www.bing.com/maps/geoplat/REST/v1/Imagery/Map/RoadVibrant?ms=92,112&key=AnTcaqBi2ypp0xI-OZNi4W_ik2KhjgpqioTAtXLC8GzkMBQRMlyxvxyTnd5b73im&c=en-US&ur=in&da=n&logo=n&fmt=png&od=1&shading=hill&pp=32.556889,76.123032;dfp"
  },
  {
    "name": "Dr Lal PathLabs",
    "address": "C/O Om Sai Ram Lab, Shop No- 4, Near Church Gate, Chamba – 176310 (H.P), Near Church Gate, Himachal …",
    "phone": "Dr Lal PathLabs",
    "hours": null,
    "imageUrl": "https://www.bing.com/maps/geoplat/REST/v1/Imagery/Map/RoadVibrant?ms=92,112&key=AnTcaqBi2ypp0xI-OZNi4W_ik2KhjgpqioTAtXLC8GzkMBQRMlyxvxyTnd5b73im&c=en-US&ur=in&da=n&logo=n&fmt=png&od=1&shading=hill&pp=32.55537,76.124901;dfp"
  },
  {
    "name": "Dr Lal PathLabs - Patient Service Centre",
    "address": "Ground Floor, Dalhousie, Hotel Green Hills, Banikhet, Chamba, Himachal Pradesh 176303",
    "phone": "Dr Lal PathLabs - Patient Service Centre",
    "hours": "Closed · Opens 08:00",
    "imageUrl": "https://www.bing.com/maps/geoplat/REST/v1/Imagery/Map/RoadVibrant?ms=92,134&key=AnTcaqBi2ypp0xI-OZNi4W_ik2KhjgpqioTAtXLC8GzkMBQRMlyxvxyTnd5b73im&c=en-US&ur=in&da=n&logo=n&fmt=png&od=1&shading=hill&pp=32.548737,75.958794;dfp"
  },
  {
    "name": "Des Raj",
    "address": "1, DES RAJ AND CO., Karian, Mehla, VPO Kaarian, Chamba, Himachal Pradesh 176318",
    "phone": "Des Raj",
    "hours": null,
    "imageUrl": "https://th.bing.com/th?id=OLC.HGRnNdPLGjTZfg480x360&w=92&h=112&c=8&rs=1&qlt=80&cdv=1&pid=Local"
  },
  {
    "name": "Dr Lal PathLabs",
    "address": "Collage, Road, Chamba, Post Office, Chamba, Uttarakhand",
    "phone": "Dr Lal PathLabs",
    "hours": "Opens in 22 mins",
    "imageUrl": "https://www.bing.com/maps/geoplat/REST/v1/Imagery/Map/RoadVibrant?ms=92,112&key=AnTcaqBi2ypp0xI-OZNi4W_ik2KhjgpqioTAtXLC8GzkMBQRMlyxvxyTnd5b73im&c=en-US&ur=in&da=n&logo=n&fmt=png&od=1&shading=hill&pp=30.346699,78.394104;dfp"
  },
  {
    "name": "Shivyog Mobiles & Laptop Clinic",
    "address": "1St Floor, Old Bus Stand, Bharmour, Chamba, Himachal Pradesh 176315",
    "phone": "Shivyog Mobiles & Laptop Clinic",
    "hours": null,
    "imageUrl": "https://www.bing.com/maps/geoplat/REST/v1/Imagery/Map/RoadVibrant?ms=92,112&key=AnTcaqBi2ypp0xI-OZNi4W_ik2KhjgpqioTAtXLC8GzkMBQRMlyxvxyTnd5b73im&c=en-US&ur=in&da=n&logo=n&fmt=png&od=1&shading=hill&pp=32.432056,76.012138;dfp"
  },
  {
    "name": "Computer Clinic",
    "address": "Shop, 0, 0, Uper Dhrog, Chamba, Himachal Pradesh 176310",
    "phone": "Computer Clinic",
    "hours": null,
    "imageUrl": "https://th.bing.com/th?id=OLC.pBFyRSOOPRVKAw480x360&w=92&h=112&c=8&rs=1&qlt=80&cdv=1&pid=Local"
  },
  {
    "name": "Sh Chandershekhar homeopathic clinic",
    "address": "Hatnala Gali, Near Laxmi Narayan Temple, Chowgan Mohalla, Chamba, Himachal Pradesh",
    "phone": "Sh Chandershekhar homeopathic clinic",
    "hours": null,
    "imageUrl": "https://www.bing.com/maps/geoplat/REST/v1/Imagery/Map/RoadVibrant?ms=92,112&key=AnTcaqBi2ypp0xI-OZNi4W_ik2KhjgpqioTAtXLC8GzkMBQRMlyxvxyTnd5b73im&c=en-US&ur=in&da=n&logo=n&fmt=png&od=1&shading=hill&pp=32.556599,76.124702;dfp"
  },
  {
    "name": "Sh Chandershekhar homeopathic clinic chamba",
    "address": "Hatnala Close to Shri Laxmi Narayan Temple Chamba (HP), Chamba, Himachal Pradesh",
    "phone": "Sh Chandershekhar homeopathic clinic chamba",
    "hours": null,
    "imageUrl": "https://www.bing.com/maps/geoplat/REST/v1/Imagery/Map/RoadVibrant?ms=92,112&key=AnTcaqBi2ypp0xI-OZNi4W_ik2KhjgpqioTAtXLC8GzkMBQRMlyxvxyTnd5b73im&c=en-US&ur=in&da=n&logo=n&fmt=png&od=1&shading=hill&pp=32.557755,76.124443;dfp"
  },
  {
    "name": "Dr Lal PathLabs",
    "address": "C/o Om Sai Ram Lab, Shop No- 4, Near Church Gate, Chamba (h.p) – 176310, Chamba, Himachal Pradesh, …",
    "phone": "Dr Lal PathLabs",
    "hours": "Opens in 22 mins",
    "imageUrl": "https://www.bing.com/maps/geoplat/REST/v1/Imagery/Map/RoadVibrant?ms=92,134&key=AnTcaqBi2ypp0xI-OZNi4W_ik2KhjgpqioTAtXLC8GzkMBQRMlyxvxyTnd5b73im&c=en-US&ur=in&da=n&logo=n&fmt=png&od=1&shading=hill&pp=32.55537,76.124901;dfp"
  },
  {
    "name": "Anand Homeopathic Clinic",
    "address": "Crystal Restaurant, Dogra Bazar, Chamba, Himachal Pradesh 176310",
    "phone": "Anand Homeopathic Clinic",
    "hours": null,
    "imageUrl": "https://www.bing.com/maps/geoplat/REST/v1/Imagery/Map/RoadVibrant?ms=92,112&key=AnTcaqBi2ypp0xI-OZNi4W_ik2KhjgpqioTAtXLC8GzkMBQRMlyxvxyTnd5b73im&c=en-US&ur=in&da=n&logo=n&fmt=png&od=1&shading=hill&pp=32.556889,76.123032;dfp"
  },
  {
    "name": "Dr Lal PathLabs",
    "address": "C/O Om Sai Ram Lab, Shop No- 4, Near Church Gate, Chamba – 176310 (H.P), Near Church Gate, Himachal …",
    "phone": "Dr Lal PathLabs",
    "hours": null,
    "imageUrl": "https://www.bing.com/maps/geoplat/REST/v1/Imagery/Map/RoadVibrant?ms=92,112&key=AnTcaqBi2ypp0xI-OZNi4W_ik2KhjgpqioTAtXLC8GzkMBQRMlyxvxyTnd5b73im&c=en-US&ur=in&da=n&logo=n&fmt=png&od=1&shading=hill&pp=32.55537,76.124901;dfp"
  },
  {
    "name": "Dr Lal PathLabs - Patient Service Centre",
    "address": "Ground Floor, Dalhousie, Hotel Green Hills, Banikhet, Chamba, Himachal Pradesh 176303",
    "phone": "Dr Lal PathLabs - Patient Service Centre",
    "hours": "Closed · Opens 08:00",
    "imageUrl": "https://www.bing.com/maps/geoplat/REST/v1/Imagery/Map/RoadVibrant?ms=92,134&key=AnTcaqBi2ypp0xI-OZNi4W_ik2KhjgpqioTAtXLC8GzkMBQRMlyxvxyTnd5b73im&c=en-US&ur=in&da=n&logo=n&fmt=png&od=1&shading=hill&pp=32.548737,75.958794;dfp"
  },
  {
    "name": "Des Raj",
    "address": "1, DES RAJ AND CO., Karian, Mehla, VPO Kaarian, Chamba, Himachal Pradesh 176318",
    "phone": "Des Raj",
    "hours": null,
    "imageUrl": "https://th.bing.com/th?id=OLC.HGRnNdPLGjTZfg480x360&w=92&h=112&c=8&rs=1&qlt=80&cdv=1&pid=Local"
  },
  {
    "name": "Dr Lal PathLabs",
    "address": "Collage, Road, Chamba, Post Office, Chamba, Uttarakhand",
    "phone": "Dr Lal PathLabs",
    "hours": "Opens in 22 mins",
    "imageUrl": "https://www.bing.com/maps/geoplat/REST/v1/Imagery/Map/RoadVibrant?ms=92,112&key=AnTcaqBi2ypp0xI-OZNi4W_ik2KhjgpqioTAtXLC8GzkMBQRMlyxvxyTnd5b73im&c=en-US&ur=in&da=n&logo=n&fmt=png&od=1&shading=hill&pp=30.346699,78.394104;dfp"
  },
  {
    "name": "Shivyog Mobiles & Laptop Clinic",
    "address": "1St Floor, Old Bus Stand, Bharmour, Chamba, Himachal Pradesh 176315",
    "phone": "Shivyog Mobiles & Laptop Clinic",
    "hours": null,
    "imageUrl": "https://www.bing.com/maps/geoplat/REST/v1/Imagery/Map/RoadVibrant?ms=92,112&key=AnTcaqBi2ypp0xI-OZNi4W_ik2KhjgpqioTAtXLC8GzkMBQRMlyxvxyTnd5b73im&c=en-US&ur=in&da=n&logo=n&fmt=png&od=1&shading=hill&pp=32.432056,76.012138;dfp"
  },
  {
    "name": "Computer Clinic",
    "address": "Shop, 0, 0, Uper Dhrog, Chamba, Himachal Pradesh 176310",
    "phone": "Computer Clinic",
    "hours": null,
    "imageUrl": "https://th.bing.com/th?id=OLC.pBFyRSOOPRVKAw480x360&w=92&h=112&c=8&rs=1&qlt=80&cdv=1&pid=Local"
  }
]