[
  {
    "name": "Dr. Dinesh Singh | MBBS",
    "address": "Sai Shailja Nursing Home, Futiya, Chandauli, Uttar Pradesh",
    "phone": "Dr. Dinesh Singh | MBBS",
    "hours": null,
    "image_url": "https://www.bing.com/maps/geoplat/REST/v1/Imagery/Map/RoadVibrant?ms=92,112&key=AnTcaqBi2ypp0xI-OZNi4W_ik2KhjgpqioTAtXLC8GzkMBQRMlyxvxyTnd5b73im&c=en-US&ur=in&da=n&logo=n&fmt=png&od=1&shading=hill&pp=25.255688,83.277496;dfp"
  },
  {
    "name": "Dr SA Mujaffar Clinic",
    "address": "Chandauli, Main Bazar Road, Chandauli, Uttar Pradesh 232104",
    "phone": "Dr SA Mujaffar Clinic",
    "hours": null,
    "image_url": "https://www.bing.com/maps/geoplat/REST/v1/Imagery/Map/RoadVibrant?ms=92,112&key=AnTcaqBi2ypp0xI-OZNi4W_ik2KhjgpqioTAtXLC8GzkMBQRMlyxvxyTnd5b73im&c=en-US&ur=in&da=n&logo=n&fmt=png&od=1&shading=hill&pp=25.259424,83.265198;dfp"
  },
  {
    "name": "Dr. R.D Memorial Hospital",
    "address": "Neharu Nagar, g.t. Road, Chandauli, Uttar Pradesh, Uttar Pradesh 232104",
    "phone": "Dr. R.D Memorial Hospital",
    "hours": null,
    "image_url": "/th?id=OLC.72FO%2fbYBfF%2bhKQ480x360&w=92&h=112&c=8&rs=1&qlt=80&cdv=1&pid=Local"
  },
  {
    "name": "Dr Rohit Kumar",
    "address": "Bisundhari Bisundhari Chandauli, Bisundhari Bisundhari Chandaul, Sakaldiha, Naibazar, Chandauli, Uttar Prade…",
    "phone": "Dr Rohit Kumar",
    "hours": null,
    "image_url": "https://www.bing.com/maps/geoplat/REST/v1/Imagery/Map/RoadVibrant?ms=92,112&key=AnTcaqBi2ypp0xI-OZNi4W_ik2KhjgpqioTAtXLC8GzkMBQRMlyxvxyTnd5b73im&c=en-US&ur=in&da=n&logo=n&fmt=png&od=1&shading=hill&pp=25.261801,83.264709;dfp"
  },
  {
    "name": "Arun Clinic & Tika Krendra",
    "address": "Jagadishsarai, Chandauli, Uttar Pradesh 232104",
    "phone": "Arun Clinic & Tika Krendra",
    "hours": null,
    "image_url": "https://www.bing.com/maps/geoplat/REST/v1/Imagery/Map/RoadVibrant?ms=92,112&key=AnTcaqBi2ypp0xI-OZNi4W_ik2KhjgpqioTAtXLC8GzkMBQRMlyxvxyTnd5b73im&c=en-US&ur=in&da=n&logo=n&fmt=png&od=1&shading=hill&pp=25.255325,83.270012;dfp"
  },
  {
    "name": "Dr. Gupta's Homeopathy",
    "address": "Aadarsh Complex, Grand Trunk Rd, Chandauli, Uttar Pradesh",
    "phone": "Dr. Gupta's Homeopathy",
    "hours": null,
    "image_url": "https://www.bing.com/maps/geoplat/REST/v1/Imagery/Map/RoadVibrant?ms=92,112&key=AnTcaqBi2ypp0xI-OZNi4W_ik2KhjgpqioTAtXLC8GzkMBQRMlyxvxyTnd5b73im&c=en-US&ur=in&da=n&logo=n&fmt=png&od=1&shading=hill&pp=25.260426,83.26104;dfp"
  },
  {
    "name": "Hariom Hospital & Diagnostic Centre",
    "address": "Ward No. 4 Kamla Nagar Near District Hospital Chandauli, Chandauli, Uttar Pradesh, Uttar Pradesh 23…",
    "phone": "Hariom Hospital & Diagnostic Centre",
    "hours": null,
    "image_url": null
  },
  {
    "name": "Agri Clinic and Agri Business Center",
    "address": "Ward NO 14, Lohiya Nagar, Chandauli, Uttar Pradesh 232104",
    "phone": "Agri Clinic and Agri Business Center",
    "hours": null,
    "image_url": "https://www.bing.com/maps/geoplat/REST/v1/Imagery/Map/RoadVibrant?ms=92,112&key=AnTcaqBi2ypp0xI-OZNi4W_ik2KhjgpqioTAtXLC8GzkMBQRMlyxvxyTnd5b73im&c=en-US&ur=in&da=n&logo=n&fmt=png&od=1&shading=hill&pp=25.257725,83.270508;dfp"
  },
  {
    "name": "Dr Lal PathLabs - Patient Service Centre",
    "address": "Ground Floor, Chunar, Dawank, Chandauli, Baburi, Chandauli, Uttar Pradesh 232102",
    "phone": "Dr Lal PathLabs - Patient Service Centre",
    "hours": "Open· Closes 20:00",
    "image_url": "https://www.bing.com/maps/geoplat/REST/v1/Imagery/Map/RoadVibrant?ms=92,134&key=AnTcaqBi2ypp0xI-OZNi4W_ik2KhjgpqioTAtXLC8GzkMBQRMlyxvxyTnd5b73im&c=en-US&ur=in&da=n&logo=n&fmt=png&od=1&shading=hill&pp=25.259991,83.255821;dfp"
  },
  {
    "name": "Mitra Denta Clinic",
    "address": "Nh2, Kidwai Nagar, Chandauli, Uttar Pradesh 232104",
    "phone": "Mitra Denta Clinic",
    "hours": null,
    "image_url": "https://www.bing.com/maps/geoplat/REST/v1/Imagery/Map/RoadVibrant?ms=92,112&key=AnTcaqBi2ypp0xI-OZNi4W_ik2KhjgpqioTAtXLC8GzkMBQRMlyxvxyTnd5b73im&c=en-US&ur=in&da=n&logo=n&fmt=png&od=1&shading=hill&pp=25.25992,83.267845;dfp"
  },
  {
    "name": "Dr.Manoj Kumar Sharma-Homoeopathy & Natural Healing",
    "address": "Sakaldiha Bazar, Sakaldiha, Uttar Pradesh",
    "phone": "Dr.Manoj Kumar Sharma-Homoeopathy & Natural Healing",
    "hours": null,
    "image_url": "https://www.bing.com/maps/geoplat/REST/v1/Imagery/Map/RoadVibrant?ms=92,112&key=AnTcaqBi2ypp0xI-OZNi4W_ik2KhjgpqioTAtXLC8GzkMBQRMlyxvxyTnd5b73im&c=en-US&ur=in&da=n&logo=n&fmt=png&od=1&shading=hill&pp=25.348223,83.250183;dfp"
  },
  {
    "name": "Dr Lal PathLabs - Patient Service Centre",
    "address": "No 1317, Mugalsarai, Chakiya Road, Chandauli 232109",
    "phone": "Dr Lal PathLabs - Patient Service Centre",
    "hours": "Open· Closes 19:00",
    "image_url": null
  },
  {
    "name": "Dr Lal PathLabs - Patient Service Centre",
    "address": "Ground Floor, Khandwari, Chandauli 232109",
    "phone": "Dr Lal PathLabs - Patient Service Centre",
    "hours": null,
    "image_url": "https://www.bing.com/maps/geoplat/REST/v1/Imagery/Map/RoadVibrant?ms=92,112&key=AnTcaqBi2ypp0xI-OZNi4W_ik2KhjgpqioTAtXLC8GzkMBQRMlyxvxyTnd5b73im&c=en-US&ur=in&da=n&logo=n&fmt=png&od=1&shading=hill&pp=25.350185,83.257729;dfp"
  },
  {
    "name": "New Shiwans Diagnostic Centre",
    "address": "G T Road, State Bank Of India, Futiya Chhito, Chandauli, Uttar Pradesh 232104",
    "phone": "New Shiwans Diagnostic Centre",
    "hours": null,
    "image_url": null
  },
  {
    "name": "Dr M K Rai Dental Clinic",
    "address": "Illia Road, Shiv Guru Hospital, Indra Nagar, Chandauli, Uttar Pradesh 232120",
    "phone": "Dr M K Rai Dental Clinic",
    "hours": "Open· Closes 19:00",
    "image_url": "https://www.bing.com/maps/geoplat/REST/v1/Imagery/Map/RoadVibrant?ms=92,134&key=AnTcaqBi2ypp0xI-OZNi4W_ik2KhjgpqioTAtXLC8GzkMBQRMlyxvxyTnd5b73im&c=en-US&ur=in&da=n&logo=n&fmt=png&od=1&shading=hill&pp=25.257698,83.270607;dfp"
  },
  {
    "name": "Savaran Diagnostic Center",
    "address": "G T Road, U P Power Transmision, Chandauli, Uttar Pradesh 232120",
    "phone": "Savaran Diagnostic Center",
    "hours": null,
    "image_url": "https://www.bing.com/maps/geoplat/REST/v1/Imagery/Map/RoadVibrant?ms=92,112&key=AnTcaqBi2ypp0xI-OZNi4W_ik2KhjgpqioTAtXLC8GzkMBQRMlyxvxyTnd5b73im&c=en-US&ur=in&da=n&logo=n&fmt=png&od=1&shading=hill&pp=25.260254,83.256866;dfp"
  },
  {
    "name": "Dr Lal PathLabs - Patient Service Centre",
    "address": "Ground Floor, Saiyad Raja, Chandauli, Naubatpur, Chandauli, Uttar Pradesh 232110",
    "phone": "Dr Lal PathLabs - Patient Service Centre",
    "hours": "Open· Closes 19:00",
    "image_url": null
  },
  {
    "name": "MAHAMANA CLINIC, Dr Ravi, MD Medicine BHU",
    "address": "Cb Plaza, Madhav Market, Lanka, Uttar Pradesh 221005",
    "phone": "MAHAMANA CLINIC, Dr Ravi, MD Medicine BHU",
    "hours": null,
    "image_url": "https://www.bing.com/maps/geoplat/REST/v1/Imagery/Map/RoadVibrant?ms=92,112&key=AnTcaqBi2ypp0xI-OZNi4W_ik2KhjgpqioTAtXLC8GzkMBQRMlyxvxyTnd5b73im&c=en-US&ur=in&da=n&logo=n&fmt=png&od=1&shading=hill&pp=25.280291,82.997742;dfp"
  }
]