[
  {
    "name": "Dr. S.k gupta",
    "address": "WH8P+R2F, Gali Number 1, Naya Mohalla, Chhatarpur, Madhya Pradesh 471001",
    "phone": "Dr. S.k gupta",
    "hours": null,
    "image_url": "https://www.bing.com/maps/geoplat/REST/v1/Imagery/Map/RoadVibrant?ms=92,112&key=AnTcaqBi2ypp0xI-OZNi4W_ik2KhjgpqioTAtXLC8GzkMBQRMlyxvxyTnd5b73im&c=en-US&ur=in&da=n&logo=n&fmt=png&od=1&shading=hill&pp=24.917063,79.585052;dfp"
  },
  {
    "name": "Dr. Suvaran Sagar Bajpai",
    "address": "Maharaja College Road, Chhatarpur, Madhya Pradesh",
    "phone": "Dr. Suvaran Sagar Bajpai",
    "hours": "Open· Closes 13:00",
    "image_url": "https://www.bing.com/maps/geoplat/REST/v1/Imagery/Map/RoadVibrant?ms=92,134&key=AnTcaqBi2ypp0xI-OZNi4W_ik2KhjgpqioTAtXLC8GzkMBQRMlyxvxyTnd5b73im&c=en-US&ur=in&da=n&logo=n&fmt=png&od=1&shading=hill&pp=24.903605,79.590118;dfp"
  },
  {
    "name": "Dr R P Gupta Clinic",
    "address": "Chattarpur Road, Chattarpur, Chhatarpur, Madhya Pradesh 471001",
    "phone": "Dr R P Gupta Clinic",
    "hours": null,
    "image_url": "https://www.bing.com/maps/geoplat/REST/v1/Imagery/Map/RoadVibrant?ms=92,112&key=AnTcaqBi2ypp0xI-OZNi4W_ik2KhjgpqioTAtXLC8GzkMBQRMlyxvxyTnd5b73im&c=en-US&ur=in&da=n&logo=n&fmt=png&od=1&shading=hill&pp=24.911156,79.583023;dfp"
  },
  {
    "name": "Dr. Piyush Chaturvedi",
    "address": "Choubey Colony. Landmark: Behind ITI College, Chhatarpur, Madhya Pradesh",
    "phone": "Dr. Piyush Chaturvedi",
    "hours": "Open· Closes 19:00",
    "image_url": "https://www.bing.com/maps/geoplat/REST/v1/Imagery/Map/RoadVibrant?ms=92,112&key=AnTcaqBi2ypp0xI-OZNi4W_ik2KhjgpqioTAtXLC8GzkMBQRMlyxvxyTnd5b73im&c=en-US&ur=in&da=n&logo=n&fmt=png&od=1&shading=hill&pp=24.890856,79.587158;dfp"
  },
  {
    "name": "Dr. Nirdesh Khare",
    "address": "Sankat Mochan Road, Sankat Mochan Talab, Saura, Chhatarpur, Madhya Pradesh 471001",
    "phone": "Dr. Nirdesh Khare",
    "hours": null,
    "image_url": "https://www.bing.com/maps/geoplat/REST/v1/Imagery/Map/RoadVibrant?ms=92,112&key=AnTcaqBi2ypp0xI-OZNi4W_ik2KhjgpqioTAtXLC8GzkMBQRMlyxvxyTnd5b73im&c=en-US&ur=in&da=n&logo=n&fmt=png&od=1&shading=hill&pp=24.914135,79.59903;dfp"
  },
  {
    "name": "Dr Mpn Khare Hospital",
    "address": "Loknathpuram Colony Road; Chhatarpur, Madhya Pradesh, India 471001, Chhatarpur, Madhya Pradesh 4…",
    "phone": "Dr Mpn Khare Hospital",
    "hours": null,
    "image_url": "/th?id=OLC.EmW0XO6AwcqwoQ480x360&w=92&h=112&c=8&rs=1&qlt=80&cdv=1&pid=Local"
  },
  {
    "name": "Dr SS Bundela Clinic",
    "address": "Chattarpur Road, Chattarpur, Chhatarpur, Madhya Pradesh 471001",
    "phone": "Dr SS Bundela Clinic",
    "hours": null,
    "image_url": "https://www.bing.com/maps/geoplat/REST/v1/Imagery/Map/RoadVibrant?ms=92,112&key=AnTcaqBi2ypp0xI-OZNi4W_ik2KhjgpqioTAtXLC8GzkMBQRMlyxvxyTnd5b73im&c=en-US&ur=in&da=n&logo=n&fmt=png&od=1&shading=hill&pp=24.900806,79.576637;dfp"
  },
  {
    "name": "Dr MPN Khare's Laparoscopic & Urology Surgical & Maternity Nursing Home",
    "address": "243- Loknathpuram, Chhatarpur, Madhya Pradesh 471001",
    "phone": "Dr MPN Khare's Laparoscopic & Urology Surgical & Maternity Nursing Home",
    "hours": null,
    "image_url": null
  },
  {
    "name": "RS Tamrakar Clinic",
    "address": "Chattarpur Road, Chattarpur, Chhatarpur, Madhya Pradesh 471001",
    "phone": "RS Tamrakar Clinic",
    "hours": null,
    "image_url": "https://www.bing.com/maps/geoplat/REST/v1/Imagery/Map/RoadVibrant?ms=92,112&key=AnTcaqBi2ypp0xI-OZNi4W_ik2KhjgpqioTAtXLC8GzkMBQRMlyxvxyTnd5b73im&c=en-US&ur=in&da=n&logo=n&fmt=png&od=1&shading=hill&pp=24.91189,79.590118;dfp"
  },
  {
    "name": "THE BONE CLINIC By Dr. Rajesh Kumar Mishra",
    "address": "THE Bone Clinic, Chhatarpur, Madhya Pradesh 471001",
    "phone": "THE BONE CLINIC By Dr. Rajesh Kumar Mishra",
    "hours": "Closed· Opens 14:00",
    "image_url": null
  },
  {
    "name": "Rajesh Tiwari Clinic",
    "address": "Tehsil Rajnagar, Bara, Chhatarpur, Madhya Pradesh 471001",
    "phone": "Rajesh Tiwari Clinic",
    "hours": null,
    "image_url": "https://www.bing.com/maps/geoplat/REST/v1/Imagery/Map/RoadVibrant?ms=92,112&key=AnTcaqBi2ypp0xI-OZNi4W_ik2KhjgpqioTAtXLC8GzkMBQRMlyxvxyTnd5b73im&c=en-US&ur=in&da=n&logo=n&fmt=png&od=1&shading=hill&pp=24.92741,79.588799;dfp"
  },
  {
    "name": "Dr. Swati Agarwal",
    "address": "D-3, 1st Floor, Chhatarpur Mandir Main Road, Chhatarpur, Delhi",
    "phone": "Dr. Swati Agarwal",
    "hours": "Open· Closes 13:30",
    "image_url": null
  },
  {
    "name": "Heal Care",
    "address": "Opp SP Office, Bapuji Nagar, Agia, Goalpara, Madhya Pradesh 783121",
    "phone": "Heal Care",
    "hours": "Open· Closes 14:00",
    "image_url": null
  },
  {
    "name": "Dr. Rajat Gupta",
    "address": "Skination: Skin & Hair Clinic. D-3, First Floor, Main Chhatarpur Rd, Chhatarpur, New Delhi, Delhi",
    "phone": "Dr. Rajat Gupta",
    "hours": "Open· Closes 13:30",
    "image_url": null
  },
  {
    "name": "Dr. Himanshu Batham - Dermatologist - Chhatarpur | Facebook - 27 Photos",
    "address": "Jawahar Road Gupta Bhawan, Chhatarpur, Madhya Pradesh",
    "phone": "Dr. Himanshu Batham - Dermatologist - Chhatarpur | Facebook - 27 Photos",
    "hours": null,
    "image_url": "https://www.bing.com/maps/geoplat/REST/v1/Imagery/Map/RoadVibrant?ms=92,112&key=AnTcaqBi2ypp0xI-OZNi4W_ik2KhjgpqioTAtXLC8GzkMBQRMlyxvxyTnd5b73im&c=en-US&ur=in&da=n&logo=n&fmt=png&od=1&shading=hill&pp=24.917521,79.583862;dfp"
  },
  {
    "name": "Brain Cardiac & Diabetic Care Centre",
    "address": "Opposite Maharaja College, Bajpai Marg, Chhatarpur, Madhya Pradesh 471001",
    "phone": "Brain Cardiac & Diabetic Care Centre",
    "hours": null,
    "image_url": null
  },
  {
    "name": "Khurana Eye Care Center",
    "address": "Jawahar Road, Chhatarpur, Madhya Pradesh 471001",
    "phone": "Khurana Eye Care Center",
    "hours": "Open· Closes 13:00",
    "image_url": null
  }
]