[
  {
    "name": "Dr. Hemant Ahirwar",
    "address": "Gate Number 2 Nagpur Road, Chhindwara, Madhya Pradesh",
    "phone": "Dr. Hemant Ahirwar",
    "hours": "Closed· Opens 13:00",
    "image_url": "https://www.bing.com/maps/geoplat/REST/v1/Imagery/Map/RoadVibrant?ms=92,112&key=AnTcaqBi2ypp0xI-OZNi4W_ik2KhjgpqioTAtXLC8GzkMBQRMlyxvxyTnd5b73im&c=en-US&ur=in&da=n&logo=n&fmt=png&od=1&shading=hill&pp=22.052094,78.937737;dfp"
  },
  {
    "name": "Dr. Nitin Shrivastava",
    "address": "Housing Board Complex, Chandangaon, Chhindwara, Madhya Pradesh",
    "phone": "Dr. Nitin Shrivastava",
    "hours": null,
    "image_url": "https://www.bing.com/maps/geoplat/REST/v1/Imagery/Map/RoadVibrant?ms=92,112&key=AnTcaqBi2ypp0xI-OZNi4W_ik2KhjgpqioTAtXLC8GzkMBQRMlyxvxyTnd5b73im&c=en-US&ur=in&da=n&logo=n&fmt=png&od=1&shading=hill&pp=22.037783,78.930725;dfp"
  },
  {
    "name": "Shraddha Clinic/Dr Aroop/Dr Shraddha",
    "address": "Chhindwara Chowk Math Mandir Road, Near Swastik Medical Store, Seoni, Madhya Pradesh",
    "phone": "Shraddha Clinic/Dr Aroop/Dr Shraddha",
    "hours": "Open 24 hours",
    "image_url": "https://www.bing.com/maps/geoplat/REST/v1/Imagery/Map/RoadVibrant?ms=92,134&key=AnTcaqBi2ypp0xI-OZNi4W_ik2KhjgpqioTAtXLC8GzkMBQRMlyxvxyTnd5b73im&c=en-US&ur=in&da=n&logo=n&fmt=png&od=1&shading=hill&pp=22.053539,78.937912;dfp"
  },
  {
    "name": "Dr S R Dharpure",
    "address": "Nagpur Road, Bodri Biver Bridge, Chandangaon Chhindwara, Chhindwara, Madhya Pradesh 480001",
    "phone": "Dr S R Dharpure",
    "hours": null,
    "image_url": "https://www.bing.com/maps/geoplat/REST/v1/Imagery/Map/RoadVibrant?ms=92,112&key=AnTcaqBi2ypp0xI-OZNi4W_ik2KhjgpqioTAtXLC8GzkMBQRMlyxvxyTnd5b73im&c=en-US&ur=in&da=n&logo=n&fmt=png&od=1&shading=hill&pp=22.037901,78.93058;dfp"
  },
  {
    "name": "Dr. Ravindra Verma | General Physician | Verma clinic eH Chhindwara",
    "address": "Verma Clinic eH Chhindwara, Chhindwara, Madhya Pradesh, India, 480001, Chhindwara, Madhya Pradesh …",
    "phone": "Dr. Ravindra Verma | General Physician | Verma clinic eH Chhindwara",
    "hours": "Open· Closes 12:30",
    "image_url": "/th?id=OLC.dq7p1ZrQL2imiQ480x360&w=92&h=134&c=8&rs=1&qlt=80&cdv=1&pid=Local"
  },
  {
    "name": "Dr Neelesh Prajapit",
    "address": "Jama Masjid Road, Allahabad Bank, Chindwara, Chhindwara, Madhya Pradesh 480001",
    "phone": "Dr Neelesh Prajapit",
    "hours": null,
    "image_url": "/th?id=OLC.0qzsy4IPhbKEwQ480x360&w=92&h=112&c=8&rs=1&qlt=80&cdv=1&pid=Local"
  },
  {
    "name": "Dr. Anurag Mathur",
    "address": "Bhopal Road, Chhindwara, Madhya Pradesh 480001",
    "phone": "Dr. Anurag Mathur",
    "hours": "Closed· Opens 12:30",
    "image_url": "https://www.bing.com/maps/geoplat/REST/v1/Imagery/Map/RoadVibrant?ms=92,112&key=AnTcaqBi2ypp0xI-OZNi4W_ik2KhjgpqioTAtXLC8GzkMBQRMlyxvxyTnd5b73im&c=en-US&ur=in&da=n&logo=n&fmt=png&od=1&shading=hill&pp=22.058121,78.934731;dfp"
  },
  {
    "name": "Dr V K Navkar clinic & residence",
    "address": "Major Dhyanchand Ward, Seoni, Madhya Pradesh 480661",
    "phone": "Dr V K Navkar clinic & residence",
    "hours": null,
    "image_url": "https://www.bing.com/maps/geoplat/REST/v1/Imagery/Map/RoadVibrant?ms=92,112&key=AnTcaqBi2ypp0xI-OZNi4W_ik2KhjgpqioTAtXLC8GzkMBQRMlyxvxyTnd5b73im&c=en-US&ur=in&da=n&logo=n&fmt=png&od=1&shading=hill&pp=22.165359,79.701859;dfp"
  },
  {
    "name": "Dr Sandeep Jain",
    "address": "Near Pankaj Talkies, Parasia Road, Sinchai Colony, Mohan Nagar, Chhindwara, Madhya Pradesh 480001",
    "phone": "Dr Sandeep Jain",
    "hours": null,
    "image_url": "https://www.bing.com/maps/geoplat/REST/v1/Imagery/Map/RoadVibrant?ms=92,112&key=AnTcaqBi2ypp0xI-OZNi4W_ik2KhjgpqioTAtXLC8GzkMBQRMlyxvxyTnd5b73im&c=en-US&ur=in&da=n&logo=n&fmt=png&od=1&shading=hill&pp=22.054583,78.943901;dfp"
  },
  {
    "name": "Ashtang Ayurved Hospital",
    "address": "Near Bodri River Bridge, Nagpur Rd, Housing Board Colony, Chandangaon, Chhindwara, Madhya Pradesh",
    "phone": "Ashtang Ayurved Hospital",
    "hours": null,
    "image_url": null
  },
  {
    "name": "Dr Manan Gogia",
    "address": "Parasia Road, Opposite Trimurti Apartment, Chhindwara, Chhindwara 480001",
    "phone": "Dr Manan Gogia",
    "hours": null,
    "image_url": null
  },
  {
    "name": "Dr Batra's Homeopathy, Hair & Skin clinic",
    "address": "Parasia Rd, Beside Trimurti Apartments and Pepperfry, opp. Gogia Hospital, Vishnu Nagar, Chhindwara, Madh…",
    "phone": "Dr Batra's Homeopathy, Hair & Skin clinic",
    "hours": null,
    "image_url": null
  },
  {
    "name": "Dr Neeraj Ayurveda Diabetes Clinic",
    "address": "Shanichara Market Rd, Nai Abadi, Chhindwara, Madhya Pradesh",
    "phone": "Dr Neeraj Ayurveda Diabetes Clinic",
    "hours": null,
    "image_url": "https://www.bing.com/maps/geoplat/REST/v1/Imagery/Map/RoadVibrant?ms=92,112&key=AnTcaqBi2ypp0xI-OZNi4W_ik2KhjgpqioTAtXLC8GzkMBQRMlyxvxyTnd5b73im&c=en-US&ur=in&da=n&logo=n&fmt=png&od=1&shading=hill&pp=22.06249,78.947166;dfp"
  },
  {
    "name": "Dr. K.c. Jain Ent Jainam Clinic",
    "address": "2wvm+wpr, Chhindwara, Madhya Pradesh 480001",
    "phone": "Dr. K.c. Jain Ent Jainam Clinic",
    "hours": null,
    "image_url": "https://www.bing.com/maps/geoplat/REST/v1/Imagery/Map/RoadVibrant?ms=92,112&key=AnTcaqBi2ypp0xI-OZNi4W_ik2KhjgpqioTAtXLC8GzkMBQRMlyxvxyTnd5b73im&c=en-US&ur=in&da=n&logo=n&fmt=png&od=1&shading=hill&pp=22.047632,78.939217;dfp"
  },
  {
    "name": "Dr Rupali Kalia",
    "address": "Signature City Colony, PG College Road, Chhindwara, Madhya Pradesh 480001",
    "phone": "Dr Rupali Kalia",
    "hours": null,
    "image_url": null
  },
  {
    "name": "Dr Lal PathLabs – Patient Service Centre",
    "address": "Petrol Pump, Opp Distt. Hospital, Nagpur Road, Parasia Rd, Chhindwara, Madhya Pradesh",
    "phone": "Dr Lal PathLabs – Patient Service Centre",
    "hours": null,
    "image_url": "https://www.bing.com/maps/geoplat/REST/v1/Imagery/Map/RoadVibrant?ms=92,112&key=AnTcaqBi2ypp0xI-OZNi4W_ik2KhjgpqioTAtXLC8GzkMBQRMlyxvxyTnd5b73im&c=en-US&ur=in&da=n&logo=n&fmt=png&od=1&shading=hill&pp=22.035368,78.929558;dfp"
  },
  {
    "name": "Dr Bhanu Radiology Clinic",
    "address": "First Flooer Uday Tower, Khajri Road, Chhindwara, Madhya Pradesh 480001",
    "phone": "Dr Bhanu Radiology Clinic",
    "hours": null,
    "image_url": null
  },
  {
    "name": "Nagpur Scan & Diagnostic Centre",
    "address": "Parasia Road, Sri Sasti Matha Temple, Mohan Nagar, Chhindwara, Madhya Pradesh 480001",
    "phone": "Nagpur Scan & Diagnostic Centre",
    "hours": null,
    "image_url": "https://www.bing.com/maps/geoplat/REST/v1/Imagery/Map/RoadVibrant?ms=92,112&key=AnTcaqBi2ypp0xI-OZNi4W_ik2KhjgpqioTAtXLC8GzkMBQRMlyxvxyTnd5b73im&c=en-US&ur=in&da=n&logo=n&fmt=png&od=1&shading=hill&pp=22.058399,78.931885;dfp"
  }
]