[
  {
    "name": "Dr. Chetan D’sa, MD Physician",
    "address": "Chetana Nursing Home Premises, Mallandur Rd, Chikmagalur, Karnataka",
    "phone": "Dr. Chetan D’sa, MD Physician",
    "hours": null,
    "image_url": "https://www.bing.com/maps/geoplat/REST/v1/Imagery/Map/RoadVibrant?ms=92,112&key=AnTcaqBi2ypp0xI-OZNi4W_ik2KhjgpqioTAtXLC8GzkMBQRMlyxvxyTnd5b73im&c=en-US&ur=in&da=n&logo=n&fmt=png&od=1&shading=hill&pp=13.328924,75.757118;dfp"
  },
  {
    "name": "Malnad Clinic",
    "address": "KM Rd, Mudigere, Karnataka",
    "phone": "Malnad Clinic",
    "hours": null,
    "image_url": "/th?id=OLC.M6MUZrrjVoWE3Q480x360&w=92&h=112&c=8&rs=1&qlt=80&cdv=1&pid=Local"
  },
  {
    "name": "Ashraya Hospital",
    "address": "Nandana Tower Street, Chikkamagaluru, Karnataka 577101",
    "phone": "Ashraya Hospital",
    "hours": null,
    "image_url": "/th?id=OLC.BN%2fKWvmN9jSelA480x360&w=92&h=112&c=8&rs=1&qlt=80&cdv=1&pid=Local"
  },
  {
    "name": "Yashgagan Orthopedic, Trauma and Spine CENTRE. CHIKKAMAGALUR.",
    "address": "Chokanna Street, MG Rd, opp. Sai Angels School, Sankara Pura, Lakshmishanagara, Chikkamagaluru, Ka…",
    "phone": "Yashgagan Orthopedic, Trauma and Spine CENTRE. CHIKKAMAGALUR.",
    "hours": null,
    "image_url": "/th?id=OLC.DsFEKGwI5Xawpw480x360&w=92&h=112&c=8&rs=1&qlt=80&cdv=1&pid=Local"
  },
  {
    "name": "Dr. Santhosh Urs",
    "address": "Chickmagalur, Chikmagalur, Karnataka",
    "phone": "Dr. Santhosh Urs",
    "hours": "Open· Closes 22:00",
    "image_url": "https://www.bing.com/maps/geoplat/REST/v1/Imagery/Map/RoadVibrant?ms=92,112&key=AnTcaqBi2ypp0xI-OZNi4W_ik2KhjgpqioTAtXLC8GzkMBQRMlyxvxyTnd5b73im&c=en-US&ur=in&da=n&logo=n&fmt=png&od=1&shading=hill&pp=13.319556,75.772987;dfp"
  },
  {
    "name": "Chinmaya Clinic",
    "address": "Mallandur Road, Vijayapura, Chikkamagaluru, Karnataka 577101",
    "phone": "Chinmaya Clinic",
    "hours": null,
    "image_url": "https://www.bing.com/maps/geoplat/REST/v1/Imagery/Map/RoadVibrant?ms=92,112&key=AnTcaqBi2ypp0xI-OZNi4W_ik2KhjgpqioTAtXLC8GzkMBQRMlyxvxyTnd5b73im&c=en-US&ur=in&da=n&logo=n&fmt=png&od=1&shading=hill&pp=13.325801,75.769897;dfp"
  },
  {
    "name": "Dr. Aniketh Vijay Balegadde",
    "address": "Naidu Street, P B Number 77, Chikmagalur, Karnataka",
    "phone": "Dr. Aniketh Vijay Balegadde",
    "hours": "Open· Closes 14:00",
    "image_url": null
  },
  {
    "name": "Chetan Clinic",
    "address": "M G Road, Kadur, Chikkamagaluru, Karnataka 577101",
    "phone": "Chetan Clinic",
    "hours": null,
    "image_url": "https://www.bing.com/maps/geoplat/REST/v1/Imagery/Map/RoadVibrant?ms=92,112&key=AnTcaqBi2ypp0xI-OZNi4W_ik2KhjgpqioTAtXLC8GzkMBQRMlyxvxyTnd5b73im&c=en-US&ur=in&da=n&logo=n&fmt=png&od=1&shading=hill&pp=13.315762,75.774208;dfp"
  },
  {
    "name": "Dr. Bhagya Karthik- Obstetrics & Gynaecologist",
    "address": "Ashraya Hospital, Naidu Street, Chikmagalur, Karnataka 577101",
    "phone": "Dr. Bhagya Karthik- Obstetrics & Gynaecologist",
    "hours": null,
    "image_url": "https://www.bing.com/maps/geoplat/REST/v1/Imagery/Map/RoadVibrant?ms=92,112&key=AnTcaqBi2ypp0xI-OZNi4W_ik2KhjgpqioTAtXLC8GzkMBQRMlyxvxyTnd5b73im&c=en-US&ur=in&da=n&logo=n&fmt=png&od=1&shading=hill&pp=13.315657,75.771027;dfp"
  },
  {
    "name": "Asha Clinic",
    "address": "Belur Road, Chikkamagaluru, Karnataka 577101",
    "phone": "Asha Clinic",
    "hours": null,
    "image_url": "https://www.bing.com/maps/geoplat/REST/v1/Imagery/Map/RoadVibrant?ms=92,112&key=AnTcaqBi2ypp0xI-OZNi4W_ik2KhjgpqioTAtXLC8GzkMBQRMlyxvxyTnd5b73im&c=en-US&ur=in&da=n&logo=n&fmt=png&od=1&shading=hill&pp=13.314121,75.776031;dfp"
  },
  {
    "name": "Dr. Anish Behl",
    "address": "Market Road, Chikkamagaluru, Karnataka 577101",
    "phone": "Dr. Anish Behl",
    "hours": "Open· Closes 16:30",
    "image_url": "https://www.bing.com/maps/geoplat/REST/v1/Imagery/Map/RoadVibrant?ms=92,112&key=AnTcaqBi2ypp0xI-OZNi4W_ik2KhjgpqioTAtXLC8GzkMBQRMlyxvxyTnd5b73im&c=en-US&ur=in&da=n&logo=n&fmt=png&od=1&shading=hill&pp=13.316025,75.776299;dfp"
  },
  {
    "name": "Dr. Gillian's Advanced Skin, Hair, Laser & Cosmetology Clinic",
    "address": "Chetana Nursing Home Premises, Mallandur Road, Chikmagalur, Karnataka, Karnataka 577101",
    "phone": "Dr. Gillian's Advanced Skin, Hair, Laser & Cosmetology Clinic",
    "hours": "Open· Closes 20:00",
    "image_url": null
  },
  {
    "name": "Chetana Poly Clinic And Counseling Centre",
    "address": "Near Raghu Stickers, Market Road, Chikmagalur, Karnataka, Karnataka 577101",
    "phone": "Chetana Poly Clinic And Counseling Centre",
    "hours": null,
    "image_url": "https://www.bing.com/maps/geoplat/REST/v1/Imagery/Map/RoadVibrant?ms=92,112&key=AnTcaqBi2ypp0xI-OZNi4W_ik2KhjgpqioTAtXLC8GzkMBQRMlyxvxyTnd5b73im&c=en-US&ur=in&da=n&logo=n&fmt=png&od=1&shading=hill&pp=13.331046,75.76899;dfp"
  },
  {
    "name": "Sri Dharmasthala Manjunatha Ayurvedic Hospital",
    "address": "Hosamane, Chikmagalur, Karnataka 577101, India, Chikmagalur, Karnataka 577101",
    "phone": "Sri Dharmasthala Manjunatha Ayurvedic Hospital",
    "hours": null,
    "image_url": "https://www.bing.com/maps/geoplat/REST/v1/Imagery/Map/RoadVibrant?ms=92,112&key=AnTcaqBi2ypp0xI-OZNi4W_ik2KhjgpqioTAtXLC8GzkMBQRMlyxvxyTnd5b73im&c=en-US&ur=in&da=n&logo=n&fmt=png&od=1&shading=hill&pp=13.309278,75.774323;dfp"
  },
  {
    "name": "SKINSURG Clinic - Skin & General Surgery clinic | Dr Pratheeksha S & Dr Chiranth GS",
    "address": "KM Road, Circle, Near Thogarihankal, Beside Malabar Gold & Diamonds, Chikkamagaluru, Karnataka",
    "phone": "SKINSURG Clinic - Skin & General Surgery clinic | Dr Pratheeksha S & Dr Chiranth GS",
    "hours": null,
    "image_url": "https://www.bing.com/maps/geoplat/REST/v1/Imagery/Map/RoadVibrant?ms=92,112&key=AnTcaqBi2ypp0xI-OZNi4W_ik2KhjgpqioTAtXLC8GzkMBQRMlyxvxyTnd5b73im&c=en-US&ur=in&da=n&logo=n&fmt=png&od=1&shading=hill&pp=13.334775,75.808121;dfp"
  },
  {
    "name": "shri guru clinic & Acupuncture therapy centre",
    "address": "Jakati Complex, opp. Police Station, Yaragatti, Karnataka",
    "phone": "shri guru clinic & Acupuncture therapy centre",
    "hours": null,
    "image_url": "https://www.bing.com/maps/geoplat/REST/v1/Imagery/Map/RoadVibrant?ms=92,112&key=AnTcaqBi2ypp0xI-OZNi4W_ik2KhjgpqioTAtXLC8GzkMBQRMlyxvxyTnd5b73im&c=en-US&ur=in&da=n&logo=n&fmt=png&od=1&shading=hill&pp=13.32089,75.774727;dfp"
  }
]