[
  {
    "name": "Dr. Yashwanth Sagar- General Medicine",
    "address": "Jeevan Hospital, Shidalgatta Circle, Chikkaballapur, Karnataka 562101",
    "phone": "Dr. Yashwanth Sagar- General Medicine",
    "hours": "Open· Closes 14:00",
    "image_url": "https://www.bing.com/maps/geoplat/REST/v1/Imagery/Map/RoadVibrant?ms=92,134&key=AnTcaqBi2ypp0xI-OZNi4W_ik2KhjgpqioTAtXLC8GzkMBQRMlyxvxyTnd5b73im&c=en-US&ur=in&da=n&logo=n&fmt=png&od=1&shading=hill&pp=13.435035,77.731133;dfp"
  },
  {
    "name": "Dr. Madhuvan H S- General Physician in Chickballapur",
    "address": "Jeevan Hospital, Chickballapur, Karnataka 562101",
    "phone": "Dr. Madhuvan H S- General Physician in Chickballapur",
    "hours": "Closed· Opens 17:30",
    "image_url": "https://www.bing.com/maps/geoplat/REST/v1/Imagery/Map/RoadVibrant?ms=92,134&key=AnTcaqBi2ypp0xI-OZNi4W_ik2KhjgpqioTAtXLC8GzkMBQRMlyxvxyTnd5b73im&c=en-US&ur=in&da=n&logo=n&fmt=png&od=1&shading=hill&pp=13.435499,77.731537;dfp"
  },
  {
    "name": "Dr. Karthik Yadav- General and Laparoscopic Surgeon",
    "address": "Ananya Speciality Hospital, 1St Cross, Mahakali Road, Off Bajar Road, Chikkaballapur, Karnataka 562101",
    "phone": "Dr. Karthik Yadav- General and Laparoscopic Surgeon",
    "hours": "Closed· Opens 18:00",
    "image_url": "https://www.bing.com/maps/geoplat/REST/v1/Imagery/Map/RoadVibrant?ms=92,134&key=AnTcaqBi2ypp0xI-OZNi4W_ik2KhjgpqioTAtXLC8GzkMBQRMlyxvxyTnd5b73im&c=en-US&ur=in&da=n&logo=n&fmt=png&od=1&shading=hill&pp=13.435499,77.731522;dfp"
  },
  {
    "name": "Ashirwad Clinic",
    "address": "Mahakali Road, Chikkaballapur, Karnataka 562101, India, Chikkaballapur, Karnataka 562101",
    "phone": "Ashirwad Clinic",
    "hours": null,
    "image_url": "/th?id=OLC.zqPwgkLDJ6xrpA480x360&w=92&h=112&c=8&rs=1&qlt=80&cdv=1&pid=Local"
  },
  {
    "name": "Prabhakar Clinic",
    "address": "Government Girls School Road, Post Office, Chikkaballapura Rural, Chikkaballapur, Karnataka 5621…",
    "phone": "Prabhakar Clinic",
    "hours": null,
    "image_url": "https://www.bing.com/maps/geoplat/REST/v1/Imagery/Map/RoadVibrant?ms=92,112&key=AnTcaqBi2ypp0xI-OZNi4W_ik2KhjgpqioTAtXLC8GzkMBQRMlyxvxyTnd5b73im&c=en-US&ur=in&da=n&logo=n&fmt=png&od=1&shading=hill&pp=13.431018,77.727058;dfp"
  },
  {
    "name": "Adarsha Clinic",
    "address": "K T Road, Near Town Hall, Chikkaballapura Rural, Chikkaballapur, Karnataka 562101",
    "phone": "Adarsha Clinic",
    "hours": null,
    "image_url": "https://www.bing.com/maps/geoplat/REST/v1/Imagery/Map/RoadVibrant?ms=92,112&key=AnTcaqBi2ypp0xI-OZNi4W_ik2KhjgpqioTAtXLC8GzkMBQRMlyxvxyTnd5b73im&c=en-US&ur=in&da=n&logo=n&fmt=png&od=1&shading=hill&pp=13.431301,77.726837;dfp"
  },
  {
    "name": "Chanda Clinic",
    "address": "Bengaluru Road, Chikkaballapur, Karnataka 562101",
    "phone": "Chanda Clinic",
    "hours": null,
    "image_url": "https://www.bing.com/maps/geoplat/REST/v1/Imagery/Map/RoadVibrant?ms=92,112&key=AnTcaqBi2ypp0xI-OZNi4W_ik2KhjgpqioTAtXLC8GzkMBQRMlyxvxyTnd5b73im&c=en-US&ur=in&da=n&logo=n&fmt=png&od=1&shading=hill&pp=13.429297,77.730392;dfp"
  },
  {
    "name": "Jyithi Clinic",
    "address": "2Nd Cross Road, Municipal Layout, Chikkaballapura, Chikkaballapur, Karnataka 562101",
    "phone": "Jyithi Clinic",
    "hours": null,
    "image_url": "https://www.bing.com/maps/geoplat/REST/v1/Imagery/Map/RoadVibrant?ms=92,112&key=AnTcaqBi2ypp0xI-OZNi4W_ik2KhjgpqioTAtXLC8GzkMBQRMlyxvxyTnd5b73im&c=en-US&ur=in&da=n&logo=n&fmt=png&od=1&shading=hill&pp=13.442792,77.721085;dfp"
  },
  {
    "name": "Dr Manjunath",
    "address": "Chickaballapur, Bangalore, Karnataka 562101",
    "phone": "Dr Manjunath",
    "hours": null,
    "image_url": "https://www.bing.com/maps/geoplat/REST/v1/Imagery/Map/RoadVibrant?ms=92,112&key=AnTcaqBi2ypp0xI-OZNi4W_ik2KhjgpqioTAtXLC8GzkMBQRMlyxvxyTnd5b73im&c=en-US&ur=in&da=n&logo=n&fmt=png&od=1&shading=hill&pp=13.423978,77.744331;dfp"
  },
  {
    "name": "Sushruta Clinic",
    "address": "Ashok Road, Sidlaghatta, Karnataka 562105",
    "phone": "Sushruta Clinic",
    "hours": null,
    "image_url": "https://www.bing.com/maps/geoplat/REST/v1/Imagery/Map/RoadVibrant?ms=92,112&key=AnTcaqBi2ypp0xI-OZNi4W_ik2KhjgpqioTAtXLC8GzkMBQRMlyxvxyTnd5b73im&c=en-US&ur=in&da=n&logo=n&fmt=png&od=1&shading=hill&pp=13.38817,77.864044;dfp"
  },
  {
    "name": "CSI Dialysis and kidney center c/o CSI hospital",
    "address": "CSI Dialysis, CSI Hospital Rd, Chikkaballapur, Karnataka",
    "phone": "CSI Dialysis and kidney center c/o CSI hospital",
    "hours": null,
    "image_url": "https://www.bing.com/maps/geoplat/REST/v1/Imagery/Map/RoadVibrant?ms=92,112&key=AnTcaqBi2ypp0xI-OZNi4W_ik2KhjgpqioTAtXLC8GzkMBQRMlyxvxyTnd5b73im&c=en-US&ur=in&da=n&logo=n&fmt=png&od=1&shading=hill&pp=13.436764,77.724617;dfp"
  },
  {
    "name": "Sai Ram Agri Clinic",
    "address": "HL NO 86/3 Shop NO 3, Gorund Floor, Annappa Complex, Perasandra Cross, Perasndra, Chikballapur, …",
    "phone": "Sai Ram Agri Clinic",
    "hours": null,
    "image_url": "https://www.bing.com/maps/geoplat/REST/v1/Imagery/Map/RoadVibrant?ms=92,112&key=AnTcaqBi2ypp0xI-OZNi4W_ik2KhjgpqioTAtXLC8GzkMBQRMlyxvxyTnd5b73im&c=en-US&ur=in&da=n&logo=n&fmt=png&od=1&shading=hill&pp=13.43835,77.720062;dfp"
  },
  {
    "name": "Shree Chennakeshava Swamy Agri Clinic",
    "address": "Mayura Circle, Chintamani Main Road, Sidlaghatta, Chikballapur, Karnataka 562105",
    "phone": "Shree Chennakeshava Swamy Agri Clinic",
    "hours": null,
    "image_url": "https://www.bing.com/maps/geoplat/REST/v1/Imagery/Map/RoadVibrant?ms=92,112&key=AnTcaqBi2ypp0xI-OZNi4W_ik2KhjgpqioTAtXLC8GzkMBQRMlyxvxyTnd5b73im&c=en-US&ur=in&da=n&logo=n&fmt=png&od=1&shading=hill&pp=13.396482,77.863342;dfp"
  },
  {
    "name": "Rajesh Skin Clinic",
    "address": "M G Road, Rural Police Station, Chikkaballapura, Chikkaballapur, Karnataka 562101",
    "phone": "Rajesh Skin Clinic",
    "hours": null,
    "image_url": "https://www.bing.com/maps/geoplat/REST/v1/Imagery/Map/RoadVibrant?ms=92,112&key=AnTcaqBi2ypp0xI-OZNi4W_ik2KhjgpqioTAtXLC8GzkMBQRMlyxvxyTnd5b73im&c=en-US&ur=in&da=n&logo=n&fmt=png&od=1&shading=hill&pp=13.435574,77.72966;dfp"
  }
]