[
  {
    "name": "Dr. Masthan Vali Clinic",
    "address": "Palamaneru Road, Vidyashramam Engish Medium School, Ram Nagar Colony, Chittoor, Andhra Pradesh …",
    "phone": "Dr. Masthan Vali Clinic",
    "hours": null,
    "image_url": "/th?id=OLC.8Fopf37zn7y%2f5g480x360&w=92&h=112&c=8&rs=1&qlt=80&cdv=1&pid=Local"
  },
  {
    "name": "ECHS Poly Clinic Chittoor",
    "address": "No 19-453, Rajiv Gandhi Road Opposite JZP Office, Reddy Colony, Chittoor, Andhra Pradesh",
    "phone": "ECHS Poly Clinic Chittoor",
    "hours": null,
    "image_url": "https://www.bing.com/maps/geoplat/REST/v1/Imagery/Map/RoadVibrant?ms=92,112&key=AnTcaqBi2ypp0xI-OZNi4W_ik2KhjgpqioTAtXLC8GzkMBQRMlyxvxyTnd5b73im&c=en-US&ur=in&da=n&logo=n&fmt=png&od=1&shading=hill&pp=13.214911,79.099281;dfp"
  },
  {
    "name": "Dr. P Lokesh, Treated 7K+ Patients | Best General Physician  | Fever & Diabetes Doctor",
    "address": "Diabetes AND General Clinic, Sundarayya Street, Thotapalyam, Chittoor, Andhra Pradesh",
    "phone": "Dr. P Lokesh, Treated 7K+ Patients | Best General Physician  | Fever & Diabetes Doctor",
    "hours": null,
    "image_url": "https://www.bing.com/maps/geoplat/REST/v1/Imagery/Map/RoadVibrant?ms=92,112&key=AnTcaqBi2ypp0xI-OZNi4W_ik2KhjgpqioTAtXLC8GzkMBQRMlyxvxyTnd5b73im&c=en-US&ur=in&da=n&logo=n&fmt=png&od=1&shading=hill&pp=13.218841,79.097221;dfp"
  },
  {
    "name": "Dr. S Prakash",
    "address": "555, Reddy and Reddy Colony, Chittoor, Andhra Pradesh",
    "phone": "Dr. S Prakash",
    "hours": "Open· Closes 14:00",
    "image_url": "/th?id=OLC.p3d%2bUTu2GZm8zw480x360&w=92&h=112&c=8&rs=1&qlt=80&cdv=1&pid=Local"
  },
  {
    "name": "Karthikeyan Clinic",
    "address": "Chittoor Main Road, Chittoor, Andhra Pradesh 517001",
    "phone": "Karthikeyan Clinic",
    "hours": null,
    "image_url": "https://www.bing.com/maps/geoplat/REST/v1/Imagery/Map/RoadVibrant?ms=92,112&key=AnTcaqBi2ypp0xI-OZNi4W_ik2KhjgpqioTAtXLC8GzkMBQRMlyxvxyTnd5b73im&c=en-US&ur=in&da=n&logo=n&fmt=png&od=1&shading=hill&pp=13.216505,79.098381;dfp"
  },
  {
    "name": "SM Clinic Hospital",
    "address": "Nalanda Nagar Road, Chittoor, Andhra Pradesh 517001",
    "phone": "SM Clinic Hospital",
    "hours": null,
    "image_url": "https://www.bing.com/maps/geoplat/REST/v1/Imagery/Map/RoadVibrant?ms=92,112&key=AnTcaqBi2ypp0xI-OZNi4W_ik2KhjgpqioTAtXLC8GzkMBQRMlyxvxyTnd5b73im&c=en-US&ur=in&da=n&logo=n&fmt=png&od=1&shading=hill&pp=13.215467,79.108925;dfp"
  },
  {
    "name": "Dr. P Balaji, Treated 9K+ Patients | Best General Physician  | Fever & Diabetes Doctor",
    "address": "SRI Krishna Clinic, Palamaner Rd, Kajoor, Vaddipalli, Chittoor, Andhra Pradesh",
    "phone": "Dr. P Balaji, Treated 9K+ Patients | Best General Physician  | Fever & Diabetes Doctor",
    "hours": null,
    "image_url": "https://www.bing.com/maps/geoplat/REST/v1/Imagery/Map/RoadVibrant?ms=92,112&key=AnTcaqBi2ypp0xI-OZNi4W_ik2KhjgpqioTAtXLC8GzkMBQRMlyxvxyTnd5b73im&c=en-US&ur=in&da=n&logo=n&fmt=png&od=1&shading=hill&pp=13.202643,79.08432;dfp"
  },
  {
    "name": "Dr. Kalikiri Ashok Reddy",
    "address": "490 A, Reddy & Reddy's Colony, Chittoor, Andhra Pradesh",
    "phone": "Dr. Kalikiri Ashok Reddy",
    "hours": "Closed· Opens 11:00",
    "image_url": null
  },
  {
    "name": "Dr.Lucaspradeep's orthopaedic Online Digital Clinic",
    "address": "Lucaspuram, Nalagam Palli, Andhra Pradesh",
    "phone": "Dr.Lucaspradeep's orthopaedic Online Digital Clinic",
    "hours": null,
    "image_url": "https://www.bing.com/maps/geoplat/REST/v1/Imagery/Map/RoadVibrant?ms=92,112&key=AnTcaqBi2ypp0xI-OZNi4W_ik2KhjgpqioTAtXLC8GzkMBQRMlyxvxyTnd5b73im&c=en-US&ur=in&da=n&logo=n&fmt=png&od=1&shading=hill&pp=13.215934,79.114014;dfp"
  },
  {
    "name": "Dr. Mohan's Diabetes Specialities Centre - Chittoor",
    "address": "No 19 565/11, Sai Yashus, Second Floor, Vellore Road, Chittor, Chittoor, Andhra Pradesh 517001",
    "phone": "Dr. Mohan's Diabetes Specialities Centre - Chittoor",
    "hours": "Open· Closes 17:30",
    "image_url": null
  },
  {
    "name": "Dr.raghu Diabetes And General Clinic",
    "address": "Thotapalyam, Chittoor, Andhra Pradesh 517001, India, Chittoor, Andhra Pradesh 517001",
    "phone": "Dr.raghu Diabetes And General Clinic",
    "hours": null,
    "image_url": "https://www.bing.com/maps/geoplat/REST/v1/Imagery/Map/RoadVibrant?ms=92,112&key=AnTcaqBi2ypp0xI-OZNi4W_ik2KhjgpqioTAtXLC8GzkMBQRMlyxvxyTnd5b73im&c=en-US&ur=in&da=n&logo=n&fmt=png&od=1&shading=hill&pp=13.218841,79.097221;dfp"
  },
  {
    "name": "Dr.Maithreyi, Manashanthi Neuromind and Behaviour care Clinic",
    "address": "22-1096, 3rd Street, SBI Colony, Opposite Govt ITI Chittoor, Andhra Pradesh",
    "phone": "Dr.Maithreyi, Manashanthi Neuromind and Behaviour care Clinic",
    "hours": null,
    "image_url": "https://www.bing.com/maps/geoplat/REST/v1/Imagery/Map/RoadVibrant?ms=92,112&key=AnTcaqBi2ypp0xI-OZNi4W_ik2KhjgpqioTAtXLC8GzkMBQRMlyxvxyTnd5b73im&c=en-US&ur=in&da=n&logo=n&fmt=png&od=1&shading=hill&pp=13.219278,79.11911;dfp"
  },
  {
    "name": "Aastha Skin Clinic - Services | Facebook",
    "address": "14-41, Market Chowk, Chittoor, Andhra Pradesh, Andhra Pradesh 517001",
    "phone": "Aastha Skin Clinic - Services | Facebook",
    "hours": "Closed· Opens 16:30",
    "image_url": null
  },
  {
    "name": "Dr. M.Aleem Clinic (Best Sex Specialist)",
    "address": "10-253 Gandhi Road, Chittoor, Andhra Pradesh 517001",
    "phone": "Dr. M.Aleem Clinic (Best Sex Specialist)",
    "hours": null,
    "image_url": "https://www.bing.com/maps/geoplat/REST/v1/Imagery/Map/RoadVibrant?ms=92,112&key=AnTcaqBi2ypp0xI-OZNi4W_ik2KhjgpqioTAtXLC8GzkMBQRMlyxvxyTnd5b73im&c=en-US&ur=in&da=n&logo=n&fmt=png&od=1&shading=hill&pp=13.221275,79.101295;clcp"
  },
  {
    "name": "Dr. M V Bharathi",
    "address": "Aragonda Village, Thavanampalli Mandal, Chittoor, Andhra Pradesh",
    "phone": "Dr. M V Bharathi",
    "hours": "Open· Closes 18:00",
    "image_url": "https://www.bing.com/maps/geoplat/REST/v1/Imagery/Map/RoadVibrant?ms=92,134&key=AnTcaqBi2ypp0xI-OZNi4W_ik2KhjgpqioTAtXLC8GzkMBQRMlyxvxyTnd5b73im&c=en-US&ur=in&da=n&logo=n&fmt=png&od=1&shading=hill&pp=13.28292,78.955643;dfp"
  },
  {
    "name": "Dr.ramalakshmi Nursing Home",
    "address": "Sndarayyier Street, Chittoor, Andhra Pradesh 517001, India, Chittoor, Andhra Pradesh 517001",
    "phone": "Dr.ramalakshmi Nursing Home",
    "hours": null,
    "image_url": "https://www.bing.com/maps/geoplat/REST/v1/Imagery/Map/RoadVibrant?ms=92,112&key=AnTcaqBi2ypp0xI-OZNi4W_ik2KhjgpqioTAtXLC8GzkMBQRMlyxvxyTnd5b73im&c=en-US&ur=in&da=n&logo=n&fmt=png&od=1&shading=hill&pp=13.2195,79.103302;dfp"
  },
  {
    "name": "Dr. Dakaraju P",
    "address": "Aragonda Village, Thavanampalli Mandal, Chittoor, Andhra Pradesh",
    "phone": "Dr. Dakaraju P",
    "hours": "Open· Closes 16:30",
    "image_url": "https://www.bing.com/maps/geoplat/REST/v1/Imagery/Map/RoadVibrant?ms=92,112&key=AnTcaqBi2ypp0xI-OZNi4W_ik2KhjgpqioTAtXLC8GzkMBQRMlyxvxyTnd5b73im&c=en-US&ur=in&da=n&logo=n&fmt=png&od=1&shading=hill&pp=13.28292,78.955643;dfp"
  },
  {
    "name": "Dr. Yugandhar",
    "address": "First Floor, City Center Mall, Bhavani Nagar Junction, Chittoor, Chittoor 500062",
    "phone": "Dr. Yugandhar",
    "hours": "Open· Closes 21:30",
    "image_url": null
  }
]