[
  {
    "name": "SELVA CLINIC (Dr M.DINESHSELVAKUMAR MBBS., D.Diab., )",
    "address": "Park, Near, 564, Vijay Complex, Selva Medicals, Thiyagigal Rd, Devakottai, Tamil Nadu",
    "phone": "SELVA CLINIC (Dr M.DINESHSELVAKUMAR MBBS., D.Diab., )",
    "hours": null,
    "image_url": "https://www.bing.com/maps/geoplat/REST/v1/Imagery/Map/RoadVibrant?ms=92,112&key=AnTcaqBi2ypp0xI-OZNi4W_ik2KhjgpqioTAtXLC8GzkMBQRMlyxvxyTnd5b73im&c=en-US&ur=in&da=n&logo=n&fmt=png&od=1&shading=hill&pp=11.006465,76.945862;dfp"
  },
  {
    "name": "Sai Sushrutha Speciality Clinic",
    "address": "112, Kattoor Rd, Sengadu, P N Palayam, Tamil Nadu",
    "phone": "Sai Sushrutha Speciality Clinic",
    "hours": null,
    "image_url": "https://www.bing.com/maps/geoplat/REST/v1/Imagery/Map/RoadVibrant?ms=92,112&key=AnTcaqBi2ypp0xI-OZNi4W_ik2KhjgpqioTAtXLC8GzkMBQRMlyxvxyTnd5b73im&c=en-US&ur=in&da=n&logo=n&fmt=png&od=1&shading=hill&pp=11.013632,76.979797;dfp"
  },
  {
    "name": "Dr. Suma Natarajan Clinic",
    "address": "No. 224, Coimbatore, Tamil Nadu 641009",
    "phone": "Dr. Suma Natarajan Clinic",
    "hours": null,
    "image_url": "https://www.bing.com/maps/geoplat/REST/v1/Imagery/Map/RoadVibrant?ms=92,112&key=AnTcaqBi2ypp0xI-OZNi4W_ik2KhjgpqioTAtXLC8GzkMBQRMlyxvxyTnd5b73im&c=en-US&ur=in&da=n&logo=n&fmt=png&od=1&shading=hill&pp=11.01426,76.96537;dfp"
  },
  {
    "name": "Dr. Aishwarya Anand",
    "address": "10, Subramaniam Layout, Trichy Road, Coimbatore, Tamil Nadu",
    "phone": "Dr. Aishwarya Anand",
    "hours": "Closed· Opens Sep 28 at 11:00",
    "image_url": "/th?id=OLC.3dhP%2bCspGXZ2tA480x360&w=92&h=112&c=8&rs=1&qlt=80&cdv=1&pid=Local"
  },
  {
    "name": "Vikram E.N.T Hospital",
    "address": "119, Thiruvenkatasamy Road, Near TV Swamy Bus Stop, RS Puram, Coimbatore, Tamil Nadu 641002",
    "phone": "Vikram E.N.T Hospital",
    "hours": "Open· Closes 18:00",
    "image_url": "/th?id=OLC.jw2YinMGSD8jIA480x360&w=92&h=134&c=8&rs=1&qlt=80&cdv=1&pid=Local"
  },
  {
    "name": "Piles Clinic - Dr.Bakshi",
    "address": "266, 2nd St, opp. to Sansar Hotel, Cross Cut Road, Gandhipuram, Tamil Nadu",
    "phone": "Piles Clinic - Dr.Bakshi",
    "hours": null,
    "image_url": "https://www.bing.com/maps/geoplat/REST/v1/Imagery/Map/RoadVibrant?ms=92,112&key=AnTcaqBi2ypp0xI-OZNi4W_ik2KhjgpqioTAtXLC8GzkMBQRMlyxvxyTnd5b73im&c=en-US&ur=in&da=n&logo=n&fmt=png&od=1&shading=hill&pp=11.017799,76.968674;dfp"
  },
  {
    "name": "Smile Health Clinic",
    "address": "708, 709, Vkk Menon Rd, Siddhapudur, Tamil Nadu 641044",
    "phone": "Smile Health Clinic",
    "hours": null,
    "image_url": null
  },
  {
    "name": "Dr. Kalyana Kumari",
    "address": "372F, Old Sakthi Hospital, Dr Nanjappa Road, Coimbatore, Tamil Nadu",
    "phone": "Dr. Kalyana Kumari",
    "hours": "Closed· Opens Sep 27 at 17:00",
    "image_url": null
  },
  {
    "name": "Dr. Darly Roy",
    "address": "20, Eru Company, Mettupalayam Road, Coimbatore, Tamil Nadu",
    "phone": "Dr. Darly Roy",
    "hours": "Open· Closes 19:00",
    "image_url": null
  },
  {
    "name": "Dr. Jaleel Ahamed. A.K",
    "address": "76-A 76-A, Ponnurangam Road West, Coimbatore, Tamil Nadu 641002",
    "phone": "Dr. Jaleel Ahamed. A.K",
    "hours": "Closed· Opens 17:00",
    "image_url": "https://www.bing.com/maps/geoplat/REST/v1/Imagery/Map/RoadVibrant?ms=92,134&key=AnTcaqBi2ypp0xI-OZNi4W_ik2KhjgpqioTAtXLC8GzkMBQRMlyxvxyTnd5b73im&c=en-US&ur=in&da=n&logo=n&fmt=png&od=1&shading=hill&pp=11.010294,76.945305;dfp"
  },
  {
    "name": "Dr M Naga Suresh - Best Neurosurgeon",
    "address": "Medicover Hospital, Sy. No. 419/B2, Near Apsrtc Bus Stand, Sampath Nagar, Kurnool, Andhra Pradesh",
    "phone": "Dr M Naga Suresh - Best Neurosurgeon",
    "hours": null,
    "image_url": "https://www.bing.com/maps/geoplat/REST/v1/Imagery/Map/RoadVibrant?ms=92,112&key=AnTcaqBi2ypp0xI-OZNi4W_ik2KhjgpqioTAtXLC8GzkMBQRMlyxvxyTnd5b73im&c=en-US&ur=in&da=n&logo=n&fmt=png&od=1&shading=hill&pp=11.017092,76.975861;dfp"
  },
  {
    "name": "a Bakshi Best Piles Doctor, Piles Clinic",
    "address": "620, Rangai Gounder St, Prakasam, Ukkadam, Coimbatore, Tamil Nadu",
    "phone": "a Bakshi Best Piles Doctor, Piles Clinic",
    "hours": null,
    "image_url": null
  },
  {
    "name": "Dr. Mohamed Sadagathulla Abdul Samadh",
    "address": "51, 7th Street, K.K. Pudur, Saibaba Colony, Landmark: Ramaswamy Street, Coimbatore, Tamil Nadu",
    "phone": "Dr. Mohamed Sadagathulla Abdul Samadh",
    "hours": "Open· Closes 13:00",
    "image_url": null
  },
  {
    "name": "Global Ortho And Trauma Hospital",
    "address": "62, Kalingarayan Street, Near Global Hospitals, Ram Nagar, Coimbatore, Tamil Nadu 641009",
    "phone": "Global Ortho And Trauma Hospital",
    "hours": null,
    "image_url": null
  },
  {
    "name": "Dr. R Srinivasan",
    "address": "P.B. No. 6327, Nethaji Road, Coimbatore, Tamil Nadu",
    "phone": "Dr. R Srinivasan",
    "hours": "Open· Closes 11:00",
    "image_url": null
  },
  {
    "name": "Dr. Parthiban Ramasamy",
    "address": "1166, Sathy Main Road, Ganapathy, Coimbatore, Tamil Nadu",
    "phone": "Dr. Parthiban Ramasamy",
    "hours": "Closed· Opens 11:30",
    "image_url": null
  },
  {
    "name": "Dr. Anand Narayan",
    "address": "G.Kuppuswamy Naidu Memorial Hospital, Coimbatore, Tamil Nadu",
    "phone": "Dr. Anand Narayan",
    "hours": "Closed· Opens Sep 28 at 09:00",
    "image_url": null
  },
  {
    "name": "Anand Narayan Oncologist Coimbatore",
    "address": "G Kuppuswamy Naidu (Gknm) Hospital, P N Palayam, Tamil Nadu",
    "phone": "Anand Narayan Oncologist Coimbatore",
    "hours": null,
    "image_url": null
  }
]