[
  {
    "name": "Dr. Arsad Hossain",
    "address": "Rn Road, By Lane, Cooch Behar, Cooch Behar, West Bengal, West Bengal 736101",
    "phone": "Dr. Arsad Hossain",
    "hours": null,
    "image_url": "/th?id=OLC.snSss6VLvCaRJA480x360&w=92&h=112&c=8&rs=1&qlt=80&cdv=1&pid=Local"
  },
  {
    "name": "Dr Indrajit Biswas Clinic",
    "address": "Guriahati Road, Central Bank Of India, Ghosh Para, Koch Bihar, West Bengal 736170",
    "phone": "Dr Indrajit Biswas Clinic",
    "hours": null,
    "image_url": "https://www.bing.com/maps/geoplat/REST/v1/Imagery/Map/RoadVibrant?ms=92,112&key=AnTcaqBi2ypp0xI-OZNi4W_ik2KhjgpqioTAtXLC8GzkMBQRMlyxvxyTnd5b73im&c=en-US&ur=in&da=n&logo=n&fmt=png&od=1&shading=hill&pp=26.320293,89.446503;dfp"
  },
  {
    "name": "Dr Joy Sarkar Clinic",
    "address": "Jenkins School, Cooch Behar, Koch Bihar, West Bengal 736101",
    "phone": "Dr Joy Sarkar Clinic",
    "hours": null,
    "image_url": "https://www.bing.com/maps/geoplat/REST/v1/Imagery/Map/RoadVibrant?ms=92,112&key=AnTcaqBi2ypp0xI-OZNi4W_ik2KhjgpqioTAtXLC8GzkMBQRMlyxvxyTnd5b73im&c=en-US&ur=in&da=n&logo=n&fmt=png&od=1&shading=hill&pp=26.320232,89.446495;dfp"
  },
  {
    "name": "Dr Sudip Sarkar Clinic",
    "address": "Siliguri Road, Cooch Behar, Koch Bihar, West Bengal 736101",
    "phone": "Dr Sudip Sarkar Clinic",
    "hours": null,
    "image_url": "https://www.bing.com/maps/geoplat/REST/v1/Imagery/Map/RoadVibrant?ms=92,112&key=AnTcaqBi2ypp0xI-OZNi4W_ik2KhjgpqioTAtXLC8GzkMBQRMlyxvxyTnd5b73im&c=en-US&ur=in&da=n&logo=n&fmt=png&od=1&shading=hill&pp=26.320335,89.443932;dfp"
  },
  {
    "name": "Dr Samik Chaudhary Clinic",
    "address": "Natun Bazar, B.S.Road, Cooch Vihar, Koch Bihar, West Bengal 736101",
    "phone": "Dr Samik Chaudhary Clinic",
    "hours": null,
    "image_url": "https://www.bing.com/maps/geoplat/REST/v1/Imagery/Map/RoadVibrant?ms=92,112&key=AnTcaqBi2ypp0xI-OZNi4W_ik2KhjgpqioTAtXLC8GzkMBQRMlyxvxyTnd5b73im&c=en-US&ur=in&da=n&logo=n&fmt=png&od=1&shading=hill&pp=26.317202,89.444504;dfp"
  },
  {
    "name": "Dr P K Saha Hospital",
    "address": "Bairagi Dighi Lane, Cooch Behar, West Bengal 736101",
    "phone": "Dr P K Saha Hospital",
    "hours": null,
    "image_url": "/th?id=OLC.qwYpD71fuv2WtQ480x360&w=92&h=112&c=8&rs=1&qlt=80&cdv=1&pid=Local"
  },
  {
    "name": "Dr Krishnendu Sarkar Clinic",
    "address": "Sh12a, United Bank Of India, New Town, Koch Bihar, West Bengal 736170",
    "phone": "Dr Krishnendu Sarkar Clinic",
    "hours": null,
    "image_url": "https://www.bing.com/maps/geoplat/REST/v1/Imagery/Map/RoadVibrant?ms=92,112&key=AnTcaqBi2ypp0xI-OZNi4W_ik2KhjgpqioTAtXLC8GzkMBQRMlyxvxyTnd5b73im&c=en-US&ur=in&da=n&logo=n&fmt=png&od=1&shading=hill&pp=26.31222,89.449013;dfp"
  },
  {
    "name": "Dr. Sanjoy Paul General Consultant in West Bengal",
    "address": "Medicure Medical Stores Opp Bhabani Cinema Hall N N Road Coochbehar, Coochbehar, West Bengal 736101",
    "phone": "Dr. Sanjoy Paul General Consultant in West Bengal",
    "hours": "Open· Closes 21:00",
    "image_url": "https://www.bing.com/maps/geoplat/REST/v1/Imagery/Map/RoadVibrant?ms=92,134&key=AnTcaqBi2ypp0xI-OZNi4W_ik2KhjgpqioTAtXLC8GzkMBQRMlyxvxyTnd5b73im&c=en-US&ur=in&da=n&logo=n&fmt=png&od=1&shading=hill&pp=26.326262,89.451248;dfp"
  },
  {
    "name": "Dr Ayan Midya Clinic",
    "address": "Biswa Singha Road, Tetul Tala Chowpathi, Chaltatala, Koch Bihar, West Bengal 736170",
    "phone": "Dr Ayan Midya Clinic",
    "hours": null,
    "image_url": "https://www.bing.com/maps/geoplat/REST/v1/Imagery/Map/RoadVibrant?ms=92,112&key=AnTcaqBi2ypp0xI-OZNi4W_ik2KhjgpqioTAtXLC8GzkMBQRMlyxvxyTnd5b73im&c=en-US&ur=in&da=n&logo=n&fmt=png&od=1&shading=hill&pp=26.319817,89.461388;dfp"
  },
  {
    "name": "Dr.C.Bhattacharjee thinksss",
    "address": "Khagrabari, Taltala, Cooch Behar, West Bengal 736101",
    "phone": "Dr.C.Bhattacharjee thinksss",
    "hours": null,
    "image_url": "https://www.bing.com/maps/geoplat/REST/v1/Imagery/Map/RoadVibrant?ms=92,112&key=AnTcaqBi2ypp0xI-OZNi4W_ik2KhjgpqioTAtXLC8GzkMBQRMlyxvxyTnd5b73im&c=en-US&ur=in&da=n&logo=n&fmt=png&od=1&shading=hill&pp=26.333792,89.448578;dfp"
  },
  {
    "name": "Dr Tushar Kanti Chanda Clinic",
    "address": "Nutun Bazar, Kalika Dass Road, Cooch Vihar, Koch Bihar, West Bengal 736101",
    "phone": "Dr Tushar Kanti Chanda Clinic",
    "hours": null,
    "image_url": "https://www.bing.com/maps/geoplat/REST/v1/Imagery/Map/RoadVibrant?ms=92,112&key=AnTcaqBi2ypp0xI-OZNi4W_ik2KhjgpqioTAtXLC8GzkMBQRMlyxvxyTnd5b73im&c=en-US&ur=in&da=n&logo=n&fmt=png&od=1&shading=hill&pp=26.316975,89.446075;dfp"
  },
  {
    "name": "Purple Lotus Clinic",
    "address": "B S Road, Opposite Bank Of Baroda, Cooch Behar, Cooch Behar, West Bengal, West Bengal 736101",
    "phone": "Purple Lotus Clinic",
    "hours": "Open· Closes 20:00",
    "image_url": null
  },
  {
    "name": "Dr Dipankar Dutta Clinic",
    "address": "Hitendra Narayan Road, Chaltatala, Koch Bihar, West Bengal 736170",
    "phone": "Dr Dipankar Dutta Clinic",
    "hours": null,
    "image_url": null
  },
  {
    "name": "Dr Anirban Roy Clinic",
    "address": "Magazine Road, New Cinema, Mukuldanga, Koch Bihar, West Bengal 736101",
    "phone": "Dr Anirban Roy Clinic",
    "hours": null,
    "image_url": "https://www.bing.com/maps/geoplat/REST/v1/Imagery/Map/RoadVibrant?ms=92,112&key=AnTcaqBi2ypp0xI-OZNi4W_ik2KhjgpqioTAtXLC8GzkMBQRMlyxvxyTnd5b73im&c=en-US&ur=in&da=n&logo=n&fmt=png&od=1&shading=hill&pp=26.317293,89.450081;dfp"
  },
  {
    "name": "Dr Pradyut Saha Clinic",
    "address": "Gol Bagan, Harendra Naryan Road, Cooch Vihar, Koch Bihar, West Bengal 736101",
    "phone": "Dr Pradyut Saha Clinic",
    "hours": null,
    "image_url": "https://www.bing.com/maps/geoplat/REST/v1/Imagery/Map/RoadVibrant?ms=92,112&key=AnTcaqBi2ypp0xI-OZNi4W_ik2KhjgpqioTAtXLC8GzkMBQRMlyxvxyTnd5b73im&c=en-US&ur=in&da=n&logo=n&fmt=png&od=1&shading=hill&pp=26.32209,89.444908;dfp"
  },
  {
    "name": "Dr Ratish Chandra Devnath Clinic",
    "address": "Biswa Singha Road, Dr P K Saha Hospital, Chaltatala, Koch Bihar, West Bengal 736170",
    "phone": "Dr Ratish Chandra Devnath Clinic",
    "hours": null,
    "image_url": null
  },
  {
    "name": "Dr. Rabindranath Saren- Orthopedics",
    "address": "Ortho Clinic Dr. Rabindranath Saren, Cooch Behar, Kolkata, West Bengal 736170",
    "phone": "Dr. Rabindranath Saren- Orthopedics",
    "hours": "Opens in 14 mins",
    "image_url": "https://www.bing.com/maps/geoplat/REST/v1/Imagery/Map/RoadVibrant?ms=92,134&key=AnTcaqBi2ypp0xI-OZNi4W_ik2KhjgpqioTAtXLC8GzkMBQRMlyxvxyTnd5b73im&c=en-US&ur=in&da=n&logo=n&fmt=png&od=1&shading=hill&pp=26.318123,89.445297;dfp"
  },
  {
    "name": "Roy Homoeo Clinic",
    "address": "Shiva Kali More, Rup Narayan Rd, Beside Dilip Mike Supply, Cooch Behar, West Bengal",
    "phone": "Roy Homoeo Clinic",
    "hours": null,
    "image_url": "https://www.bing.com/maps/geoplat/REST/v1/Imagery/Map/RoadVibrant?ms=92,112&key=AnTcaqBi2ypp0xI-OZNi4W_ik2KhjgpqioTAtXLC8GzkMBQRMlyxvxyTnd5b73im&c=en-US&ur=in&da=n&logo=n&fmt=png&od=1&shading=hill&pp=26.321194,89.456207;dfp"
  }
]