[
  {
    "name": "Dr. Bhumireddy Suneelreddy",
    "address": "Door Number 1/81-1, R.S. Road, Yerramukkapalli, Kadapa, Cuddapah, Andhra Pradesh",
    "phone": "Dr. Bhumireddy Suneelreddy",
    "hours": "Open· Closes 13:00",
    "image_url": "https://www.bing.com/maps/geoplat/REST/v1/Imagery/Map/RoadVibrant?ms=92,112&key=AnTcaqBi2ypp0xI-OZNi4W_ik2KhjgpqioTAtXLC8GzkMBQRMlyxvxyTnd5b73im&c=en-US&ur=in&da=n&logo=n&fmt=png&od=1&shading=hill&pp=14.460509,78.823753;dfp"
  },
  {
    "name": "Dr. Am Reddy",
    "address": "7 R S Road, Cuddapah, Andhra Pradesh 516001",
    "phone": "Dr. Am Reddy",
    "hours": null,
    "image_url": "https://www.bing.com/maps/geoplat/REST/v1/Imagery/Map/RoadVibrant?ms=92,112&key=AnTcaqBi2ypp0xI-OZNi4W_ik2KhjgpqioTAtXLC8GzkMBQRMlyxvxyTnd5b73im&c=en-US&ur=in&da=n&logo=n&fmt=png&od=1&shading=hill&pp=14.4709,78.823769;dfp"
  },
  {
    "name": "Dr. Arjun Kumar Avvaru General Physician",
    "address": "Avvaru Hospital, Beside Union Bank, Guntha Bazaar, Near 7 Roads, Kadapa, Andhra Pradesh 516001",
    "phone": "Dr. Arjun Kumar Avvaru General Physician",
    "hours": "Open· Closes 14:00",
    "image_url": "https://www.bing.com/maps/geoplat/REST/v1/Imagery/Map/RoadVibrant?ms=92,134&key=AnTcaqBi2ypp0xI-OZNi4W_ik2KhjgpqioTAtXLC8GzkMBQRMlyxvxyTnd5b73im&c=en-US&ur=in&da=n&logo=n&fmt=png&od=1&shading=hill&pp=14.475899,78.823364;dfp"
  },
  {
    "name": "Taj clinic",
    "address": "Raju Hospital, Tilak Nagar, Balaji Nagar, Kadapa, Andhra Pradesh",
    "phone": "Taj clinic",
    "hours": null,
    "image_url": "https://www.bing.com/maps/geoplat/REST/v1/Imagery/Map/RoadVibrant?ms=92,112&key=AnTcaqBi2ypp0xI-OZNi4W_ik2KhjgpqioTAtXLC8GzkMBQRMlyxvxyTnd5b73im&c=en-US&ur=in&da=n&logo=n&fmt=png&od=1&shading=hill&pp=14.465035,78.818451;dfp"
  },
  {
    "name": "Dr. Venkat Ram",
    "address": "Co-Operative Colony, Cuddapah, Andhra Pradesh 516001",
    "phone": "Dr. Venkat Ram",
    "hours": null,
    "image_url": "/th?id=OLC.IVF%2fzlRIfOr3jw480x360&w=92&h=112&c=8&rs=1&qlt=80&cdv=1&pid=Local"
  },
  {
    "name": "Sanjeevani Clinic",
    "address": "6/142, Sana Complex, Ravindra Nagar, Kadapa, Andhra Pradesh 516003",
    "phone": "Sanjeevani Clinic",
    "hours": null,
    "image_url": "/th?id=OLC.qd%2b8Kl54FKdxFQ480x360&w=92&h=112&c=8&rs=1&qlt=80&cdv=1&pid=Local"
  },
  {
    "name": "Vijaya Clinic",
    "address": "Kadapa Chittoor Haighway, Bugga Vanka Fly Over Bridge, Balaji Nagar, Cuddapah, Andhra Pradesh 516003",
    "phone": "Vijaya Clinic",
    "hours": null,
    "image_url": "https://www.bing.com/maps/geoplat/REST/v1/Imagery/Map/RoadVibrant?ms=92,112&key=AnTcaqBi2ypp0xI-OZNi4W_ik2KhjgpqioTAtXLC8GzkMBQRMlyxvxyTnd5b73im&c=en-US&ur=in&da=n&logo=n&fmt=png&od=1&shading=hill&pp=14.465336,78.817711;dfp"
  },
  {
    "name": "Himalaya Multispeciality Hospital",
    "address": "Door Number 1/81-1, R.s. Road, Yerramukkapalli, Kadapa, Cuddapah, Andhra Pradesh 516003",
    "phone": "Himalaya Multispeciality Hospital",
    "hours": null,
    "image_url": null
  },
  {
    "name": "Si Krishna Clinic",
    "address": "Jamal Palle Kadapa Road, Telugu Ganga Office, Telugu Ganga Colony, Cuddapah, Andhra Pradesh 516004",
    "phone": "Si Krishna Clinic",
    "hours": null,
    "image_url": "https://www.bing.com/maps/geoplat/REST/v1/Imagery/Map/RoadVibrant?ms=92,112&key=AnTcaqBi2ypp0xI-OZNi4W_ik2KhjgpqioTAtXLC8GzkMBQRMlyxvxyTnd5b73im&c=en-US&ur=in&da=n&logo=n&fmt=png&od=1&shading=hill&pp=14.446945,78.828316;dfp"
  },
  {
    "name": "Dr. N Jawahar Reddy",
    "address": "Door No. 1/441-3, Opposite GVR Towers, Near RTC Bus Stand, RS Road, Kadapa, Cuddapah, Andhra Pradesh",
    "phone": "Dr. N Jawahar Reddy",
    "hours": "Open· Closes 13:00",
    "image_url": "https://www.bing.com/maps/geoplat/REST/v1/Imagery/Map/RoadVibrant?ms=92,112&key=AnTcaqBi2ypp0xI-OZNi4W_ik2KhjgpqioTAtXLC8GzkMBQRMlyxvxyTnd5b73im&c=en-US&ur=in&da=n&logo=n&fmt=png&od=1&shading=hill&pp=14.462005,78.83065;dfp"
  },
  {
    "name": "Dr. Mohan's Diabetes Specialities Centre",
    "address": "31, 42/337 Chinna Chowk Bypass, Cuddapah, Andhra Pradesh 516002",
    "phone": "Dr. Mohan's Diabetes Specialities Centre",
    "hours": "Open· Closes 16:30",
    "image_url": null
  },
  {
    "name": "Dr. K Nagendra Prasad- Pediatrician",
    "address": "Sivayogi Children Hospital, Beside Srirama Temple, Nagaraj Pet, Kadapa, Andhra Pradesh 516001",
    "phone": "Dr. K Nagendra Prasad- Pediatrician",
    "hours": "Open· Closes 14:00",
    "image_url": null
  },
  {
    "name": "Dr. Sreedhar Reddy Diabetic And General Hospital",
    "address": "Opp. Rtc Busstand, Naidupeta, Andhra Pradesh 524126",
    "phone": "Dr. Sreedhar Reddy Diabetic And General Hospital",
    "hours": null,
    "image_url": "https://www.bing.com/maps/geoplat/REST/v1/Imagery/Map/RoadVibrant?ms=92,112&key=AnTcaqBi2ypp0xI-OZNi4W_ik2KhjgpqioTAtXLC8GzkMBQRMlyxvxyTnd5b73im&c=en-US&ur=in&da=n&logo=n&fmt=png&od=1&shading=hill&pp=14.466186,78.828804;dfp"
  },
  {
    "name": "Dr. Niranjan- Interventional Cardiologist",
    "address": "Arunachala Institute Of Medical Sciences, 2/699 &700, Nagarajupet, Murali Theatre Road, Kotireddy Circle, Ka…",
    "phone": "Dr. Niranjan- Interventional Cardiologist",
    "hours": "Open· Closes 14:00",
    "image_url": "https://www.bing.com/maps/geoplat/REST/v1/Imagery/Map/RoadVibrant?ms=92,134&key=AnTcaqBi2ypp0xI-OZNi4W_ik2KhjgpqioTAtXLC8GzkMBQRMlyxvxyTnd5b73im&c=en-US&ur=in&da=n&logo=n&fmt=png&od=1&shading=hill&pp=14.467835,78.821075;dfp"
  },
  {
    "name": "Dr. S.Asif Basha",
    "address": "21/96, Reddy's Complex, Cuddapah, Andhra Pradesh",
    "phone": "Dr. S.Asif Basha",
    "hours": "Closed· Opens 11:00",
    "image_url": "https://www.bing.com/maps/geoplat/REST/v1/Imagery/Map/RoadVibrant?ms=92,112&key=AnTcaqBi2ypp0xI-OZNi4W_ik2KhjgpqioTAtXLC8GzkMBQRMlyxvxyTnd5b73im&c=en-US&ur=in&da=n&logo=n&fmt=png&od=1&shading=hill&pp=14.47655,78.823738;dfp"
  },
  {
    "name": "Dr. S. Chandra Babu Clinic Dr. J.nagesh",
    "address": "Near Dcc Bank, 2/378, Rs Road Opposite Lic Branch Office, Maria Puram, Kadapa, Andhra Pradesh 516001",
    "phone": "Dr. S. Chandra Babu Clinic Dr. J.nagesh",
    "hours": null,
    "image_url": "https://www.bing.com/maps/geoplat/REST/v1/Imagery/Map/RoadVibrant?ms=92,112&key=AnTcaqBi2ypp0xI-OZNi4W_ik2KhjgpqioTAtXLC8GzkMBQRMlyxvxyTnd5b73im&c=en-US&ur=in&da=n&logo=n&fmt=png&od=1&shading=hill&pp=14.481345,78.796005;dfp"
  },
  {
    "name": "Sri Venkateswara Maternity and Children Clinic",
    "address": "Door No. 3, 127, Christian Lane, Ganagapeta, Kadapa, Andhra Pradesh",
    "phone": "Sri Venkateswara Maternity and Children Clinic",
    "hours": null,
    "image_url": "https://www.bing.com/maps/geoplat/REST/v1/Imagery/Map/RoadVibrant?ms=92,112&key=AnTcaqBi2ypp0xI-OZNi4W_ik2KhjgpqioTAtXLC8GzkMBQRMlyxvxyTnd5b73im&c=en-US&ur=in&da=n&logo=n&fmt=png&od=1&shading=hill&pp=14.474137,78.823357;dfp"
  },
  {
    "name": "Ashwini FirstAid Clinic",
    "address": "Boy's High School, Opposite Railway Station Rd, Anaparthi, Andhra Pradesh",
    "phone": "Ashwini FirstAid Clinic",
    "hours": null,
    "image_url": "https://www.bing.com/maps/geoplat/REST/v1/Imagery/Map/RoadVibrant?ms=92,112&key=AnTcaqBi2ypp0xI-OZNi4W_ik2KhjgpqioTAtXLC8GzkMBQRMlyxvxyTnd5b73im&c=en-US&ur=in&da=n&logo=n&fmt=png&od=1&shading=hill&pp=14.458138,78.825378;dfp"
  }
]