[
  {
    "name": "Dr. Sanjeeb Kumar Mohapatra",
    "address": "Shree Vihar Colony, Orissa",
    "phone": "Dr. Sanjeeb Kumar Mohapatra",
    "hours": "Closed· Opens 18:00",
    "image_url": "https://www.bing.com/maps/geoplat/REST/v1/Imagery/Map/RoadVibrant?ms=92,112&key=AnTcaqBi2ypp0xI-OZNi4W_ik2KhjgpqioTAtXLC8GzkMBQRMlyxvxyTnd5b73im&c=en-US&ur=in&da=n&logo=n&fmt=png&od=1&shading=hill&pp=20.485395,85.847809;dfp"
  },
  {
    "name": "Sun Hospital",
    "address": "Kanika Road, Srivihar Colony, Tulsipur, Cuttack, Odisha 753008",
    "phone": "Sun Hospital",
    "hours": null,
    "image_url": "/th?id=OLC.mkOwXHfN3H0JyA480x360&w=92&h=112&c=8&rs=1&qlt=80&cdv=1&pid=Local"
  },
  {
    "name": "Dr. Ramesh Chandra Das",
    "address": "Old Jagannath Road, Orissa",
    "phone": "Dr. Ramesh Chandra Das",
    "hours": "Closed· Opens 11:00",
    "image_url": "https://www.bing.com/maps/geoplat/REST/v1/Imagery/Map/RoadVibrant?ms=92,112&key=AnTcaqBi2ypp0xI-OZNi4W_ik2KhjgpqioTAtXLC8GzkMBQRMlyxvxyTnd5b73im&c=en-US&ur=in&da=n&logo=n&fmt=png&od=1&shading=hill&pp=20.441904,85.906197;dfp"
  },
  {
    "name": "Dr. Dinesh Kumar Moda",
    "address": "Upper Telenga Bazar, Orissa",
    "phone": "Dr. Dinesh Kumar Moda",
    "hours": "Open· Closes 11:00",
    "image_url": "/th?id=OLC.%2bOCCb49NGFHUJA480x360&w=92&h=112&c=8&rs=1&qlt=80&cdv=1&pid=Local"
  },
  {
    "name": "NK Agarwal Clinic and Hospital",
    "address": "Ward No, 23, Medical Rd, Ranihat Colony, Cuttack, Odisha 753007, India, Cuttack, Odisha 753007",
    "phone": "NK Agarwal Clinic and Hospital",
    "hours": "Open· Closes 23:00",
    "image_url": "/th?id=OLC.WVkHkSeXjo3UoQ480x360&w=92&h=134&c=8&rs=1&qlt=80&cdv=1&pid=Local"
  },
  {
    "name": "Dr. Uday Ray- General Surgeon",
    "address": "Add Hospital, Junus Patana, Jobra Rd, College Square, Cuttack 753003",
    "phone": "Dr. Uday Ray- General Surgeon",
    "hours": "Open· Closes 11:00",
    "image_url": "https://www.bing.com/maps/geoplat/REST/v1/Imagery/Map/RoadVibrant?ms=92,134&key=AnTcaqBi2ypp0xI-OZNi4W_ik2KhjgpqioTAtXLC8GzkMBQRMlyxvxyTnd5b73im&c=en-US&ur=in&da=n&logo=n&fmt=png&od=1&shading=hill&pp=20.468033,85.893021;dfp"
  },
  {
    "name": "Doctorji clinic",
    "address": "Udula Rd, Madhuvan Sahi, Podaastia, Odisha",
    "phone": "Doctorji clinic",
    "hours": null,
    "image_url": "https://www.bing.com/maps/geoplat/REST/v1/Imagery/Map/RoadVibrant?ms=92,112&key=AnTcaqBi2ypp0xI-OZNi4W_ik2KhjgpqioTAtXLC8GzkMBQRMlyxvxyTnd5b73im&c=en-US&ur=in&da=n&logo=n&fmt=png&od=1&shading=hill&pp=20.468658,85.898003;dfp"
  },
  {
    "name": "MAA Sarala Clinic",
    "address": "Cuttack Manglabag, Cuttack, Odisha, Odisha 753007",
    "phone": "MAA Sarala Clinic",
    "hours": null,
    "image_url": null
  },
  {
    "name": "Dr Pranay Kumar Patro, Neurologist",
    "address": "Siba Sambhu Medical Hall, O/o Kishore Diagnostics, Scb Medical Rd, Ranihat, Professors Colony, Odisha 753001",
    "phone": "Dr Pranay Kumar Patro, Neurologist",
    "hours": null,
    "image_url": null
  },
  {
    "name": "Dr. Sreejoy Patnaik",
    "address": "Patnaik Colony, Thoria Sahi, Orissa",
    "phone": "Dr. Sreejoy Patnaik",
    "hours": "Open· Closes 00:00",
    "image_url": null
  },
  {
    "name": "Dr R N Sahoo",
    "address": "Manorama Metro Complex, Lower, Kathogola Sahi, Mangala Bagh, in Front of Cure Well Lab, Cuttack, Odis…",
    "phone": "Dr R N Sahoo",
    "hours": null,
    "image_url": "https://www.bing.com/maps/geoplat/REST/v1/Imagery/Map/RoadVibrant?ms=92,112&key=AnTcaqBi2ypp0xI-OZNi4W_ik2KhjgpqioTAtXLC8GzkMBQRMlyxvxyTnd5b73im&c=en-US&ur=in&da=n&logo=n&fmt=png&od=1&shading=hill&pp=20.476084,85.840691;dfp"
  },
  {
    "name": "Dr Mrutyunjaya Behera Clinic",
    "address": "Mahtab Rd, Badambadi Colony, Cuttack, Odisha",
    "phone": "Dr Mrutyunjaya Behera Clinic",
    "hours": null,
    "image_url": null
  },
  {
    "name": "Dr. Sanjib Kumar Kar",
    "address": "Pareswar Sahi, Jobra, College Square, Cuttack, Odisha 753003",
    "phone": "Dr. Sanjib Kumar Kar",
    "hours": "Open· Closes 20:00",
    "image_url": null
  },
  {
    "name": "Dr. Diptiman Baliarsingh - Ent Clinic (cuttack)",
    "address": "Tarini Mandir Lane, Bajrakabati Road, Odisha, Cuttack, Cuttack 753001",
    "phone": "Dr. Diptiman Baliarsingh - Ent Clinic (cuttack)",
    "hours": "Open· Closes 16:00",
    "image_url": null
  },
  {
    "name": "Aarogyam Clinics",
    "address": "Akshaya Niwas Bajrakabati Road, Cuttack, Odisha 753001",
    "phone": "Aarogyam Clinics",
    "hours": null,
    "image_url": null
  },
  {
    "name": "Dr. Prasanna Kumar Das Clinic",
    "address": "Rajendra Nagar, Cuttack, Odisha 753010",
    "phone": "Dr. Prasanna Kumar Das Clinic",
    "hours": null,
    "image_url": null
  },
  {
    "name": "Dr Alok Kumar Mohapatra - Nephrologist  | Rukmini Health Care",
    "address": "Biz hub, First Floor Infront of Kalupada Seka, SCB Medical Rd, Ranihat, Cuttack, Odisha",
    "phone": "Dr Alok Kumar Mohapatra - Nephrologist  | Rukmini Health Care",
    "hours": null,
    "image_url": "https://www.bing.com/maps/geoplat/REST/v1/Imagery/Map/RoadVibrant?ms=92,112&key=AnTcaqBi2ypp0xI-OZNi4W_ik2KhjgpqioTAtXLC8GzkMBQRMlyxvxyTnd5b73im&c=en-US&ur=in&da=n&logo=n&fmt=png&od=1&shading=hill&pp=20.472723,85.894249;dfp"
  },
  {
    "name": "Dr. Parthasarathi Das, Knee and Shoulder",
    "address": "Kathagola Road, Maachhua Bazar, Cuttack, Odisha 753007",
    "phone": "Dr. Parthasarathi Das, Knee and Shoulder",
    "hours": null,
    "image_url": "https://www.bing.com/maps/geoplat/REST/v1/Imagery/Map/RoadVibrant?ms=92,112&key=AnTcaqBi2ypp0xI-OZNi4W_ik2KhjgpqioTAtXLC8GzkMBQRMlyxvxyTnd5b73im&c=en-US&ur=in&da=n&logo=n&fmt=png&od=1&shading=hill&pp=20.474396,85.887764;dfp"
  }
]