[
  {
    "name": "Dr Harvadan Vaidya Clinic",
    "address": "Dadra Nagar Haveli School, Amli Industrial Estate, Silvassa 396230",
    "phone": "Dr Harvadan Vaidya Clinic",
    "hours": null,
    "image_url": "https://www.bing.com/maps/geoplat/REST/v1/Imagery/Map/RoadVibrant?ms=92,112&key=AnTcaqBi2ypp0xI-OZNi4W_ik2KhjgpqioTAtXLC8GzkMBQRMlyxvxyTnd5b73im&c=en-US&ur=in&da=n&logo=n&fmt=png&od=1&shading=hill&pp=20.275688,73.004951;dfp"
  },
  {
    "name": "Dr. Satish Shah",
    "address": "Shraddha Buiding 1st Floor, Dadra and Nagar Haveli",
    "phone": "Dr. Satish Shah",
    "hours": "Closed· Opens Thu 15:30",
    "image_url": "/th?id=OLC.sQ%2b6uc6kvQ6ClA480x360&w=92&h=112&c=8&rs=1&qlt=80&cdv=1&pid=Local"
  },
  {
    "name": "Shraddha Clinic",
    "address": "1st Floor, Gokul Vihar, Tokarkhada, Silvassa, Dadra And Nagar Haveli",
    "phone": "Shraddha Clinic",
    "hours": "Open· Closes 11:30",
    "image_url": "/th?id=OLC.YDtJQbnFX2Qm1Q480x360&w=92&h=134&c=8&rs=1&qlt=80&cdv=1&pid=Local"
  },
  {
    "name": "Dr. Ronit Tanwar (pt)",
    "address": "1092/1. Landmark: Near Ambata Complex, Dadra and Nagar Haveli",
    "phone": "Dr. Ronit Tanwar (pt)",
    "hours": "Open· Closes 14:00",
    "image_url": "https://www.bing.com/maps/geoplat/REST/v1/Imagery/Map/RoadVibrant?ms=92,112&key=AnTcaqBi2ypp0xI-OZNi4W_ik2KhjgpqioTAtXLC8GzkMBQRMlyxvxyTnd5b73im&c=en-US&ur=in&da=n&logo=n&fmt=png&od=1&shading=hill&pp=20.273872,73.00415;dfp"
  },
  {
    "name": "Shri Gangeshwar Clinic",
    "address": "Shop NO 1 Opposite Primary School, Samarvarni 2, Silvassa 396230",
    "phone": "Shri Gangeshwar Clinic",
    "hours": null,
    "image_url": "https://www.bing.com/maps/geoplat/REST/v1/Imagery/Map/RoadVibrant?ms=92,112&key=AnTcaqBi2ypp0xI-OZNi4W_ik2KhjgpqioTAtXLC8GzkMBQRMlyxvxyTnd5b73im&c=en-US&ur=in&da=n&logo=n&fmt=png&od=1&shading=hill&pp=20.271677,73.002373;dfp"
  },
  {
    "name": "Aura homoeopathy clinic",
    "address": "130, Landmark, Tokarkhada, Silvassa, Dadra And Nagar Haveli",
    "phone": "Aura homoeopathy clinic",
    "hours": "Open· Closes 20:00",
    "image_url": "/th?id=OLC.0LfKlXDjwHGm2Q480x360&w=92&h=134&c=8&rs=1&qlt=80&cdv=1&pid=Local"
  },
  {
    "name": "Shri Jivdani Homeopathic Clinic",
    "address": "Shop No 4, First Floor M R Complex Kilva…, Silvassa, Dadra And Nagar Haveli",
    "phone": "Shri Jivdani Homeopathic Clinic",
    "hours": "Closed· Opens 17:30",
    "image_url": null
  },
  {
    "name": "Dr. Chintan Bhavsar- Dermatologist in Silvassa",
    "address": "Khushi Clinic, Shop 111, Horizon Tower, Kilwani Naka, Silvassa 396230",
    "phone": "Dr. Chintan Bhavsar- Dermatologist in Silvassa",
    "hours": "Opens in 14 mins",
    "image_url": "https://www.bing.com/maps/geoplat/REST/v1/Imagery/Map/RoadVibrant?ms=92,134&key=AnTcaqBi2ypp0xI-OZNi4W_ik2KhjgpqioTAtXLC8GzkMBQRMlyxvxyTnd5b73im&c=en-US&ur=in&da=n&logo=n&fmt=png&od=1&shading=hill&pp=20.276281,73.007561;dfp"
  },
  {
    "name": "City Heart Hospital",
    "address": "Shraddha 2/3rd Floor, Near Hdfc Bank, Silvassa - Vapi Road, Silvassa, Dadra And Nagar Haveli 396230",
    "phone": "City Heart Hospital",
    "hours": "Open 24 hours",
    "image_url": null
  },
  {
    "name": "Rohini Clinic",
    "address": "Gujarat Sh185, Amli Industrial Estate, Silvassa 396230",
    "phone": "Rohini Clinic",
    "hours": null,
    "image_url": "https://www.bing.com/maps/geoplat/REST/v1/Imagery/Map/RoadVibrant?ms=92,112&key=AnTcaqBi2ypp0xI-OZNi4W_ik2KhjgpqioTAtXLC8GzkMBQRMlyxvxyTnd5b73im&c=en-US&ur=in&da=n&logo=n&fmt=png&od=1&shading=hill&pp=20.276587,73.002411;dfp"
  },
  {
    "name": "Seva Clinic & Hijama Cupping Center",
    "address": "16, Rabka Shopping Center, Kilvani Road, , Silvassa, Dadra and Nagar Haveli",
    "phone": "Seva Clinic & Hijama Cupping Center",
    "hours": null,
    "image_url": "https://www.bing.com/maps/geoplat/REST/v1/Imagery/Map/RoadVibrant?ms=92,112&key=AnTcaqBi2ypp0xI-OZNi4W_ik2KhjgpqioTAtXLC8GzkMBQRMlyxvxyTnd5b73im&c=en-US&ur=in&da=n&logo=n&fmt=png&od=1&shading=hill&pp=20.282421,73.00988;dfp"
  },
  {
    "name": "Dr yograj parmar Physiotherapist",
    "address": "City Heart Hospital, Silvassa - Vapi Rd, Beside Hdfc Bank, Amli Ind. Estate, Silvassa",
    "phone": "Dr yograj parmar Physiotherapist",
    "hours": null,
    "image_url": "https://www.bing.com/maps/geoplat/REST/v1/Imagery/Map/RoadVibrant?ms=92,112&key=AnTcaqBi2ypp0xI-OZNi4W_ik2KhjgpqioTAtXLC8GzkMBQRMlyxvxyTnd5b73im&c=en-US&ur=in&da=n&logo=n&fmt=png&od=1&shading=hill&pp=20.277924,73.001678;dfp"
  },
  {
    "name": "Om Clinic",
    "address": "Goverment School Dokmardi, Amli, Silvassa 396230",
    "phone": "Om Clinic",
    "hours": null,
    "image_url": "https://www.bing.com/maps/geoplat/REST/v1/Imagery/Map/RoadVibrant?ms=92,112&key=AnTcaqBi2ypp0xI-OZNi4W_ik2KhjgpqioTAtXLC8GzkMBQRMlyxvxyTnd5b73im&c=en-US&ur=in&da=n&logo=n&fmt=png&od=1&shading=hill&pp=20.287483,73.012825;dfp"
  },
  {
    "name": "Vinayak Dental Clinic",
    "address": "Sanjibhai Delkar Marg, Silvassa, Dadra Et Nagar Haveli, Inde",
    "phone": "Vinayak Dental Clinic",
    "hours": "Open· Closes 20:00",
    "image_url": null
  },
  {
    "name": "Urmil Skin Clinic Silvassa",
    "address": "First Floor, Shradha Complex, Near Bus Stop, Tokarkhada, Silvassa, Dadra and Nagar Haveli",
    "phone": "Urmil Skin Clinic Silvassa",
    "hours": null,
    "image_url": "https://www.bing.com/maps/geoplat/REST/v1/Imagery/Map/RoadVibrant?ms=92,112&key=AnTcaqBi2ypp0xI-OZNi4W_ik2KhjgpqioTAtXLC8GzkMBQRMlyxvxyTnd5b73im&c=en-US&ur=in&da=n&logo=n&fmt=png&od=1&shading=hill&pp=20.277973,73.005745;dfp"
  },
  {
    "name": "Dr. Iliza Jadhav",
    "address": "104, 1st Floor, Sam Super Market, Kilvani Naka, Dadra and Nagar Haveli",
    "phone": "Dr. Iliza Jadhav",
    "hours": "Open· Closes 13:00",
    "image_url": "https://www.bing.com/maps/geoplat/REST/v1/Imagery/Map/RoadVibrant?ms=92,112&key=AnTcaqBi2ypp0xI-OZNi4W_ik2KhjgpqioTAtXLC8GzkMBQRMlyxvxyTnd5b73im&c=en-US&ur=in&da=n&logo=n&fmt=png&od=1&shading=hill&pp=20.27347,73.008102;dfp"
  },
  {
    "name": "Dr. Hitesh S. Panchal",
    "address": "A-1/2, Tirumala Appt.Landmark: Opp. Ghantawala Pan Bhandar, Landmark, Surat 395009",
    "phone": "Dr. Hitesh S. Panchal",
    "hours": "Open· Closes 13:00",
    "image_url": "https://www.bing.com/maps/geoplat/REST/v1/Imagery/Map/RoadVibrant?ms=92,134&key=AnTcaqBi2ypp0xI-OZNi4W_ik2KhjgpqioTAtXLC8GzkMBQRMlyxvxyTnd5b73im&c=en-US&ur=in&da=n&logo=n&fmt=png&od=1&shading=hill&pp=20.273872,73.00415;dfp"
  },
  {
    "name": "Pramukh Investment",
    "address": "The Ratnakar Bank Limited Atm, Samarvarni, Silvassa 396230",
    "phone": "Pramukh Investment",
    "hours": null,
    "image_url": "https://www.bing.com/maps/geoplat/REST/v1/Imagery/Map/RoadVibrant?ms=92,112&key=AnTcaqBi2ypp0xI-OZNi4W_ik2KhjgpqioTAtXLC8GzkMBQRMlyxvxyTnd5b73im&c=en-US&ur=in&da=n&logo=n&fmt=png&od=1&shading=hill&pp=20.26996,73.007446;dfp"
  }
]