[
  {
    "name": "Dr. Dhilawala Munira Shabbir",
    "address": "7, Aman Complex, Dahod 389151",
    "phone": "Dr. Dhilawala Munira Shabbir",
    "hours": null,
    "image_url": "https://www.bing.com/maps/geoplat/REST/v1/Imagery/Map/RoadVibrant?ms=92,112&key=AnTcaqBi2ypp0xI-OZNi4W_ik2KhjgpqioTAtXLC8GzkMBQRMlyxvxyTnd5b73im&c=en-US&ur=in&da=n&logo=n&fmt=png&od=1&shading=hill&pp=22.842932,74.251205;dfp"
  },
  {
    "name": "Dr Hitendra Healthcare Clinic",
    "address": "Opp. Urban Bank, Chakaliya Road, (Gidc Road), Godi Road, Dahod, Gujarat 389151",
    "phone": "Dr Hitendra Healthcare Clinic",
    "hours": "Open· Closes 21:00",
    "image_url": "https://www.bing.com/maps/geoplat/REST/v1/Imagery/Map/RoadVibrant?ms=92,134&key=AnTcaqBi2ypp0xI-OZNi4W_ik2KhjgpqioTAtXLC8GzkMBQRMlyxvxyTnd5b73im&c=en-US&ur=in&da=n&logo=n&fmt=png&od=1&shading=hill&pp=22.854237,74.25238;dfp"
  },
  {
    "name": "Kedarnath Clinic",
    "address": "Retia.Kharod, Dahod, Gujarat, Gujarat 389151",
    "phone": "Kedarnath Clinic",
    "hours": null,
    "image_url": "/th?id=OLC.Y34brMk2Ml5Jxw480x360&w=92&h=112&c=8&rs=1&qlt=80&cdv=1&pid=Local"
  },
  {
    "name": "Dr Pankaj Jain",
    "address": "Darpan Cinema Road, Swastik Society, Dahod, Gujarat 389151",
    "phone": "Dr Pankaj Jain",
    "hours": null,
    "image_url": "https://www.bing.com/maps/geoplat/REST/v1/Imagery/Map/RoadVibrant?ms=92,112&key=AnTcaqBi2ypp0xI-OZNi4W_ik2KhjgpqioTAtXLC8GzkMBQRMlyxvxyTnd5b73im&c=en-US&ur=in&da=n&logo=n&fmt=png&od=1&shading=hill&pp=22.841545,74.250557;dfp"
  },
  {
    "name": "Dr Jadhav's Homoeopathic Clinic",
    "address": "13, 2, nd, Floor, B. A. Marathe Complex, Station Road, Pachora 424201",
    "phone": "Dr Jadhav's Homoeopathic Clinic",
    "hours": null,
    "image_url": "/th?id=OLC.NZfA1d56coZDxg480x360&w=92&h=112&c=8&rs=1&qlt=80&cdv=1&pid=Local"
  },
  {
    "name": "DrRanjitsinh Nayak",
    "address": "17..Amrapali Soscity, Govind Nagar, Dahod, Gujarat 389151",
    "phone": "DrRanjitsinh Nayak",
    "hours": null,
    "image_url": "/th?id=OLC.jKg7IJ%2fCMr6N%2bg480x360&w=92&h=112&c=8&rs=1&qlt=80&cdv=1&pid=Local"
  },
  {
    "name": "Jyati Clinic",
    "address": "Bordi Road, Mandav Circle, Agrawal Society Govind Nagar, Dahod, Gujarat 389151",
    "phone": "Jyati Clinic",
    "hours": null,
    "image_url": "https://www.bing.com/maps/geoplat/REST/v1/Imagery/Map/RoadVibrant?ms=92,112&key=AnTcaqBi2ypp0xI-OZNi4W_ik2KhjgpqioTAtXLC8GzkMBQRMlyxvxyTnd5b73im&c=en-US&ur=in&da=n&logo=n&fmt=png&od=1&shading=hill&pp=22.832996,74.26548;dfp"
  },
  {
    "name": "Dr. Y M Bharpoda Hospital",
    "address": "Bharwad Slums, Dahod, Gujarat 389151, India, Dahod, Gujarat 389151",
    "phone": "Dr. Y M Bharpoda Hospital",
    "hours": null,
    "image_url": null
  },
  {
    "name": "Kulkarni Dr Jyoti Prakash",
    "address": "G-2, Shalimar Sco, Bh Surya Place, Gujarat 390005",
    "phone": "Kulkarni Dr Jyoti Prakash",
    "hours": null,
    "image_url": "https://www.bing.com/maps/geoplat/REST/v1/Imagery/Map/RoadVibrant?ms=92,112&key=AnTcaqBi2ypp0xI-OZNi4W_ik2KhjgpqioTAtXLC8GzkMBQRMlyxvxyTnd5b73im&c=en-US&ur=in&da=n&logo=n&fmt=png&od=1&shading=hill&pp=22.832052,74.257828;dfp"
  },
  {
    "name": "Shivam Clinic",
    "address": "Bordi Road, Shital Society Govind Nagar, Dahod, Gujarat 389151",
    "phone": "Shivam Clinic",
    "hours": null,
    "image_url": "https://www.bing.com/maps/geoplat/REST/v1/Imagery/Map/RoadVibrant?ms=92,112&key=AnTcaqBi2ypp0xI-OZNi4W_ik2KhjgpqioTAtXLC8GzkMBQRMlyxvxyTnd5b73im&c=en-US&ur=in&da=n&logo=n&fmt=png&od=1&shading=hill&pp=22.83407,74.266579;dfp"
  },
  {
    "name": "Madhav Clinic",
    "address": "Godi Road, Gidc Chowk, Ram Nagar Society, Dahod, Gujarat 389151",
    "phone": "Madhav Clinic",
    "hours": null,
    "image_url": "https://www.bing.com/maps/geoplat/REST/v1/Imagery/Map/RoadVibrant?ms=92,112&key=AnTcaqBi2ypp0xI-OZNi4W_ik2KhjgpqioTAtXLC8GzkMBQRMlyxvxyTnd5b73im&c=en-US&ur=in&da=n&logo=n&fmt=png&od=1&shading=hill&pp=22.845085,74.262222;dfp"
  },
  {
    "name": "Charak Clinic",
    "address": "R7m7+p5m, Mandav Road, Opp. Jalaram Mandir, Dahod, Gujarat 389151",
    "phone": "Charak Clinic",
    "hours": null,
    "image_url": "https://www.bing.com/maps/geoplat/REST/v1/Imagery/Map/RoadVibrant?ms=92,112&key=AnTcaqBi2ypp0xI-OZNi4W_ik2KhjgpqioTAtXLC8GzkMBQRMlyxvxyTnd5b73im&c=en-US&ur=in&da=n&logo=n&fmt=png&od=1&shading=hill&pp=22.836315,74.269745;dfp"
  },
  {
    "name": "Satyanam Ayurvedic Panchkarma Hospital",
    "address": "Godi Road, Ramnagar Society, Dahod, Gujarat, Gujarat 389151",
    "phone": "Satyanam Ayurvedic Panchkarma Hospital",
    "hours": "Open· Closes 13:00",
    "image_url": null
  },
  {
    "name": "Aditi Eye Hospital",
    "address": "Railway Station Road, Dahod, Gujarat 389151",
    "phone": "Aditi Eye Hospital",
    "hours": null,
    "image_url": null
  },
  {
    "name": "Dr. Komal Thakkar",
    "address": "72-1, Sidhdhanath Road, Opp. Gokul Bhuvan, Dwarka, Gujarat",
    "phone": "Dr. Komal Thakkar",
    "hours": "Opens in 14 mins",
    "image_url": "https://www.bing.com/maps/geoplat/REST/v1/Imagery/Map/RoadVibrant?ms=92,134&key=AnTcaqBi2ypp0xI-OZNi4W_ik2KhjgpqioTAtXLC8GzkMBQRMlyxvxyTnd5b73im&c=en-US&ur=in&da=n&logo=n&fmt=png&od=1&shading=hill&pp=22.840351,74.252846;dfp"
  },
  {
    "name": "Dr.salim Shaikh Sarvoday Children Hospital",
    "address": "Near Bhagini Samaj, Wanzawad, Govindnagar, Dahod, Gujarat 389151, India, Dahod, Gujarat 389151",
    "phone": "Dr.salim Shaikh Sarvoday Children Hospital",
    "hours": null,
    "image_url": "https://www.bing.com/maps/geoplat/REST/v1/Imagery/Map/RoadVibrant?ms=92,112&key=AnTcaqBi2ypp0xI-OZNi4W_ik2KhjgpqioTAtXLC8GzkMBQRMlyxvxyTnd5b73im&c=en-US&ur=in&da=n&logo=n&fmt=png&od=1&shading=hill&pp=22.832802,74.254967;dfp"
  },
  {
    "name": "NephroPlus Dialysis & Kidney Care Centre",
    "address": "Urban Hospital, Near Raliyati Road, Kumbharwad, Lakshmi Nagar, Dahod, Gujarat",
    "phone": "NephroPlus Dialysis & Kidney Care Centre",
    "hours": null,
    "image_url": "https://www.bing.com/maps/geoplat/REST/v1/Imagery/Map/RoadVibrant?ms=92,112&key=AnTcaqBi2ypp0xI-OZNi4W_ik2KhjgpqioTAtXLC8GzkMBQRMlyxvxyTnd5b73im&c=en-US&ur=in&da=n&logo=n&fmt=png&od=1&shading=hill&pp=22.841368,74.251999;dfp"
  },
  {
    "name": "Dahod Mri and Ct Scan Centre",
    "address": "Station Road, Dahod, Gujarat 389151",
    "phone": "Dahod Mri and Ct Scan Centre",
    "hours": null,
    "image_url": null
  }
]