[
  {
    "name": "Dr. Shantaram- General Physician In Mangalore",
    "address": "Dr. Kamath Shantaram M Jeepu Clinic, Mangalore, Karnataka 575002",
    "phone": "Dr. Shantaram- General Physician In Mangalore",
    "hours": "Open· Closes 13:00",
    "image_url": "https://www.bing.com/maps/geoplat/REST/v1/Imagery/Map/RoadVibrant?ms=92,134&key=AnTcaqBi2ypp0xI-OZNi4W_ik2KhjgpqioTAtXLC8GzkMBQRMlyxvxyTnd5b73im&c=en-US&ur=in&da=n&logo=n&fmt=png&od=1&shading=hill&pp=12.881066,74.817444;dfp"
  },
  {
    "name": "Dr G K Usha Bhat",
    "address": "Alfa Centre, Mangalore, Karnataka 575002",
    "phone": "Dr G K Usha Bhat",
    "hours": null,
    "image_url": "https://www.bing.com/maps/geoplat/REST/v1/Imagery/Map/RoadVibrant?ms=92,112&key=AnTcaqBi2ypp0xI-OZNi4W_ik2KhjgpqioTAtXLC8GzkMBQRMlyxvxyTnd5b73im&c=en-US&ur=in&da=n&logo=n&fmt=png&od=1&shading=hill&pp=12.869478,74.858803;dfp"
  },
  {
    "name": "Dr. Dhanesh Kumar (pt)",
    "address": "Vinaya Hospital & Research Centre in Karangalapady, Mangalore",
    "phone": "Dr. Dhanesh Kumar (pt)",
    "hours": "Closed· Opens 17:00",
    "image_url": "https://www.bing.com/maps/geoplat/REST/v1/Imagery/Map/RoadVibrant?ms=92,112&key=AnTcaqBi2ypp0xI-OZNi4W_ik2KhjgpqioTAtXLC8GzkMBQRMlyxvxyTnd5b73im&c=en-US&ur=in&da=n&logo=n&fmt=png&od=1&shading=hill&pp=12.883036,74.872108;dfp"
  },
  {
    "name": "Swathi Clinic Dr Ashok",
    "address": "Unnamed Road, Kaikamba, Karnataka",
    "phone": "Swathi Clinic Dr Ashok",
    "hours": null,
    "image_url": "https://www.bing.com/maps/geoplat/REST/v1/Imagery/Map/RoadVibrant?ms=92,112&key=AnTcaqBi2ypp0xI-OZNi4W_ik2KhjgpqioTAtXLC8GzkMBQRMlyxvxyTnd5b73im&c=en-US&ur=in&da=n&logo=n&fmt=png&od=1&shading=hill&pp=12.889494,74.883293;dfp"
  },
  {
    "name": "Shetty Sudhakar Dr M Clinic",
    "address": "Bunts Hostel Road, Mangaluru, Karnataka 575003",
    "phone": "Shetty Sudhakar Dr M Clinic",
    "hours": null,
    "image_url": "https://www.bing.com/maps/geoplat/REST/v1/Imagery/Map/RoadVibrant?ms=92,112&key=AnTcaqBi2ypp0xI-OZNi4W_ik2KhjgpqioTAtXLC8GzkMBQRMlyxvxyTnd5b73im&c=en-US&ur=in&da=n&logo=n&fmt=png&od=1&shading=hill&pp=12.873494,74.848701;dfp"
  },
  {
    "name": "Dr.pradeep Kumar Shenoy Chandrasekhara",
    "address": "B 2, KMC Staff Quarters (RNE Staff Quarters), Light House Hill Road, Mangalore 575001",
    "phone": "Dr.pradeep Kumar Shenoy Chandrasekhara",
    "hours": "Opens in 14 mins",
    "image_url": "/th?id=OLC.j5zpoW9wrRhSpw480x360&w=92&h=134&c=8&rs=1&qlt=80&cdv=1&pid=Local"
  },
  {
    "name": "Dr. Karthik M S. - Dhanvantari Clinic",
    "address": "Vasantha Arcade, Behind Ksrtc Bus Stand, Bellare, Sullia, Karnataka",
    "phone": "Dr. Karthik M S. - Dhanvantari Clinic",
    "hours": null,
    "image_url": "https://www.bing.com/maps/geoplat/REST/v1/Imagery/Map/RoadVibrant?ms=92,112&key=AnTcaqBi2ypp0xI-OZNi4W_ik2KhjgpqioTAtXLC8GzkMBQRMlyxvxyTnd5b73im&c=en-US&ur=in&da=n&logo=n&fmt=png&od=1&shading=hill&pp=12.665523,75.368698;dfp"
  },
  {
    "name": "Dr. Siddharth Mulki",
    "address": "Doctors Lounge Polyclinic, Ramarathna Complex, Opposite Alahabad Bank, Pandeshwar, Karnataka 575…",
    "phone": "Dr. Siddharth Mulki",
    "hours": "Closed· Opens 13:00",
    "image_url": null
  },
  {
    "name": "Dr. Raghavendra Naik",
    "address": "Medical Chamber, Kudumbi Garden Road, Near KNK Groups Building Construction, Hampankatta, Mangalur…",
    "phone": "Dr. Raghavendra Naik",
    "hours": null,
    "image_url": "https://www.bing.com/maps/geoplat/REST/v1/Imagery/Map/RoadVibrant?ms=92,112&key=AnTcaqBi2ypp0xI-OZNi4W_ik2KhjgpqioTAtXLC8GzkMBQRMlyxvxyTnd5b73im&c=en-US&ur=in&da=n&logo=n&fmt=png&od=1&shading=hill&pp=12.869933,74.847626;dfp"
  },
  {
    "name": "Dr B Ramdas Rai's Clinic",
    "address": "Nethravathy Building, Balmaata, Mangalore, Karnataka 575001",
    "phone": "Dr B Ramdas Rai's Clinic",
    "hours": null,
    "image_url": "https://www.bing.com/maps/geoplat/REST/v1/Imagery/Map/RoadVibrant?ms=92,112&key=AnTcaqBi2ypp0xI-OZNi4W_ik2KhjgpqioTAtXLC8GzkMBQRMlyxvxyTnd5b73im&c=en-US&ur=in&da=n&logo=n&fmt=png&od=1&shading=hill&pp=12.871447,74.845596;dfp"
  },
  {
    "name": "Dr Muralidhara Yadiyal B.chethana Clinic",
    "address": "Sim Centre, First, Krr Road, Next To Sbi, Mallikatte, Kadri, Karnataka 575002",
    "phone": "Dr Muralidhara Yadiyal B.chethana Clinic",
    "hours": null,
    "image_url": null
  },
  {
    "name": "Ashwini Multispeciality Clinic",
    "address": "NH73, Ujire, Karnataka",
    "phone": "Ashwini Multispeciality Clinic",
    "hours": null,
    "image_url": "https://www.bing.com/maps/geoplat/REST/v1/Imagery/Map/RoadVibrant?ms=92,112&key=AnTcaqBi2ypp0xI-OZNi4W_ik2KhjgpqioTAtXLC8GzkMBQRMlyxvxyTnd5b73im&c=en-US&ur=in&da=n&logo=n&fmt=png&od=1&shading=hill&pp=12.995917,75.327866;dfp"
  },
  {
    "name": "Vasudeva Clinic",
    "address": "Kavoor Road, Near Shree Ramajenaya Complex, Gandhi Nagar, Kavoor, Mangaluru, Karnataka 575015",
    "phone": "Vasudeva Clinic",
    "hours": null,
    "image_url": "https://www.bing.com/maps/geoplat/REST/v1/Imagery/Map/RoadVibrant?ms=92,112&key=AnTcaqBi2ypp0xI-OZNi4W_ik2KhjgpqioTAtXLC8GzkMBQRMlyxvxyTnd5b73im&c=en-US&ur=in&da=n&logo=n&fmt=png&od=1&shading=hill&pp=12.926192,74.852791;dfp"
  },
  {
    "name": "Krishna Ayurveda Hospital",
    "address": "Suvipra Compound, Near Junior College, Sullia, Mangaluru, Karnataka 574239",
    "phone": "Krishna Ayurveda Hospital",
    "hours": null,
    "image_url": null
  },
  {
    "name": "Dr. Karthik. K S",
    "address": "Maithri Clinic, Bendoorwell, Mangalore, Karnataka 575002",
    "phone": "Dr. Karthik. K S",
    "hours": null,
    "image_url": null
  },
  {
    "name": "Suraksha Clinic",
    "address": "Bc Road, Farangipete Railway Station, Farangipete, Buntwal, Karnataka 574143",
    "phone": "Suraksha Clinic",
    "hours": null,
    "image_url": null
  },
  {
    "name": "Dr. Prasanna Kumar K, Homeopathic Clinic",
    "address": "Room No 105, First Floor, N J Lotus Avenue Near, Bunts Hostel Rd, opp. CV Nayak Hall, Circle, Mangaluru, Kar…",
    "phone": "Dr. Prasanna Kumar K, Homeopathic Clinic",
    "hours": null,
    "image_url": "https://www.bing.com/maps/geoplat/REST/v1/Imagery/Map/RoadVibrant?ms=92,112&key=AnTcaqBi2ypp0xI-OZNi4W_ik2KhjgpqioTAtXLC8GzkMBQRMlyxvxyTnd5b73im&c=en-US&ur=in&da=n&logo=n&fmt=png&od=1&shading=hill&pp=12.877315,74.849884;clcp"
  },
  {
    "name": "Dr Vinay Kumar Rajendra, Oncologist, Mangalore",
    "address": "Special Clinic, KS Hegde Charitable Hospital, Mangaluru, Karnataka 575018",
    "phone": "Dr Vinay Kumar Rajendra, Oncologist, Mangalore",
    "hours": "Open· Closes 17:00",
    "image_url": null
  }
]