[
  {
    "name": "Shree Sai Clinic Kachigam Daman",
    "address": "Kachigam, Daman, Gujarat, Gujarat 396210",
    "phone": "Shree Sai Clinic Kachigam Daman",
    "hours": null,
    "image_url": "/th?id=OLC.PbogQdpZEamLjQ480x360&w=92&h=112&c=8&rs=1&qlt=80&cdv=1&pid=Local"
  },
  {
    "name": "Shree sai clinic",
    "address": "Zari Causeway Rd, Kachigam, Daman and Diu",
    "phone": "Shree sai clinic",
    "hours": null,
    "image_url": "https://www.bing.com/maps/geoplat/REST/v1/Imagery/Map/RoadVibrant?ms=92,112&key=AnTcaqBi2ypp0xI-OZNi4W_ik2KhjgpqioTAtXLC8GzkMBQRMlyxvxyTnd5b73im&c=en-US&ur=in&da=n&logo=n&fmt=png&od=1&shading=hill&pp=20.383215,72.883324;dfp"
  },
  {
    "name": "Shivam Clinic",
    "address": "Daman - Kunta Rd, Sai Kripa Society-1, Nani, Dunetha, Daman",
    "phone": "Shivam Clinic",
    "hours": null,
    "image_url": "https://www.bing.com/maps/geoplat/REST/v1/Imagery/Map/RoadVibrant?ms=92,112&key=AnTcaqBi2ypp0xI-OZNi4W_ik2KhjgpqioTAtXLC8GzkMBQRMlyxvxyTnd5b73im&c=en-US&ur=in&da=n&logo=n&fmt=png&od=1&shading=hill&pp=20.41358,72.839302;dfp"
  },
  {
    "name": "Dr. Samkit Shah",
    "address": "Panchamrut Building, Daman Road, Vapi, Gujarat",
    "phone": "Dr. Samkit Shah",
    "hours": null,
    "image_url": "/th?id=OLC.dujkhGratrwkbQ480x360&w=92&h=112&c=8&rs=1&qlt=80&cdv=1&pid=Local"
  },
  {
    "name": "Shri Maruti Clinic",
    "address": "Daman Road, Idbi Bank, Dabhel, Vapi, Gujarat 396191",
    "phone": "Shri Maruti Clinic",
    "hours": null,
    "image_url": "/th?id=OLC.hWu1sFKM9WVF4A480x360&w=92&h=112&c=8&rs=1&qlt=80&cdv=1&pid=Local"
  },
  {
    "name": "Dr Ramdas Ashwini Hospital",
    "address": "Dilip Nagar Road, Daman",
    "phone": "Dr Ramdas Ashwini Hospital",
    "hours": null,
    "image_url": "https://www.bing.com/maps/geoplat/REST/v1/Imagery/Map/RoadVibrant?ms=92,112&key=AnTcaqBi2ypp0xI-OZNi4W_ik2KhjgpqioTAtXLC8GzkMBQRMlyxvxyTnd5b73im&c=en-US&ur=in&da=n&logo=n&fmt=png&od=1&shading=hill&pp=20.420221,72.835968;dfp"
  },
  {
    "name": "Dr. Ajay Patil- Homeopath",
    "address": "Healing Touch Clinic, Vardhaman Apartment, Opp. Parmukh S S, Muktanans Marg, Chala, Vapi, Gujarat 3…",
    "phone": "Dr. Ajay Patil- Homeopath",
    "hours": "Closed· Opens 17:00",
    "image_url": "https://www.bing.com/maps/geoplat/REST/v1/Imagery/Map/RoadVibrant?ms=92,134&key=AnTcaqBi2ypp0xI-OZNi4W_ik2KhjgpqioTAtXLC8GzkMBQRMlyxvxyTnd5b73im&c=en-US&ur=in&da=n&logo=n&fmt=png&od=1&shading=hill&pp=20.392071,72.901009;dfp"
  },
  {
    "name": "Mahavir Naturopathy Spine Clinic",
    "address": "2-207 Daman Road, Vapi, Gujarat 396191",
    "phone": "Mahavir Naturopathy Spine Clinic",
    "hours": "Open· Closes 12:30",
    "image_url": null
  },
  {
    "name": "Sandhya Clinic",
    "address": "Shop NO.104, DIA Mante Shopping Centre, OPP V2 Signature, Daman Chala Road, Vapi-396191, Vapi, Guj…",
    "phone": "Sandhya Clinic",
    "hours": null,
    "image_url": null
  },
  {
    "name": "Gitanjali Homeopathic Clinic",
    "address": "Tirupati Plaza, 147, Vapi - Daman Rd, Opposite St Thomas English Medium School, Near Laxmi Vilas Ban…",
    "phone": "Gitanjali Homeopathic Clinic",
    "hours": "Opens in 14 mins",
    "image_url": null
  },
  {
    "name": "Dr. Samkit Shah",
    "address": "Madhu Apartment, Charwada Road, Vapi Industrial Estate, Vapi, Gujarat",
    "phone": "Dr. Samkit Shah",
    "hours": null,
    "image_url": null
  },
  {
    "name": "SOUTH GUJARAT SPINE CARE - Dr.Ankit Desai",
    "address": "Haria L. G Rotatry Hospotal, Vapi, Gujarat",
    "phone": "SOUTH GUJARAT SPINE CARE - Dr.Ankit Desai",
    "hours": null,
    "image_url": null
  },
  {
    "name": "Navjeevan heart & women's hospital GIDC Ankleshwar",
    "address": "Near Horizon Hotel, Central Excise Road, Gst Bhavan, Gidc Ankleshwsar, Ankleshwar, Gujarat, Gujarat 393002",
    "phone": "Navjeevan heart & women's hospital GIDC Ankleshwar",
    "hours": null,
    "image_url": null
  },
  {
    "name": "URMIL SKIN CLINIC- Best Skin Specialist  | Best Botox Filler Doctor | Best Hairloss Doctor",
    "address": "Gunjan Road, Gidc Madhu Apartment, Raymond Circle, Chharawada Road, Vapi, Gujarat 396145",
    "phone": "URMIL SKIN CLINIC- Best Skin Specialist  | Best Botox Filler Doctor | Best Hairloss Doctor",
    "hours": "Opens in 14 mins",
    "image_url": null
  },
  {
    "name": "Dr. Pallavi Kadam",
    "address": "Shop Number 1, House Number 222/2-10, Sadak Falia, Amaliya, Vapi-Daman Road, Daman, Daman and Diu",
    "phone": "Dr. Pallavi Kadam",
    "hours": "Open· Closes 13:00",
    "image_url": null
  },
  {
    "name": "Dr. Hiral Savani",
    "address": "106, 107 Pancharatna Co-Operative Housing Society, Daman Road, Chala, Vapi, Gujarat",
    "phone": "Dr. Hiral Savani",
    "hours": "Closed· Opens Thu 16:00",
    "image_url": "https://www.bing.com/maps/geoplat/REST/v1/Imagery/Map/RoadVibrant?ms=92,112&key=AnTcaqBi2ypp0xI-OZNi4W_ik2KhjgpqioTAtXLC8GzkMBQRMlyxvxyTnd5b73im&c=en-US&ur=in&da=n&logo=n&fmt=png&od=1&shading=hill&pp=20.390194,72.896431;dfp"
  },
  {
    "name": "Dr. Ankita Bhatt",
    "address": "108, Tirupati Plaza, Chala, Vapi, Gujarat",
    "phone": "Dr. Ankita Bhatt",
    "hours": "Open· Closes 14:00",
    "image_url": "https://www.bing.com/maps/geoplat/REST/v1/Imagery/Map/RoadVibrant?ms=92,112&key=AnTcaqBi2ypp0xI-OZNi4W_ik2KhjgpqioTAtXLC8GzkMBQRMlyxvxyTnd5b73im&c=en-US&ur=in&da=n&logo=n&fmt=png&od=1&shading=hill&pp=20.386469,72.900185;dfp"
  },
  {
    "name": "Triguna Ayurveda & Panchkarma Center (Ayurvedic Clinic  Chala)",
    "address": "Shop No.: 3, Vinayak Commercial Complex, Daman Rd, Above Suryavanshi Mega Store, Chala, Vapi, Gujarat",
    "phone": "Triguna Ayurveda & Panchkarma Center (Ayurvedic Clinic  Chala)",
    "hours": null,
    "image_url": "https://www.bing.com/maps/geoplat/REST/v1/Imagery/Map/RoadVibrant?ms=92,112&key=AnTcaqBi2ypp0xI-OZNi4W_ik2KhjgpqioTAtXLC8GzkMBQRMlyxvxyTnd5b73im&c=en-US&ur=in&da=n&logo=n&fmt=png&od=1&shading=hill&pp=20.377657,72.908195;dfp"
  }
]