[
  {
    "name": "Dr Rajesh Sahu Clinic",
    "address": "Bus Stand Road, Madhyanchal Gramin Bank, Damoh, Madhya Pradesh 470661",
    "phone": "Dr Rajesh Sahu Clinic",
    "hours": null,
    "image_url": "https://www.bing.com/maps/geoplat/REST/v1/Imagery/Map/RoadVibrant?ms=92,112&key=AnTcaqBi2ypp0xI-OZNi4W_ik2KhjgpqioTAtXLC8GzkMBQRMlyxvxyTnd5b73im&c=en-US&ur=in&da=n&logo=n&fmt=png&od=1&shading=hill&pp=23.830246,79.437317;dfp"
  },
  {
    "name": "Dr Neha Jain Clinic",
    "address": "Sarrafa Road, State Bank Atm, Bakauli, Chouraha, Damoh, Madhya Pradesh 470661",
    "phone": "Dr Neha Jain Clinic",
    "hours": null,
    "image_url": "https://www.bing.com/maps/geoplat/REST/v1/Imagery/Map/RoadVibrant?ms=92,112&key=AnTcaqBi2ypp0xI-OZNi4W_ik2KhjgpqioTAtXLC8GzkMBQRMlyxvxyTnd5b73im&c=en-US&ur=in&da=n&logo=n&fmt=png&od=1&shading=hill&pp=23.835869,79.44278;dfp"
  },
  {
    "name": "Dr Devendra Jain",
    "address": "Station Road, Damoh, Madhya Pradesh",
    "phone": "Dr Devendra Jain",
    "hours": null,
    "image_url": "https://www.bing.com/maps/geoplat/REST/v1/Imagery/Map/RoadVibrant?ms=92,112&key=AnTcaqBi2ypp0xI-OZNi4W_ik2KhjgpqioTAtXLC8GzkMBQRMlyxvxyTnd5b73im&c=en-US&ur=in&da=n&logo=n&fmt=png&od=1&shading=hill&pp=23.83441,79.436279;dfp"
  },
  {
    "name": "Dr Abhay Jain",
    "address": "82, Pyasi Mandir, Panandi Chouraha, Damoh, Madhya Pradesh 470661",
    "phone": "Dr Abhay Jain",
    "hours": null,
    "image_url": "https://www.bing.com/maps/geoplat/REST/v1/Imagery/Map/RoadVibrant?ms=92,112&key=AnTcaqBi2ypp0xI-OZNi4W_ik2KhjgpqioTAtXLC8GzkMBQRMlyxvxyTnd5b73im&c=en-US&ur=in&da=n&logo=n&fmt=png&od=1&shading=hill&pp=23.837095,79.439804;dfp"
  },
  {
    "name": "Dr Ashok Mishra",
    "address": "1St Floor, Sahar Road, Sagar Naka Station, Damoh, Madhya Pradesh 470661",
    "phone": "Dr Ashok Mishra",
    "hours": null,
    "image_url": "https://www.bing.com/maps/geoplat/REST/v1/Imagery/Map/RoadVibrant?ms=92,112&key=AnTcaqBi2ypp0xI-OZNi4W_ik2KhjgpqioTAtXLC8GzkMBQRMlyxvxyTnd5b73im&c=en-US&ur=in&da=n&logo=n&fmt=png&od=1&shading=hill&pp=23.832386,79.430939;dfp"
  },
  {
    "name": "Nk Patel Clinic",
    "address": "Aspatal Road, Damoh, Madhya Pradesh 470661",
    "phone": "Nk Patel Clinic",
    "hours": null,
    "image_url": "https://www.bing.com/maps/geoplat/REST/v1/Imagery/Map/RoadVibrant?ms=92,112&key=AnTcaqBi2ypp0xI-OZNi4W_ik2KhjgpqioTAtXLC8GzkMBQRMlyxvxyTnd5b73im&c=en-US&ur=in&da=n&logo=n&fmt=png&od=1&shading=hill&pp=23.832907,79.442169;dfp"
  },
  {
    "name": "Dahikar Clinic",
    "address": "Bhilai Rd, in Front of sbi, Near bus Stand, Lanji, Madhya Pradesh",
    "phone": "Dahikar Clinic",
    "hours": null,
    "image_url": "https://www.bing.com/maps/geoplat/REST/v1/Imagery/Map/RoadVibrant?ms=92,112&key=AnTcaqBi2ypp0xI-OZNi4W_ik2KhjgpqioTAtXLC8GzkMBQRMlyxvxyTnd5b73im&c=en-US&ur=in&da=n&logo=n&fmt=png&od=1&shading=hill&pp=23.833275,79.436958;dfp"
  },
  {
    "name": "Dr.A.K.Khan Superspeciality Homoeopathic Clinic ( New Hope Homoeopathy Division)",
    "address": "Bus Stand, Nagpur Road, Umranala, Madhya Pradesh",
    "phone": "Dr.A.K.Khan Superspeciality Homoeopathic Clinic ( New Hope Homoeopathy Division)",
    "hours": null,
    "image_url": "https://www.bing.com/maps/geoplat/REST/v1/Imagery/Map/RoadVibrant?ms=92,112&key=AnTcaqBi2ypp0xI-OZNi4W_ik2KhjgpqioTAtXLC8GzkMBQRMlyxvxyTnd5b73im&c=en-US&ur=in&da=n&logo=n&fmt=png&od=1&shading=hill&pp=23.833275,79.436958;dfp"
  },
  {
    "name": "Om Sai Clinic",
    "address": "Shop 3 & Shop 18 Samaiya Market Near BUS Stand Kundam, Amarkantak Road Kundam, Jabalpur, Madhy…",
    "phone": "Om Sai Clinic",
    "hours": null,
    "image_url": "https://www.bing.com/maps/geoplat/REST/v1/Imagery/Map/RoadVibrant?ms=92,112&key=AnTcaqBi2ypp0xI-OZNi4W_ik2KhjgpqioTAtXLC8GzkMBQRMlyxvxyTnd5b73im&c=en-US&ur=in&da=n&logo=n&fmt=png&od=1&shading=hill&pp=23.83572,79.443588;dfp"
  },
  {
    "name": "shriyam clinic & sonography Dr asheesh shukla & Dr kamini shukla",
    "address": "Civil Hospital Road, Beside jay Mata Medical, Sihora, Madhya Pradesh",
    "phone": "shriyam clinic & sonography Dr asheesh shukla & Dr kamini shukla",
    "hours": null,
    "image_url": "https://www.bing.com/maps/geoplat/REST/v1/Imagery/Map/RoadVibrant?ms=92,112&key=AnTcaqBi2ypp0xI-OZNi4W_ik2KhjgpqioTAtXLC8GzkMBQRMlyxvxyTnd5b73im&c=en-US&ur=in&da=n&logo=n&fmt=png&od=1&shading=hill&pp=23.833786,79.441025;dfp"
  },
  {
    "name": "Samadhan Clinic",
    "address": "Balcoat Road, State Bank Of India Bank, Damoh, Madhya Pradesh 470661",
    "phone": "Samadhan Clinic",
    "hours": null,
    "image_url": "https://www.bing.com/maps/geoplat/REST/v1/Imagery/Map/RoadVibrant?ms=92,112&key=AnTcaqBi2ypp0xI-OZNi4W_ik2KhjgpqioTAtXLC8GzkMBQRMlyxvxyTnd5b73im&c=en-US&ur=in&da=n&logo=n&fmt=png&od=1&shading=hill&pp=23.824371,79.433174;dfp"
  },
  {
    "name": "Pooja Clinic",
    "address": "Pathariya Road, Vijaya Bank Atm, Damoh, Madhya Pradesh 470661",
    "phone": "Pooja Clinic",
    "hours": null,
    "image_url": "https://www.bing.com/maps/geoplat/REST/v1/Imagery/Map/RoadVibrant?ms=92,112&key=AnTcaqBi2ypp0xI-OZNi4W_ik2KhjgpqioTAtXLC8GzkMBQRMlyxvxyTnd5b73im&c=en-US&ur=in&da=n&logo=n&fmt=png&od=1&shading=hill&pp=23.831116,79.43132;dfp"
  },
  {
    "name": "Dr. Saket Agrawal Eye Care Center",
    "address": "Bus Stand Rd, Mandla, Madhya Pradesh",
    "phone": "Dr. Saket Agrawal Eye Care Center",
    "hours": null,
    "image_url": "https://www.bing.com/maps/geoplat/REST/v1/Imagery/Map/RoadVibrant?ms=92,112&key=AnTcaqBi2ypp0xI-OZNi4W_ik2KhjgpqioTAtXLC8GzkMBQRMlyxvxyTnd5b73im&c=en-US&ur=in&da=n&logo=n&fmt=png&od=1&shading=hill&pp=23.833107,79.437241;dfp"
  },
  {
    "name": "Dr Paliwal",
    "address": "1St Floor, Balakot Main Road, Christian Coloney, Damoh, Madhya Pradesh 470661",
    "phone": "Dr Paliwal",
    "hours": null,
    "image_url": "https://www.bing.com/maps/geoplat/REST/v1/Imagery/Map/RoadVibrant?ms=92,112&key=AnTcaqBi2ypp0xI-OZNi4W_ik2KhjgpqioTAtXLC8GzkMBQRMlyxvxyTnd5b73im&c=en-US&ur=in&da=n&logo=n&fmt=png&od=1&shading=hill&pp=23.826881,79.434784;dfp"
  },
  {
    "name": "Dr Lal PathLabs - Patient Service Centre",
    "address": "Ground Floor, Mewgang Ward, Killai Naka, Damoh, Madhya Pradesh 470661",
    "phone": "Dr Lal PathLabs - Patient Service Centre",
    "hours": "Open· Closes 19:30",
    "image_url": "https://www.bing.com/maps/geoplat/REST/v1/Imagery/Map/RoadVibrant?ms=92,134&key=AnTcaqBi2ypp0xI-OZNi4W_ik2KhjgpqioTAtXLC8GzkMBQRMlyxvxyTnd5b73im&c=en-US&ur=in&da=n&logo=n&fmt=png&od=1&shading=hill&pp=23.832302,79.438667;dfp"
  },
  {
    "name": "Parakh Patho Lab & Dental Clinic",
    "address": "Hospital Rd, Damoh, Madhya Pradesh 470661",
    "phone": "Parakh Patho Lab & Dental Clinic",
    "hours": null,
    "image_url": "https://www.bing.com/maps/geoplat/REST/v1/Imagery/Map/RoadVibrant?ms=92,112&key=AnTcaqBi2ypp0xI-OZNi4W_ik2KhjgpqioTAtXLC8GzkMBQRMlyxvxyTnd5b73im&c=en-US&ur=in&da=n&logo=n&fmt=png&od=1&shading=hill&pp=23.832754,79.441895;dfp"
  },
  {
    "name": "Metropolis Healthcare Limited - Pathology Lab, Diagnostic Centre",
    "address": "Galla Mandi Rd, Teen Gulli, Damoh, Madhya Pradesh",
    "phone": "Metropolis Healthcare Limited - Pathology Lab, Diagnostic Centre",
    "hours": "Open· Closes 20:00",
    "image_url": "https://www.bing.com/maps/geoplat/REST/v1/Imagery/Map/RoadVibrant?ms=92,112&key=AnTcaqBi2ypp0xI-OZNi4W_ik2KhjgpqioTAtXLC8GzkMBQRMlyxvxyTnd5b73im&c=en-US&ur=in&da=n&logo=n&fmt=png&od=1&shading=hill&pp=23.835535,79.433456;dfp"
  },
  {
    "name": "Samadhan Pathology Lab",
    "address": "Kiriti Smiriti Chauraha Road, Damoh, Madhya Pradesh 470661",
    "phone": "Samadhan Pathology Lab",
    "hours": null,
    "image_url": "https://www.bing.com/maps/geoplat/REST/v1/Imagery/Map/RoadVibrant?ms=92,112&key=AnTcaqBi2ypp0xI-OZNi4W_ik2KhjgpqioTAtXLC8GzkMBQRMlyxvxyTnd5b73im&c=en-US&ur=in&da=n&logo=n&fmt=png&od=1&shading=hill&pp=23.831755,79.442131;dfp"
  }
]