[
  {
    "name": "Dr. Ashutosh Kumar- Orthopedist In Darbhanga",
    "address": "Ram Pyari Seva Sadan, Block Rd, Baheri Bazar, Baheri, Bihar",
    "phone": "Dr. Ashutosh Kumar- Orthopedist In Darbhanga",
    "hours": null,
    "image_url": "https://www.bing.com/maps/geoplat/REST/v1/Imagery/Map/RoadVibrant?ms=92,112&key=AnTcaqBi2ypp0xI-OZNi4W_ik2KhjgpqioTAtXLC8GzkMBQRMlyxvxyTnd5b73im&c=en-US&ur=in&da=n&logo=n&fmt=png&od=1&shading=hill&pp=25.942457,86.047836;dfp"
  },
  {
    "name": "Prasad Poly Clinic",
    "address": "Banglagarh Colony, Darbhanga Sadar, Bihar 847201",
    "phone": "Prasad Poly Clinic",
    "hours": "Open 24 hours",
    "image_url": "/th?id=OLC.t9GyUjHXJ2c%2ftQ480x360&w=92&h=134&c=8&rs=1&qlt=80&cdv=1&pid=Local"
  },
  {
    "name": "K S Medicare.Dr Bharat Kumar",
    "address": "Shahganj, Near, 22 no Gumti, Benta, Laheriasarai, Darbhanga, Bihar",
    "phone": "K S Medicare.Dr Bharat Kumar",
    "hours": null,
    "image_url": "https://www.bing.com/maps/geoplat/REST/v1/Imagery/Map/RoadVibrant?ms=92,112&key=AnTcaqBi2ypp0xI-OZNi4W_ik2KhjgpqioTAtXLC8GzkMBQRMlyxvxyTnd5b73im&c=en-US&ur=in&da=n&logo=n&fmt=png&od=1&shading=hill&pp=26.126354,85.908737;dfp"
  },
  {
    "name": "Dr Gautam Kumar Kanodia Urologist",
    "address": "Panna URO & ENT Care Hospital, Near R.B Memorial Hospital, Darbhanga, Bihar 846003",
    "phone": "Dr Gautam Kumar Kanodia Urologist",
    "hours": null,
    "image_url": "/th?id=OLC.Fnb4lEwEpr%2bOtw480x360&w=92&h=112&c=8&rs=1&qlt=80&cdv=1&pid=Local"
  },
  {
    "name": "Dr. Birendra Kumar Singh",
    "address": "Benta - Ayachi Nagar Road, Benta, Laheriasarai, Darbhanga, Bihar 846001",
    "phone": "Dr. Birendra Kumar Singh",
    "hours": "Open路 Closes 18:00",
    "image_url": "https://www.bing.com/maps/geoplat/REST/v1/Imagery/Map/RoadVibrant?ms=92,134&key=AnTcaqBi2ypp0xI-OZNi4W_ik2KhjgpqioTAtXLC8GzkMBQRMlyxvxyTnd5b73im&c=en-US&ur=in&da=n&logo=n&fmt=png&od=1&shading=hill&pp=26.127489,85.901688;dfp"
  },
  {
    "name": "Dr.shiv Kumar",
    "address": "Sh 56, Kabirchack, Donar, Darbhanga, Near Lcs College Sonaki Road, Darbhanga, Darbhanga 846009",
    "phone": "Dr.shiv Kumar",
    "hours": null,
    "image_url": "https://www.bing.com/maps/geoplat/REST/v1/Imagery/Map/RoadVibrant?ms=92,112&key=AnTcaqBi2ypp0xI-OZNi4W_ik2KhjgpqioTAtXLC8GzkMBQRMlyxvxyTnd5b73im&c=en-US&ur=in&da=n&logo=n&fmt=png&od=1&shading=hill&pp=26.146759,85.914894;dfp"
  },
  {
    "name": "Dr. Kawindra Kishor",
    "address": "Narayan Bhawan, Darbhanga, Bihar",
    "phone": "Dr. Kawindra Kishor",
    "hours": "Open路 Closes 13:00",
    "image_url": "https://www.bing.com/maps/geoplat/REST/v1/Imagery/Map/RoadVibrant?ms=92,112&key=AnTcaqBi2ypp0xI-OZNi4W_ik2KhjgpqioTAtXLC8GzkMBQRMlyxvxyTnd5b73im&c=en-US&ur=in&da=n&logo=n&fmt=png&od=1&shading=hill&pp=25.941935,86.046272;dfp"
  },
  {
    "name": "Nephrologist in Darbhanga-Dr. Prashant Kumar- Paras Global Hospital",
    "address": "Room No 8 Vip Road, Allalpatti, Allalpatti, Laheriasarai, Bihar 846003",
    "phone": "Nephrologist in Darbhanga-Dr. Prashant Kumar- Paras Global Hospital",
    "hours": null,
    "image_url": "https://www.bing.com/maps/geoplat/REST/v1/Imagery/Map/RoadVibrant?ms=92,112&key=AnTcaqBi2ypp0xI-OZNi4W_ik2KhjgpqioTAtXLC8GzkMBQRMlyxvxyTnd5b73im&c=en-US&ur=in&da=n&logo=n&fmt=png&od=1&shading=hill&pp=26.126919,85.903915;dfp"
  },
  {
    "name": "Prakash Ent CLINIC- DR.Amit Prakash",
    "address": "Near Hero Motors, VIP Road, Allalpati, (Opposite Thapar Dental Clinic), Darbhanga, Bihar 836003",
    "phone": "Prakash Ent CLINIC- DR.Amit Prakash",
    "hours": "Open路 Closes 20:30",
    "image_url": null
  },
  {
    "name": "Dr. Abhay Prakash Joshi",
    "address": "Ashish Bhawan, Hospital Chowk Tajpur.Dist.-Samastipur, Samastipur, Bihar, Bihar 848130",
    "phone": "Dr. Abhay Prakash Joshi",
    "hours": null,
    "image_url": null
  },
  {
    "name": "BEST STONE CLINIC | URO STONE RESEARCH CENTRE PrivateLimited",
    "address": "VIP Main Road, Alapatti, 4WQ5+9C9, VIP Road, Allalpatti, Laheriasarai, Darbhanga, Bihar 846003",
    "phone": "BEST STONE CLINIC | URO STONE RESEARCH CENTRE PrivateLimited",
    "hours": "Open 24 hours",
    "image_url": null
  },
  {
    "name": "Dr. Naresh Kumar Suman",
    "address": "Darbhanga Skin Clinic, Near Hero Showroom, Allalpatti, Darbhanga, Bihar 846003",
    "phone": "Dr. Naresh Kumar Suman",
    "hours": "Open路 Closes 11:00",
    "image_url": "https://www.bing.com/maps/geoplat/REST/v1/Imagery/Map/RoadVibrant?ms=92,134&key=AnTcaqBi2ypp0xI-OZNi4W_ik2KhjgpqioTAtXLC8GzkMBQRMlyxvxyTnd5b73im&c=en-US&ur=in&da=n&logo=n&fmt=png&od=1&shading=hill&pp=26.136024,85.906601;dfp"
  },
  {
    "name": "Aashutosh Homoeo Clinic",
    "address": "Main Road Keoti-Ranway NH-527B(105), Darbhanga, Darbhanga, Bihar, Bihar 847121",
    "phone": "Aashutosh Homoeo Clinic",
    "hours": null,
    "image_url": null
  },
  {
    "name": "My Career Doctor (Spoken English & Career Counseling Clinic _ Darbhanga Bihar)",
    "address": "2nd Floor Union Bank Complex, Balbhadrapur, Laheriasarai, Darbhanga, Bihar",
    "phone": "My Career Doctor (Spoken English & Career Counseling Clinic _ Darbhanga Bihar)",
    "hours": null,
    "image_url": "https://www.bing.com/maps/geoplat/REST/v1/Imagery/Map/RoadVibrant?ms=92,112&key=AnTcaqBi2ypp0xI-OZNi4W_ik2KhjgpqioTAtXLC8GzkMBQRMlyxvxyTnd5b73im&c=en-US&ur=in&da=n&logo=n&fmt=png&od=1&shading=hill&pp=26.12005,85.905113;dfp"
  },
  {
    "name": "Sexologist Doctor Darbhanga in Bihar - Health Safe Clinic",
    "address": "Shivdhara, Bazaar Samiti Rd, Near Shivdhara Masjid, Sundarpur, Darbhanga, Bihar",
    "phone": "Sexologist Doctor Darbhanga in Bihar - Health Safe Clinic",
    "hours": null,
    "image_url": "https://www.bing.com/maps/geoplat/REST/v1/Imagery/Map/RoadVibrant?ms=92,112&key=AnTcaqBi2ypp0xI-OZNi4W_ik2KhjgpqioTAtXLC8GzkMBQRMlyxvxyTnd5b73im&c=en-US&ur=in&da=n&logo=n&fmt=png&od=1&shading=hill&pp=26.142958,85.893669;dfp"
  },
  {
    "name": "Prasad Surgical Clinic",
    "address": "Digghi West (Paschim Digghi, Mishratola Rd, Darbhanga, Bihar",
    "phone": "Prasad Surgical Clinic",
    "hours": null,
    "image_url": "https://www.bing.com/maps/geoplat/REST/v1/Imagery/Map/RoadVibrant?ms=92,112&key=AnTcaqBi2ypp0xI-OZNi4W_ik2KhjgpqioTAtXLC8GzkMBQRMlyxvxyTnd5b73im&c=en-US&ur=in&da=n&logo=n&fmt=png&od=1&shading=hill&pp=26.144079,85.90802;dfp"
  },
  {
    "name": "Divya Homoeopathy Clinic",
    "address": "Village Road, Indra Colony, Laheriasarai, Darbhanga, Bihar",
    "phone": "Divya Homoeopathy Clinic",
    "hours": null,
    "image_url": "https://www.bing.com/maps/geoplat/REST/v1/Imagery/Map/RoadVibrant?ms=92,112&key=AnTcaqBi2ypp0xI-OZNi4W_ik2KhjgpqioTAtXLC8GzkMBQRMlyxvxyTnd5b73im&c=en-US&ur=in&da=n&logo=n&fmt=png&od=1&shading=hill&pp=26.133362,85.914116;dfp"
  },
  {
    "name": "Tarai Nepal Diagnostic Center darbhanga.",
    "address": "V.i.p.Road.Alalpatti.Darbhanga, Darbhanga, Bihar, Bihar 846003",
    "phone": "Tarai Nepal Diagnostic Center darbhanga.",
    "hours": null,
    "image_url": null
  }
]