[
  {
    "name": "Dr D Sen",
    "address": "Hill Cart Road, Chowk Bazar Chauraha, Chowk Bazar, Darjeeling, West Bengal 734001",
    "phone": "Dr D Sen",
    "hours": null,
    "image_url": "https://www.bing.com/maps/geoplat/REST/v1/Imagery/Map/RoadVibrant?ms=92,112&key=AnTcaqBi2ypp0xI-OZNi4W_ik2KhjgpqioTAtXLC8GzkMBQRMlyxvxyTnd5b73im&c=en-US&ur=in&da=n&logo=n&fmt=png&od=1&shading=hill&pp=27.043751,88.265366;dfp"
  },
  {
    "name": "Dr Mukesh Sud",
    "address": "Gandhi Road, Darjeeling, West Bengal 734101",
    "phone": "Dr Mukesh Sud",
    "hours": null,
    "image_url": "https://www.bing.com/maps/geoplat/REST/v1/Imagery/Map/RoadVibrant?ms=92,112&key=AnTcaqBi2ypp0xI-OZNi4W_ik2KhjgpqioTAtXLC8GzkMBQRMlyxvxyTnd5b73im&c=en-US&ur=in&da=n&logo=n&fmt=png&od=1&shading=hill&pp=27.038332,88.265182;dfp"
  },
  {
    "name": "Dr T Wangdi",
    "address": "Botanical Garden Road, Darjeeling, West Bengal 734101",
    "phone": "Dr T Wangdi",
    "hours": null,
    "image_url": "https://www.bing.com/maps/geoplat/REST/v1/Imagery/Map/RoadVibrant?ms=92,112&key=AnTcaqBi2ypp0xI-OZNi4W_ik2KhjgpqioTAtXLC8GzkMBQRMlyxvxyTnd5b73im&c=en-US&ur=in&da=n&logo=n&fmt=png&od=1&shading=hill&pp=27.045658,88.266731;dfp"
  },
  {
    "name": "Primary Health Care Centre (SHAW)",
    "address": "Ground Floor, K&M Garden, Plot No. SB-20, Block 14 Karachi, Pakistan, Jorebunglow Sukhia, West Bengal 7…",
    "phone": "Primary Health Care Centre (SHAW)",
    "hours": null,
    "image_url": "https://www.bing.com/maps/geoplat/REST/v1/Imagery/Map/RoadVibrant?ms=92,112&key=AnTcaqBi2ypp0xI-OZNi4W_ik2KhjgpqioTAtXLC8GzkMBQRMlyxvxyTnd5b73im&c=en-US&ur=in&da=n&logo=n&fmt=png&od=1&shading=hill&pp=27.036865,88.265671;dfp"
  },
  {
    "name": "Dr. Prakash Agarwal",
    "address": "DNP Building, Opposite Hotel Vinayak, Sevoke More, H. C. Road, Darjiling, West Bengal",
    "phone": "Dr. Prakash Agarwal",
    "hours": "Open· Closes 12:00",
    "image_url": "/th?id=OLC.UFrg3lVqnsdV%2bw480x360&w=92&h=112&c=8&rs=1&qlt=80&cdv=1&pid=Local"
  },
  {
    "name": "Saubhagya Clinic",
    "address": "Judge Bazar, Darjling, Darjeeling, West Bengal 734101",
    "phone": "Saubhagya Clinic",
    "hours": null,
    "image_url": "https://www.bing.com/maps/geoplat/REST/v1/Imagery/Map/RoadVibrant?ms=92,112&key=AnTcaqBi2ypp0xI-OZNi4W_ik2KhjgpqioTAtXLC8GzkMBQRMlyxvxyTnd5b73im&c=en-US&ur=in&da=n&logo=n&fmt=png&od=1&shading=hill&pp=27.044559,88.265938;dfp"
  },
  {
    "name": "Dr. Deeke Yolmo | ENT",
    "address": "Darjeeling, West Bengal, India, 734101, Darjeeling, Madhya Pradesh 734101",
    "phone": "Dr. Deeke Yolmo | ENT",
    "hours": "Open· Closes 18:00",
    "image_url": null
  },
  {
    "name": "Dr Lal Pathlabs",
    "address": "Darjeeling, West Bengal 734101",
    "phone": "Dr Lal Pathlabs",
    "hours": null,
    "image_url": null
  },
  {
    "name": "Dr. Ranjit Bhagat",
    "address": "Airport Plaza, Upper Bagdogra, Siliguri, Darjiling, West Bengal",
    "phone": "Dr. Ranjit Bhagat",
    "hours": "Closed· Opens 15:00",
    "image_url": "https://www.bing.com/maps/geoplat/REST/v1/Imagery/Map/RoadVibrant?ms=92,112&key=AnTcaqBi2ypp0xI-OZNi4W_ik2KhjgpqioTAtXLC8GzkMBQRMlyxvxyTnd5b73im&c=en-US&ur=in&da=n&logo=n&fmt=png&od=1&shading=hill&pp=26.696468,88.311279;dfp"
  },
  {
    "name": "Yuma Nursing and Diagnostic Centre",
    "address": "7/A, Ballen Villa Road, Darjeeling, West Bengal 734101",
    "phone": "Yuma Nursing and Diagnostic Centre",
    "hours": null,
    "image_url": "https://www.bing.com/maps/geoplat/REST/v1/Imagery/Map/RoadVibrant?ms=92,112&key=AnTcaqBi2ypp0xI-OZNi4W_ik2KhjgpqioTAtXLC8GzkMBQRMlyxvxyTnd5b73im&c=en-US&ur=in&da=n&logo=n&fmt=png&od=1&shading=hill&pp=27.042896,88.266685;dfp"
  },
  {
    "name": "Dr. Soumalya Golder",
    "address": "C-10, Himachal Vihar, Phase- 1, (Near Dr Chang Hospital) City Centre Shiliguri, Darjiling, West Bengal",
    "phone": "Dr. Soumalya Golder",
    "hours": "Closed· Opens Thu 13:00",
    "image_url": null
  },
  {
    "name": "Anandaloke Hospital & Neurosciences Centre",
    "address": "2nd Mile, Sevoke Road, Siliguri, Darjiling, West Bengal 734001",
    "phone": "Anandaloke Hospital & Neurosciences Centre",
    "hours": "Closed· Opens 16:00",
    "image_url": "https://www.bing.com/maps/geoplat/REST/v1/Imagery/Map/RoadVibrant?ms=92,134&key=AnTcaqBi2ypp0xI-OZNi4W_ik2KhjgpqioTAtXLC8GzkMBQRMlyxvxyTnd5b73im&c=en-US&ur=in&da=n&logo=n&fmt=png&od=1&shading=hill&pp=26.73679,88.433952;dfp"
  },
  {
    "name": "Dr. Md Kamaluddin Ansari- Obstetrician & Gynecologist",
    "address": "Disha Lab, Near North Bengal Medical College, Opp. Kali Mandir, Ranidanga, Darjeeling, West Bengal 734012",
    "phone": "Dr. Md Kamaluddin Ansari- Obstetrician & Gynecologist",
    "hours": "Open· Closes 12:00",
    "image_url": "https://www.bing.com/maps/geoplat/REST/v1/Imagery/Map/RoadVibrant?ms=92,134&key=AnTcaqBi2ypp0xI-OZNi4W_ik2KhjgpqioTAtXLC8GzkMBQRMlyxvxyTnd5b73im&c=en-US&ur=in&da=n&logo=n&fmt=png&od=1&shading=hill&pp=26.88088,88.169937;dfp"
  },
  {
    "name": "Mahabir Doctors Hub Nx",
    "address": "W NO 10, Darjeeling, West Bengal 734001",
    "phone": "Mahabir Doctors Hub Nx",
    "hours": null,
    "image_url": "https://www.bing.com/maps/geoplat/REST/v1/Imagery/Map/RoadVibrant?ms=92,112&key=AnTcaqBi2ypp0xI-OZNi4W_ik2KhjgpqioTAtXLC8GzkMBQRMlyxvxyTnd5b73im&c=en-US&ur=in&da=n&logo=n&fmt=png&od=1&shading=hill&pp=26.726755,88.443649;dfp"
  },
  {
    "name": "Dr Agarwals Clinic",
    "address": "301\\6\\27\\14\\8, Sanjeevani Apartment, S F Road, Siliguri, Darjeeling, West Bengal 734005",
    "phone": "Dr Agarwals Clinic",
    "hours": null,
    "image_url": null
  },
  {
    "name": "Dr. N.K Saha",
    "address": "18, Haren Mukherjee Road, Hakimpara, Darjiling, West Bengal",
    "phone": "Dr. N.K Saha",
    "hours": "Opens in 14 mins",
    "image_url": "https://www.bing.com/maps/geoplat/REST/v1/Imagery/Map/RoadVibrant?ms=92,112&key=AnTcaqBi2ypp0xI-OZNi4W_ik2KhjgpqioTAtXLC8GzkMBQRMlyxvxyTnd5b73im&c=en-US&ur=in&da=n&logo=n&fmt=png&od=1&shading=hill&pp=26.71327,88.429123;dfp"
  },
  {
    "name": "Dr Lal PathLabs",
    "address": "Station Road, Bagdogra, Darjeeling, Near Sebayan Building, Darjeeling, West Bengal",
    "phone": "Dr Lal PathLabs",
    "hours": null,
    "image_url": "https://www.bing.com/maps/geoplat/REST/v1/Imagery/Map/RoadVibrant?ms=92,112&key=AnTcaqBi2ypp0xI-OZNi4W_ik2KhjgpqioTAtXLC8GzkMBQRMlyxvxyTnd5b73im&c=en-US&ur=in&da=n&logo=n&fmt=png&od=1&shading=hill&pp=22.460535,88.307281;dfp"
  }
]