[
  {
    "name": "Dr Siddhartha Goswami - Physician",
    "address": "Apollo Clinic, GS Rd, opp. Bora Service, Ulubari, Guwahati, Assam",
    "phone": "Dr Siddhartha Goswami - Physician",
    "hours": null,
    "image_url": "/th?id=OLC.QW36c7CHXmbsNA480x360&w=92&h=112&c=8&rs=1&qlt=80&cdv=1&pid=Local"
  },
  {
    "name": "Dr Rupjyoti Gogoi, MS ORTHO I MediClinic Orthopedic & Pain Centre",
    "address": "Mediclinic, Chitrabon Enclave, Near Commerce College, Opposite Nexa, Zoo Road, Guwahati, Assam 781003",
    "phone": "Dr Rupjyoti Gogoi, MS ORTHO I MediClinic Orthopedic & Pain Centre",
    "hours": "Open· Closes 20:00",
    "image_url": "/th?id=OLC.XXSjdroIzplb8Q480x360&w=92&h=134&c=8&rs=1&qlt=80&cdv=1&pid=Local"
  },
  {
    "name": "Dr. Deepanava Jyoti Das",
    "address": "Hatigaon Main Road, Landmark: Near Hotel Grand Majesty, Guwahati 781019",
    "phone": "Dr. Deepanava Jyoti Das",
    "hours": "Open· Closes 22:00",
    "image_url": "https://www.bing.com/maps/geoplat/REST/v1/Imagery/Map/RoadVibrant?ms=92,134&key=AnTcaqBi2ypp0xI-OZNi4W_ik2KhjgpqioTAtXLC8GzkMBQRMlyxvxyTnd5b73im&c=en-US&ur=in&da=n&logo=n&fmt=png&od=1&shading=hill&pp=26.136402,91.785789;dfp"
  },
  {
    "name": "DR PRADIP DOLEY DM |DR ANJAN BARKATAKY DM-Best Nephrologist",
    "address": "Medicity Guwahati.Dispur Hatigaon Main Road, Opp: Sankar Path, (Near Sewali Path) Hatigaon, Guwahati, …",
    "phone": "DR PRADIP DOLEY DM |DR ANJAN BARKATAKY DM-Best Nephrologist",
    "hours": null,
    "image_url": "https://www.bing.com/maps/geoplat/REST/v1/Imagery/Map/RoadVibrant?ms=92,112&key=AnTcaqBi2ypp0xI-OZNi4W_ik2KhjgpqioTAtXLC8GzkMBQRMlyxvxyTnd5b73im&c=en-US&ur=in&da=n&logo=n&fmt=png&od=1&shading=hill&pp=26.136606,91.785736;dfp"
  },
  {
    "name": "Dr. Mridu Plaban Borah",
    "address": "NH 37, Paschim Boragaon, Guwahati, Assam",
    "phone": "Dr. Mridu Plaban Borah",
    "hours": "Closed· Opens tomorrow 11:00",
    "image_url": "/th?id=OLC.PWrs4krdedOwtw480x360&w=92&h=134&c=8&rs=1&qlt=80&cdv=1&pid=Local"
  },
  {
    "name": "Dr. Abrar Ahmed | Apollo Clinic Dispur | Best Senior Consultant Spine Surgeon",
    "address": "Apollo Clinic, opp. Downtown Hospital, Near SBI ATM, Rukmini Gaon, Guwahati, Assam",
    "phone": "Dr. Abrar Ahmed | Apollo Clinic Dispur | Best Senior Consultant Spine Surgeon",
    "hours": null,
    "image_url": "https://www.bing.com/maps/geoplat/REST/v1/Imagery/Map/RoadVibrant?ms=92,112&key=AnTcaqBi2ypp0xI-OZNi4W_ik2KhjgpqioTAtXLC8GzkMBQRMlyxvxyTnd5b73im&c=en-US&ur=in&da=n&logo=n&fmt=png&od=1&shading=hill&pp=26.135798,91.802567;dfp"
  },
  {
    "name": "Apollo Sugar Clinic | Dr. Rupam Choudhury | Best Diabetologist , Bhetapara",
    "address": "Apollo Diabetes Clinic, GS Rd, Opposite Down Town Hospital, Dispur, Rukmini Gaon, Guwahati, Assam",
    "phone": "Apollo Sugar Clinic | Dr. Rupam Choudhury | Best Diabetologist , Bhetapara",
    "hours": null,
    "image_url": "https://www.bing.com/maps/geoplat/REST/v1/Imagery/Map/RoadVibrant?ms=92,112&key=AnTcaqBi2ypp0xI-OZNi4W_ik2KhjgpqioTAtXLC8GzkMBQRMlyxvxyTnd5b73im&c=en-US&ur=in&da=n&logo=n&fmt=png&od=1&shading=hill&pp=26.15457,91.780052;clcp"
  },
  {
    "name": "Dr. Debeshi Bhattacharjee",
    "address": "L’Ueur Aesthetics, R B Complex 2nd Floor Beltola Wireless, Gauhati, Assam 781006",
    "phone": "Dr. Debeshi Bhattacharjee",
    "hours": "Closed· Opens 11:00",
    "image_url": null
  },
  {
    "name": "Dr Arunima Mahanta, MD, DM - Best Nephrologist  I NH Narayana I Former Register GMCH",
    "address": "Mediclinic, Chitrabon Enclave, Near Gauhati Commerce College, Opposite Nexa, Zoo Road, Guwahati, Assam …",
    "phone": "Dr Arunima Mahanta, MD, DM - Best Nephrologist  I NH Narayana I Former Register GMCH",
    "hours": "Open· Closes 20:00",
    "image_url": null
  },
  {
    "name": "Dr. Bhaskar Neog | Best Diabetologist & Medicine Doctor  | Apollo Clinic Dispur",
    "address": "GS Rd, opp. Downtown Hospital, Dispur, Rukmini Gaon, Guwahati, Assam",
    "phone": "Dr. Bhaskar Neog | Best Diabetologist & Medicine Doctor  | Apollo Clinic Dispur",
    "hours": null,
    "image_url": "https://www.bing.com/maps/geoplat/REST/v1/Imagery/Map/RoadVibrant?ms=92,112&key=AnTcaqBi2ypp0xI-OZNi4W_ik2KhjgpqioTAtXLC8GzkMBQRMlyxvxyTnd5b73im&c=en-US&ur=in&da=n&logo=n&fmt=png&od=1&shading=hill&pp=26.138144,91.799614;dfp"
  },
  {
    "name": "Dr Sasanka Kr Baruah",
    "address": "Medicity Guwahati Aditya, Near Hotel Novotel Gs Road, Dispur, Assam, Assam 781006",
    "phone": "Dr Sasanka Kr Baruah",
    "hours": null,
    "image_url": null
  },
  {
    "name": "Dr. Dickey Richard Marak- Orthopaedics & Joint Replacement Surgeon",
    "address": "Radhika X-Ray Centre, C2MM+V7P, Mangaldoi, Mangaldoi, Assam 784190",
    "phone": "Dr. Dickey Richard Marak- Orthopaedics & Joint Replacement Surgeon",
    "hours": "Closed· Opens Wed 09:00",
    "image_url": "https://www.bing.com/maps/geoplat/REST/v1/Imagery/Map/RoadVibrant?ms=92,134&key=AnTcaqBi2ypp0xI-OZNi4W_ik2KhjgpqioTAtXLC8GzkMBQRMlyxvxyTnd5b73im&c=en-US&ur=in&da=n&logo=n&fmt=png&od=1&shading=hill&pp=26.434788,92.033211;dfp"
  },
  {
    "name": "Dr. Dip Jyoti Baruah",
    "address": "MG Road, Mangaldai, Assam",
    "phone": "Dr. Dip Jyoti Baruah",
    "hours": "Open· Closes 14:00",
    "image_url": "https://www.bing.com/maps/geoplat/REST/v1/Imagery/Map/RoadVibrant?ms=92,112&key=AnTcaqBi2ypp0xI-OZNi4W_ik2KhjgpqioTAtXLC8GzkMBQRMlyxvxyTnd5b73im&c=en-US&ur=in&da=n&logo=n&fmt=png&od=1&shading=hill&pp=26.438255,92.032143;dfp"
  },
  {
    "name": "Dr. Ranjit Kumar Agarwala- Pediatrician and Neonatologist (Child Specialist)",
    "address": "Institute Of Human Reproduction, Bharalumukh, Near Sluice Gate, Near Sikha Gas Agency, Guwahati, Assa…",
    "phone": "Dr. Ranjit Kumar Agarwala- Pediatrician and Neonatologist (Child Specialist)",
    "hours": "Open· Closes 13:30",
    "image_url": null
  },
  {
    "name": "Apollo Dialysis Clinics",
    "address": "Mangaldai Civil Hospital, P.O.: Mangaldai, Darrang, Assam 784125",
    "phone": "Apollo Dialysis Clinics",
    "hours": "Open· Closes 21:00",
    "image_url": "https://www.bing.com/maps/geoplat/REST/v1/Imagery/Map/RoadVibrant?ms=92,134&key=AnTcaqBi2ypp0xI-OZNi4W_ik2KhjgpqioTAtXLC8GzkMBQRMlyxvxyTnd5b73im&c=en-US&ur=in&da=n&logo=n&fmt=png&od=1&shading=hill&pp=26.43973,92.039619;dfp"
  },
  {
    "name": "Sushri Doctors Clinic - gynae clinic",
    "address": "Beltola - Basistha Road Opp.Shiv Mandir, Near Repose, Beltola Tiniali, Guwahati, Assam",
    "phone": "Sushri Doctors Clinic - gynae clinic",
    "hours": null,
    "image_url": null
  },
  {
    "name": "Best Pediatrician - Dr. Chandra Sekhar | Apollo Hospitals | Guwahati",
    "address": "NH-37, Near Ganesh Mandir, Paschim Boragaon, Guwahati, Assam",
    "phone": "Best Pediatrician - Dr. Chandra Sekhar | Apollo Hospitals | Guwahati",
    "hours": null,
    "image_url": "https://www.bing.com/maps/geoplat/REST/v1/Imagery/Map/RoadVibrant?ms=92,112&key=AnTcaqBi2ypp0xI-OZNi4W_ik2KhjgpqioTAtXLC8GzkMBQRMlyxvxyTnd5b73im&c=en-US&ur=in&da=n&logo=n&fmt=png&od=1&shading=hill&pp=26.14609,91.645943;dfp"
  },
  {
    "name": "Dr. P.N Uzir",
    "address": "Hatigaon Main Road, Guwahati, Assam",
    "phone": "Dr. P.N Uzir",
    "hours": "Open· Closes 22:00",
    "image_url": null
  }
]