[
  {
    "name": "Tarachandra Clinic Nagar Palika Complex",
    "address": "Datia, Madhya Pradesh 475661, India, Datia, Madhya Pradesh 475661",
    "phone": "Tarachandra Clinic Nagar Palika Complex",
    "hours": null,
    "image_url": "https://www.bing.com/maps/geoplat/REST/v1/Imagery/Map/RoadVibrant?ms=92,112&key=AnTcaqBi2ypp0xI-OZNi4W_ik2KhjgpqioTAtXLC8GzkMBQRMlyxvxyTnd5b73im&c=en-US&ur=in&da=n&logo=n&fmt=png&od=1&shading=hill&pp=25.664816,78.464897;dfp"
  },
  {
    "name": "Anamay homoeopathy clinic datia mp",
    "address": "Near by Blue Star Hotel Infront of Ramdulare Mandir Seetasagar Civil Line Datia Morning 10am-2pm and Ev…",
    "phone": "Anamay homoeopathy clinic datia mp",
    "hours": null,
    "image_url": "/th?id=OLC.gMQvOwb4d7oxNg480x360&w=92&h=112&c=8&rs=1&qlt=80&cdv=1&pid=Local"
  },
  {
    "name": "Ravi Ayush Clinic",
    "address": "House NO 16, Datia, Hardaul Mohalla, Datia, Madhya Pradesh 475661",
    "phone": "Ravi Ayush Clinic",
    "hours": null,
    "image_url": "https://www.bing.com/maps/geoplat/REST/v1/Imagery/Map/RoadVibrant?ms=92,112&key=AnTcaqBi2ypp0xI-OZNi4W_ik2KhjgpqioTAtXLC8GzkMBQRMlyxvxyTnd5b73im&c=en-US&ur=in&da=n&logo=n&fmt=png&od=1&shading=hill&pp=25.672312,78.45224;dfp"
  },
  {
    "name": "Rohit Clinic",
    "address": "1, Bhagurapura, Datia, Madhya Pradesh 475682",
    "phone": "Rohit Clinic",
    "hours": null,
    "image_url": "https://www.bing.com/maps/geoplat/REST/v1/Imagery/Map/RoadVibrant?ms=92,112&key=AnTcaqBi2ypp0xI-OZNi4W_ik2KhjgpqioTAtXLC8GzkMBQRMlyxvxyTnd5b73im&c=en-US&ur=in&da=n&logo=n&fmt=png&od=1&shading=hill&pp=25.675833,78.468147;dfp"
  },
  {
    "name": "Dr Narayandas Dhakar Jan Kalyan Seva Samiti",
    "address": "49, Seondha Road, Indergarh, Datia, Madhya Pradesh 475675",
    "phone": "Dr Narayandas Dhakar Jan Kalyan Seva Samiti",
    "hours": null,
    "image_url": "https://www.bing.com/maps/geoplat/REST/v1/Imagery/Map/RoadVibrant?ms=92,112&key=AnTcaqBi2ypp0xI-OZNi4W_ik2KhjgpqioTAtXLC8GzkMBQRMlyxvxyTnd5b73im&c=en-US&ur=in&da=n&logo=n&fmt=png&od=1&shading=hill&pp=26.001894,78.646797;dfp"
  },
  {
    "name": "Dr. Lal path Labs",
    "address": "Unnamed Road, Datia, Madhya Pradesh",
    "phone": "Dr. Lal path Labs",
    "hours": null,
    "image_url": "https://www.bing.com/maps/geoplat/REST/v1/Imagery/Map/RoadVibrant?ms=92,112&key=AnTcaqBi2ypp0xI-OZNi4W_ik2KhjgpqioTAtXLC8GzkMBQRMlyxvxyTnd5b73im&c=en-US&ur=in&da=n&logo=n&fmt=png&od=1&shading=hill&pp=25.64237,78.451416;dfp"
  },
  {
    "name": "Agri Clinic and Agri Business Center",
    "address": "Gram Goraghat, Goraghat, Datia, Madhya Pradesh 475661",
    "phone": "Agri Clinic and Agri Business Center",
    "hours": null,
    "image_url": "https://www.bing.com/maps/geoplat/REST/v1/Imagery/Map/RoadVibrant?ms=92,112&key=AnTcaqBi2ypp0xI-OZNi4W_ik2KhjgpqioTAtXLC8GzkMBQRMlyxvxyTnd5b73im&c=en-US&ur=in&da=n&logo=n&fmt=png&od=1&shading=hill&pp=25.716063,78.494148;dfp"
  },
  {
    "name": "Dr Sachan's Homoeopathic Clinic",
    "address": "First Floor, Sipri Awas Vikas Road, Mubarak Market, Jhansi, Uttar Pradesh 284003",
    "phone": "Dr Sachan's Homoeopathic Clinic",
    "hours": "Open· Closes 13:30",
    "image_url": null
  },
  {
    "name": "Dr Tapan Sinha",
    "address": "Datia Gate Ander Road, Gurunanak Khalsa Scho, Chaman Gang, Jhansi, Uttar Pradesh 284003",
    "phone": "Dr Tapan Sinha",
    "hours": null,
    "image_url": "https://www.bing.com/maps/geoplat/REST/v1/Imagery/Map/RoadVibrant?ms=92,112&key=AnTcaqBi2ypp0xI-OZNi4W_ik2KhjgpqioTAtXLC8GzkMBQRMlyxvxyTnd5b73im&c=en-US&ur=in&da=n&logo=n&fmt=png&od=1&shading=hill&pp=25.455278,78.550095;dfp"
  },
  {
    "name": "Dr Krishna Gopal Dwivedi Ayurvedic Medical College And Hospital, Sarmau, Jhansi",
    "address": "Near, Karari, Sarmau, Uttar Pradesh",
    "phone": "Dr Krishna Gopal Dwivedi Ayurvedic Medical College And Hospital, Sarmau, Jhansi",
    "hours": null,
    "image_url": "https://www.bing.com/maps/geoplat/REST/v1/Imagery/Map/RoadVibrant?ms=92,112&key=AnTcaqBi2ypp0xI-OZNi4W_ik2KhjgpqioTAtXLC8GzkMBQRMlyxvxyTnd5b73im&c=en-US&ur=in&da=n&logo=n&fmt=png&od=1&shading=hill&pp=25.536043,78.484001;dfp"
  },
  {
    "name": "Dr. Tara Nigam",
    "address": "Gate no. 2, Omkar Bhawan, Karguan Road, in Front of MLB Medical College, Jhansi, Uttar Pradesh",
    "phone": "Dr. Tara Nigam",
    "hours": null,
    "image_url": "https://www.bing.com/maps/geoplat/REST/v1/Imagery/Map/RoadVibrant?ms=92,112&key=AnTcaqBi2ypp0xI-OZNi4W_ik2KhjgpqioTAtXLC8GzkMBQRMlyxvxyTnd5b73im&c=en-US&ur=in&da=n&logo=n&fmt=png&od=1&shading=hill&pp=25.45887,78.572121;dfp"
  },
  {
    "name": "Uday divya clinic and pathology",
    "address": "Gate no. 1, Jda Complex, Near Medical, Jhansi, Uttar Pradesh",
    "phone": "Uday divya clinic and pathology",
    "hours": null,
    "image_url": "https://www.bing.com/maps/geoplat/REST/v1/Imagery/Map/RoadVibrant?ms=92,112&key=AnTcaqBi2ypp0xI-OZNi4W_ik2KhjgpqioTAtXLC8GzkMBQRMlyxvxyTnd5b73im&c=en-US&ur=in&da=n&logo=n&fmt=png&od=1&shading=hill&pp=25.461201,78.569504;dfp"
  }
]