[
  {
    "name": "Dr.Suresh Kasana",
    "address": "Dausa, Rajasthan 301410",
    "phone": "Dr.Suresh Kasana",
    "hours": null,
    "image_url": "/th?id=OLC.CjFa%2biyKl5MuMQ480x360&w=92&h=112&c=8&rs=1&qlt=80&cdv=1&pid=Local"
  },
  {
    "name": "Dr. Dharmendra Rojwal",
    "address": "15, Dausa Road, Gathwari, Rajasthan 303303",
    "phone": "Dr. Dharmendra Rojwal",
    "hours": "Closed· Opens 16:00",
    "image_url": "https://www.bing.com/maps/geoplat/REST/v1/Imagery/Map/RoadVibrant?ms=92,134&key=AnTcaqBi2ypp0xI-OZNi4W_ik2KhjgpqioTAtXLC8GzkMBQRMlyxvxyTnd5b73im&c=en-US&ur=in&da=n&logo=n&fmt=png&od=1&shading=hill&pp=26.899837,76.332565;dfp"
  },
  {
    "name": "Dr. Ramashray Prasad- Ayurvedic Surgeon",
    "address": "Rameshwar Prasad's Clinic, Mishra Bhawan, A- 19, Khanwas Wale, Arawali Vihar, Vivekanand Colony, Pan…",
    "phone": "Dr. Ramashray Prasad- Ayurvedic Surgeon",
    "hours": "Closed· Opens 11:00",
    "image_url": "https://www.bing.com/maps/geoplat/REST/v1/Imagery/Map/RoadVibrant?ms=92,134&key=AnTcaqBi2ypp0xI-OZNi4W_ik2KhjgpqioTAtXLC8GzkMBQRMlyxvxyTnd5b73im&c=en-US&ur=in&da=n&logo=n&fmt=png&od=1&shading=hill&pp=26.894243,76.328819;dfp"
  },
  {
    "name": "Dr. Nitin Bhakal | Best Neurosurgeon  | Narayana Hospital",
    "address": "Nama Medical Store, Tudiyana, Dausa, Rajasthan 303303",
    "phone": "Dr. Nitin Bhakal | Best Neurosurgeon  | Narayana Hospital",
    "hours": "Closed· Opens tomorrow 10:00",
    "image_url": "https://www.bing.com/maps/geoplat/REST/v1/Imagery/Map/RoadVibrant?ms=92,134&key=AnTcaqBi2ypp0xI-OZNi4W_ik2KhjgpqioTAtXLC8GzkMBQRMlyxvxyTnd5b73im&c=en-US&ur=in&da=n&logo=n&fmt=png&od=1&shading=hill&pp=26.883194,76.334808;dfp"
  },
  {
    "name": "Shiv Clinic",
    "address": "Bandikui, Baswa, Sikandra Road Bandikui, Dausa, Rajasthan 303313",
    "phone": "Shiv Clinic",
    "hours": null,
    "image_url": "https://www.bing.com/maps/geoplat/REST/v1/Imagery/Map/RoadVibrant?ms=92,112&key=AnTcaqBi2ypp0xI-OZNi4W_ik2KhjgpqioTAtXLC8GzkMBQRMlyxvxyTnd5b73im&c=en-US&ur=in&da=n&logo=n&fmt=png&od=1&shading=hill&pp=26.902245,76.336166;dfp"
  },
  {
    "name": "Arogya Clinic",
    "address": "Nh11a, Naya Katla, Dausa, Rajasthan 303303",
    "phone": "Arogya Clinic",
    "hours": null,
    "image_url": "https://www.bing.com/maps/geoplat/REST/v1/Imagery/Map/RoadVibrant?ms=92,112&key=AnTcaqBi2ypp0xI-OZNi4W_ik2KhjgpqioTAtXLC8GzkMBQRMlyxvxyTnd5b73im&c=en-US&ur=in&da=n&logo=n&fmt=png&od=1&shading=hill&pp=26.889833,76.334419;dfp"
  },
  {
    "name": "Vinayak dental Hospital Dausa",
    "address": "Behind Poonam Cinema, Dausa, Rajasthan 303303",
    "phone": "Vinayak dental Hospital Dausa",
    "hours": null,
    "image_url": null
  },
  {
    "name": "Dr. Ghanshayam Khandelwal",
    "address": "Landmark: Behind Poonam Talkies, Dausa, Rajasthan",
    "phone": "Dr. Ghanshayam Khandelwal",
    "hours": "Open· Closes 18:00",
    "image_url": null
  },
  {
    "name": "Dr Kalyan Shay Clinic",
    "address": "City Road, Near Nh21, Dausa, Rajasthan 303501",
    "phone": "Dr Kalyan Shay Clinic",
    "hours": null,
    "image_url": "https://www.bing.com/maps/geoplat/REST/v1/Imagery/Map/RoadVibrant?ms=92,112&key=AnTcaqBi2ypp0xI-OZNi4W_ik2KhjgpqioTAtXLC8GzkMBQRMlyxvxyTnd5b73im&c=en-US&ur=in&da=n&logo=n&fmt=png&od=1&shading=hill&pp=26.909706,76.398094;dfp"
  },
  {
    "name": "Govind Agri Clinic and Agri Business Centre",
    "address": "Opp K V S S Naya Katila, Dausa, Rajasthan 303303",
    "phone": "Govind Agri Clinic and Agri Business Centre",
    "hours": null,
    "image_url": "https://www.bing.com/maps/geoplat/REST/v1/Imagery/Map/RoadVibrant?ms=92,112&key=AnTcaqBi2ypp0xI-OZNi4W_ik2KhjgpqioTAtXLC8GzkMBQRMlyxvxyTnd5b73im&c=en-US&ur=in&da=n&logo=n&fmt=png&od=1&shading=hill&pp=26.900343,76.334686;dfp"
  },
  {
    "name": "Dr. B. Lal Clinical Laboratory (Vyas Colony, Near Government Hospital, Dausa)",
    "address": "Vyas Colony Near Govt Hospital Lalsot Road, Dausa, Rajasthan 303303",
    "phone": "Dr. B. Lal Clinical Laboratory (Vyas Colony, Near Government Hospital, Dausa)",
    "hours": "Open· Closes 20:00",
    "image_url": null
  },
  {
    "name": "Dr Lal PathLabs - Patient Service Centre",
    "address": "Ground Floor, Mela Maidan Raod, Vikash Colony, Dausa, Rajasthan 303303",
    "phone": "Dr Lal PathLabs - Patient Service Centre",
    "hours": "Open· Closes 20:00",
    "image_url": "https://www.bing.com/maps/geoplat/REST/v1/Imagery/Map/RoadVibrant?ms=92,134&key=AnTcaqBi2ypp0xI-OZNi4W_ik2KhjgpqioTAtXLC8GzkMBQRMlyxvxyTnd5b73im&c=en-US&ur=in&da=n&logo=n&fmt=png&od=1&shading=hill&pp=26.900557,76.341797;dfp"
  },
  {
    "name": "Anant Diagnostic Centre",
    "address": "Lalsot Rd, Near R K Joshi Govt Hospital, Bhatiyara Mohalla, Dausa, Rajasthan",
    "phone": "Anant Diagnostic Centre",
    "hours": null,
    "image_url": null
  },
  {
    "name": "Balaji Dental Hospital",
    "address": "Lalsot Road, Dausa, Rajasthan 303303",
    "phone": "Balaji Dental Hospital",
    "hours": null,
    "image_url": null
  },
  {
    "name": "Dr.Prem Insa SMO",
    "address": "Shiv Colony, Mandawar Rd, Mahwa, Rajasthan",
    "phone": "Dr.Prem Insa SMO",
    "hours": null,
    "image_url": "https://www.bing.com/maps/geoplat/REST/v1/Imagery/Map/RoadVibrant?ms=92,112&key=AnTcaqBi2ypp0xI-OZNi4W_ik2KhjgpqioTAtXLC8GzkMBQRMlyxvxyTnd5b73im&c=en-US&ur=in&da=n&logo=n&fmt=png&od=1&shading=hill&pp=27.685778,76.617615;dfp"
  },
  {
    "name": "Shree Shyam Lab & Diagnostic Center",
    "address": "Shop NO-24, OPP. R K Joshi Govt Hospital, Lalsot Road, Dausa, Rajasthan 303303",
    "phone": "Shree Shyam Lab & Diagnostic Center",
    "hours": null,
    "image_url": "https://www.bing.com/maps/geoplat/REST/v1/Imagery/Map/RoadVibrant?ms=92,112&key=AnTcaqBi2ypp0xI-OZNi4W_ik2KhjgpqioTAtXLC8GzkMBQRMlyxvxyTnd5b73im&c=en-US&ur=in&da=n&logo=n&fmt=png&od=1&shading=hill&pp=26.891077,76.334274;dfp"
  },
  {
    "name": "Nawal Diagnostic & X - Ray Center",
    "address": "Near Shri R. K. Joshi Govt. Hospital, Dausa, Rajasthan 303303",
    "phone": "Nawal Diagnostic & X - Ray Center",
    "hours": null,
    "image_url": "https://www.bing.com/maps/geoplat/REST/v1/Imagery/Map/RoadVibrant?ms=92,112&key=AnTcaqBi2ypp0xI-OZNi4W_ik2KhjgpqioTAtXLC8GzkMBQRMlyxvxyTnd5b73im&c=en-US&ur=in&da=n&logo=n&fmt=png&od=1&shading=hill&pp=26.900166,76.334297;dfp"
  }
]