[
  {
    "name": "Dr. Mahesh Rajashekaraiah",
    "address": "5th Cross, P J Extension, Davangere, Karnataka",
    "phone": "Dr. Mahesh Rajashekaraiah",
    "hours": "Closed· Opens tomorrow 10:00",
    "image_url": "/th?id=OLC.phIfoB56N43esQ480x360&w=92&h=112&c=8&rs=1&qlt=80&cdv=1&pid=Local"
  },
  {
    "name": "Renuka Speciality clinic",
    "address": "Hkr Circle Opp To Medplus Shop, Nittuvalli New Extension, Davangere, Karnataka, Karnataka 577004",
    "phone": "Renuka Speciality clinic",
    "hours": null,
    "image_url": "/th?id=OLC.I2SEioiLdGhaTA480x360&w=92&h=112&c=8&rs=1&qlt=80&cdv=1&pid=Local"
  },
  {
    "name": "Dr. N H Krishna",
    "address": "358, Mahaveera Complex, Below Jain lab, Behind Mothi Veerappa College, 8th Main, P.J.Extension, Davangere…",
    "phone": "Dr. N H Krishna",
    "hours": "Opens in 14 mins",
    "image_url": "https://www.bing.com/maps/geoplat/REST/v1/Imagery/Map/RoadVibrant?ms=92,134&key=AnTcaqBi2ypp0xI-OZNi4W_ik2KhjgpqioTAtXLC8GzkMBQRMlyxvxyTnd5b73im&c=en-US&ur=in&da=n&logo=n&fmt=png&od=1&shading=hill&pp=14.459159,75.915276;dfp"
  },
  {
    "name": "Dr.Raghavendra Jigalikoppa",
    "address": "Raksha Health Care, Suraj Complex, Highschool Road, Vidya Nagar, Haveri, Karnataka",
    "phone": "Dr.Raghavendra Jigalikoppa",
    "hours": null,
    "image_url": "https://www.bing.com/maps/geoplat/REST/v1/Imagery/Map/RoadVibrant?ms=92,112&key=AnTcaqBi2ypp0xI-OZNi4W_ik2KhjgpqioTAtXLC8GzkMBQRMlyxvxyTnd5b73im&c=en-US&ur=in&da=n&logo=n&fmt=png&od=1&shading=hill&pp=14.454243,75.910934;dfp"
  },
  {
    "name": "Dr Manoj Kumar Pujar Sarveshwar",
    "address": "393/2 Main Road, Davangere, Karnataka 577004",
    "phone": "Dr Manoj Kumar Pujar Sarveshwar",
    "hours": null,
    "image_url": "https://www.bing.com/maps/geoplat/REST/v1/Imagery/Map/RoadVibrant?ms=92,112&key=AnTcaqBi2ypp0xI-OZNi4W_ik2KhjgpqioTAtXLC8GzkMBQRMlyxvxyTnd5b73im&c=en-US&ur=in&da=n&logo=n&fmt=png&od=1&shading=hill&pp=14.456052,75.92514;dfp"
  },
  {
    "name": "Dr Ajay Clinic",
    "address": "Hdfc Bank, Mcc A Block, P.J.Extension, Davangere, Karnataka 577002",
    "phone": "Dr Ajay Clinic",
    "hours": null,
    "image_url": "https://www.bing.com/maps/geoplat/REST/v1/Imagery/Map/RoadVibrant?ms=92,112&key=AnTcaqBi2ypp0xI-OZNi4W_ik2KhjgpqioTAtXLC8GzkMBQRMlyxvxyTnd5b73im&c=en-US&ur=in&da=n&logo=n&fmt=png&od=1&shading=hill&pp=14.459353,75.915344;dfp"
  },
  {
    "name": "Spire Clinic Davangere",
    "address": "1720, Hadadi Rd, KTJ Nagar, Nittuvalli, Davanagere, Karnataka",
    "phone": "Spire Clinic Davangere",
    "hours": "Open· Closes 21:00",
    "image_url": null
  },
  {
    "name": "Dr. Varun Chandra Alur",
    "address": "2nd Main, College Raod, Landmark: Opposite Idbi Bank, Davanagere 577004",
    "phone": "Dr. Varun Chandra Alur",
    "hours": "Open· Closes 15:30",
    "image_url": null
  },
  {
    "name": "Dr Suresh Kumar",
    "address": "PB Rd, Opposite Pooja International Hotel, Ellamma Nagar, Vinobha Nagar, Davanagere, Karnataka",
    "phone": "Dr Suresh Kumar",
    "hours": null,
    "image_url": "https://www.bing.com/maps/geoplat/REST/v1/Imagery/Map/RoadVibrant?ms=92,112&key=AnTcaqBi2ypp0xI-OZNi4W_ik2KhjgpqioTAtXLC8GzkMBQRMlyxvxyTnd5b73im&c=en-US&ur=in&da=n&logo=n&fmt=png&od=1&shading=hill&pp=14.464493,75.907684;dfp"
  },
  {
    "name": "Dr B M Vishwanath Clinic",
    "address": "3rd Cross, 4th Main Rd, MCC B Block, Kuvempu Nagar, Davanagere, Karnataka",
    "phone": "Dr B M Vishwanath Clinic",
    "hours": null,
    "image_url": "https://www.bing.com/maps/geoplat/REST/v1/Imagery/Map/RoadVibrant?ms=92,112&key=AnTcaqBi2ypp0xI-OZNi4W_ik2KhjgpqioTAtXLC8GzkMBQRMlyxvxyTnd5b73im&c=en-US&ur=in&da=n&logo=n&fmt=png&od=1&shading=hill&pp=14.44575,75.910439;dfp"
  },
  {
    "name": "Dr. Ranjitha S",
    "address": "5th Main Rd, Davangere, Karnataka",
    "phone": "Dr. Ranjitha S",
    "hours": "Open· Closes 13:30",
    "image_url": null
  },
  {
    "name": "Sai Vinayak Clinic",
    "address": "Medical College Road, Bapuji Eye Hospital, P J Extension, Davangere, Karnataka 577002",
    "phone": "Sai Vinayak Clinic",
    "hours": null,
    "image_url": "https://www.bing.com/maps/geoplat/REST/v1/Imagery/Map/RoadVibrant?ms=92,112&key=AnTcaqBi2ypp0xI-OZNi4W_ik2KhjgpqioTAtXLC8GzkMBQRMlyxvxyTnd5b73im&c=en-US&ur=in&da=n&logo=n&fmt=png&od=1&shading=hill&pp=14.459329,75.913994;dfp"
  },
  {
    "name": "Dr. Mallesh Puppanna",
    "address": "Balaji Hospital Road, Davangere, Karnataka 577004",
    "phone": "Dr. Mallesh Puppanna",
    "hours": null,
    "image_url": "https://www.bing.com/maps/geoplat/REST/v1/Imagery/Map/RoadVibrant?ms=92,112&key=AnTcaqBi2ypp0xI-OZNi4W_ik2KhjgpqioTAtXLC8GzkMBQRMlyxvxyTnd5b73im&c=en-US&ur=in&da=n&logo=n&fmt=png&od=1&shading=hill&pp=14.456468,75.918694;dfp"
  },
  {
    "name": "Dr. Rashmi V",
    "address": "5th Main Rd, Davangere, Karnataka",
    "phone": "Dr. Rashmi V",
    "hours": null,
    "image_url": "https://www.bing.com/maps/geoplat/REST/v1/Imagery/Map/RoadVibrant?ms=92,112&key=AnTcaqBi2ypp0xI-OZNi4W_ik2KhjgpqioTAtXLC8GzkMBQRMlyxvxyTnd5b73im&c=en-US&ur=in&da=n&logo=n&fmt=png&od=1&shading=hill&pp=14.462333,75.916054;dfp"
  },
  {
    "name": "Dr Ravindra Banakar for Member of MCI- Medical Council of India",
    "address": "429/1, 4th Main, 8th Cross, P.j. Extension, Davangere, Karnataka, Karnataka 577002",
    "phone": "Dr Ravindra Banakar for Member of MCI- Medical Council of India",
    "hours": null,
    "image_url": "https://www.bing.com/maps/geoplat/REST/v1/Imagery/Map/RoadVibrant?ms=92,112&key=AnTcaqBi2ypp0xI-OZNi4W_ik2KhjgpqioTAtXLC8GzkMBQRMlyxvxyTnd5b73im&c=en-US&ur=in&da=n&logo=n&fmt=png&od=1&shading=hill&pp=14.464355,75.917084;dfp"
  },
  {
    "name": "Jadhav Clinic",
    "address": "Havele, Trishul Theater Road, 7Th Ward, Davangere, Karnataka 577002",
    "phone": "Jadhav Clinic",
    "hours": null,
    "image_url": null
  },
  {
    "name": "Adarsh Clinic",
    "address": "P B Road, Davangere 577002",
    "phone": "Adarsh Clinic",
    "hours": null,
    "image_url": "https://www.bing.com/maps/geoplat/REST/v1/Imagery/Map/RoadVibrant?ms=92,112&key=AnTcaqBi2ypp0xI-OZNi4W_ik2KhjgpqioTAtXLC8GzkMBQRMlyxvxyTnd5b73im&c=en-US&ur=in&da=n&logo=n&fmt=png&od=1&shading=hill&pp=14.467353,75.918304;dfp"
  },
  {
    "name": "Dr Batra's Homeopathy",
    "address": "No 482/1/4, 9th Division, 4th Main Rd, 5th Ward, Prince Jayachamaraja Wodeyar, Davangere, Karnataka 577002",
    "phone": "Dr Batra's Homeopathy",
    "hours": "Closed· Opens 11:00",
    "image_url": null
  }
]