[
  {
    "name": "Arogyam Ayurvedic Clinic",
    "address": "Near Govt. Hospital Kadalimunda Jamankira Sambalpur Odisha Bharat ., Sambalpur, Odisha",
    "phone": "Arogyam Ayurvedic Clinic",
    "hours": null,
    "image_url": "/th?id=OLC.NhNEi%2bT33oIlWw480x360&w=92&h=112&c=8&rs=1&qlt=80&cdv=1&pid=Local"
  },
  {
    "name": "Office of Dr Raseswari Panigrahi",
    "address": "Bhima Bhoi Road, Shanti Nagar, Sambalpur, Odisha, Shanti Nagar, Uttarakhand 768004",
    "phone": "Office of Dr Raseswari Panigrahi",
    "hours": "Open· Closes 13:30",
    "image_url": "https://www.bing.com/maps/geoplat/REST/v1/Imagery/Map/RoadVibrant?ms=92,134&key=AnTcaqBi2ypp0xI-OZNi4W_ik2KhjgpqioTAtXLC8GzkMBQRMlyxvxyTnd5b73im&c=en-US&ur=in&da=n&logo=n&fmt=png&od=1&shading=hill&pp=21.482403,83.97744;dfp"
  },
  {
    "name": "Balaji Clinic, Dr Balaji",
    "address": "Dhanupali, Sambalpur, Odisha 768005",
    "phone": "Balaji Clinic, Dr Balaji",
    "hours": null,
    "image_url": "/th?id=OLC.27cA71EbjKmoMw480x360&w=92&h=112&c=8&rs=1&qlt=80&cdv=1&pid=Local"
  },
  {
    "name": "Shuddhi Clinic Sambalpur",
    "address": "Near Sambalpur Jail, Bhutapada Chowk, Sambalpur Town, Infront Of Labour Office, Sambalpur 768001",
    "phone": "Shuddhi Clinic Sambalpur",
    "hours": "Open· Closes 18:00",
    "image_url": "/th?id=OLC.dHW5A8xDezA2cw480x360&w=92&h=134&c=8&rs=1&qlt=80&cdv=1&pid=Local"
  },
  {
    "name": "Primary Health Centre",
    "address": "Kundheigola, Nh200 Raipur Chandikhol Highway, Deogarh, Odisha 768109",
    "phone": "Primary Health Centre",
    "hours": null,
    "image_url": "https://www.bing.com/maps/geoplat/REST/v1/Imagery/Map/RoadVibrant?ms=92,112&key=AnTcaqBi2ypp0xI-OZNi4W_ik2KhjgpqioTAtXLC8GzkMBQRMlyxvxyTnd5b73im&c=en-US&ur=in&da=n&logo=n&fmt=png&od=1&shading=hill&pp=21.355476,84.687668;dfp"
  },
  {
    "name": "NANDY'S Multi-Speciality Clinic & Diagnostic Centre",
    "address": "Main Road Budharaja, Girish Colony, Near Jockey & Arvind Store, Sambalpur, Odisha 768004",
    "phone": "NANDY'S Multi-Speciality Clinic & Diagnostic Centre",
    "hours": "Open· Closes 21:00",
    "image_url": "/th?id=OLC.hHG5jyF63W8Yzw480x360&w=92&h=134&c=8&rs=1&qlt=80&cdv=1&pid=Local"
  },
  {
    "name": "Dr Gautam Satpathi Clinic",
    "address": "G M College Road, Mahamaya Associates, Mahaveer Colony, Sambalpur, Odisha 768001",
    "phone": "Dr Gautam Satpathi Clinic",
    "hours": null,
    "image_url": "https://www.bing.com/maps/geoplat/REST/v1/Imagery/Map/RoadVibrant?ms=92,112&key=AnTcaqBi2ypp0xI-OZNi4W_ik2KhjgpqioTAtXLC8GzkMBQRMlyxvxyTnd5b73im&c=en-US&ur=in&da=n&logo=n&fmt=png&od=1&shading=hill&pp=21.474451,83.976868;dfp"
  },
  {
    "name": "Dr B B Mishra Clinic",
    "address": "Choti Sadak Road, Priya Beauty Parlour, Jhaduapada, Sambalpur, Odisha 768001",
    "phone": "Dr B B Mishra Clinic",
    "hours": null,
    "image_url": "https://www.bing.com/maps/geoplat/REST/v1/Imagery/Map/RoadVibrant?ms=92,112&key=AnTcaqBi2ypp0xI-OZNi4W_ik2KhjgpqioTAtXLC8GzkMBQRMlyxvxyTnd5b73im&c=en-US&ur=in&da=n&logo=n&fmt=png&od=1&shading=hill&pp=21.465853,83.970627;dfp"
  },
  {
    "name": "Varasha Clinic",
    "address": "Deula Beda, Sharma, Chhak, Talcher, Odisha",
    "phone": "Varasha Clinic",
    "hours": null,
    "image_url": "https://www.bing.com/maps/geoplat/REST/v1/Imagery/Map/RoadVibrant?ms=92,112&key=AnTcaqBi2ypp0xI-OZNi4W_ik2KhjgpqioTAtXLC8GzkMBQRMlyxvxyTnd5b73im&c=en-US&ur=in&da=n&logo=n&fmt=png&od=1&shading=hill&pp=20.9457,85.211403;dfp"
  },
  {
    "name": "PB Clinic, Dr A Satpathy",
    "address": "Govindtola, Sambalpur, Odisha 768005",
    "phone": "PB Clinic, Dr A Satpathy",
    "hours": null,
    "image_url": "https://www.bing.com/maps/geoplat/REST/v1/Imagery/Map/RoadVibrant?ms=92,112&key=AnTcaqBi2ypp0xI-OZNi4W_ik2KhjgpqioTAtXLC8GzkMBQRMlyxvxyTnd5b73im&c=en-US&ur=in&da=n&logo=n&fmt=png&od=1&shading=hill&pp=21.450788,83.988762;dfp"
  },
  {
    "name": "Dr Giridhari Pradhan Clinic",
    "address": "Pani Tanki Road, Sambalpur Tent House, Fatak, Sambalpur, Odisha 768002",
    "phone": "Dr Giridhari Pradhan Clinic",
    "hours": null,
    "image_url": "https://www.bing.com/maps/geoplat/REST/v1/Imagery/Map/RoadVibrant?ms=92,112&key=AnTcaqBi2ypp0xI-OZNi4W_ik2KhjgpqioTAtXLC8GzkMBQRMlyxvxyTnd5b73im&c=en-US&ur=in&da=n&logo=n&fmt=png&od=1&shading=hill&pp=21.472879,83.973213;dfp"
  },
  {
    "name": "Vidya Patho Clinic, Dr S Mishra",
    "address": "Modipara, Sambalpur, Odisha 768002",
    "phone": "Vidya Patho Clinic, Dr S Mishra",
    "hours": null,
    "image_url": null
  },
  {
    "name": "Dr.Jitesh Sharma M.D.(Homoeopath)",
    "address": "Power House Road, Sarbahal, Jharsuguda, Odisha",
    "phone": "Dr.Jitesh Sharma M.D.(Homoeopath)",
    "hours": "Open· Closes 13:00",
    "image_url": null
  },
  {
    "name": "Dr. Deoshlok Sharma, Town Clinic",
    "address": "Jds Homeopathic Hospital, Jharsuguda, Odisha, Odisha 768201",
    "phone": "Dr. Deoshlok Sharma, Town Clinic",
    "hours": "Open· Closes 17:00",
    "image_url": null
  },
  {
    "name": "Dr. B Mukherjee",
    "address": "Sector 22, Rourkela 7, Orissa",
    "phone": "Dr. B Mukherjee",
    "hours": "Closed· Opens Sep 28 at 18:30",
    "image_url": "https://www.bing.com/maps/geoplat/REST/v1/Imagery/Map/RoadVibrant?ms=92,112&key=AnTcaqBi2ypp0xI-OZNi4W_ik2KhjgpqioTAtXLC8GzkMBQRMlyxvxyTnd5b73im&c=en-US&ur=in&da=n&logo=n&fmt=png&od=1&shading=hill&pp=22.189272,84.857536;dfp"
  },
  {
    "name": "Dr. Biswaranjita sahoo | Immunologist | Kamadhenu ayurvedic clinic",
    "address": "Kamadhenu Ayurvedic Clinic, Sankar Cinema Road, Angul, Odisha, India, 759122, Angul, Madhya Pradesh …",
    "phone": "Dr. Biswaranjita sahoo | Immunologist | Kamadhenu ayurvedic clinic",
    "hours": "Open· Closes 11:30",
    "image_url": null
  },
  {
    "name": "Daya Rupa Medicines",
    "address": "Kadampadia Market Complex, Room No-22, Ground Floor, Bus Stand, Angul, Dhenkanal, Odisha 759122",
    "phone": "Daya Rupa Medicines",
    "hours": null,
    "image_url": null
  },
  {
    "name": "Masterdoctor Clinic - Sonepur - Best Diabetes Clinic with Best Diabetologist Dr B Jagadish",
    "address": "Remedy Medical Store, SBI Road, Near Union Bank, Sonepur 767017",
    "phone": "Masterdoctor Clinic - Sonepur - Best Diabetes Clinic with Best Diabetologist Dr B Jagadish",
    "hours": "Open· Closes 21:00",
    "image_url": "https://www.bing.com/maps/geoplat/REST/v1/Imagery/Map/RoadVibrant?ms=92,134&key=AnTcaqBi2ypp0xI-OZNi4W_ik2KhjgpqioTAtXLC8GzkMBQRMlyxvxyTnd5b73im&c=en-US&ur=in&da=n&logo=n&fmt=png&od=1&shading=hill&pp=20.844467,83.909515;dfp"
  }
]