[
  {
    "name": "Dr S S GUPTA Clinic",
    "address": "Govind Palace, Gusain Chowk, Shyampur, Premnagar, Dehra Dun, Uttarakhand 248001",
    "phone": "Dr S S GUPTA Clinic",
    "hours": null,
    "image_url": "/th?id=OLC.wgAuSdQSn7TuSA480x360&w=92&h=112&c=8&rs=1&qlt=80&cdv=1&pid=Local"
  },
  {
    "name": "Dr Hakeem Aamir Incurable Disease Cure Centre",
    "address": "Dhamawala Bazar Chock Near Hotel Embassy, Dehra Dun, Uttarakhand",
    "phone": "Dr Hakeem Aamir Incurable Disease Cure Centre",
    "hours": null,
    "image_url": "https://www.bing.com/maps/geoplat/REST/v1/Imagery/Map/RoadVibrant?ms=92,112&key=AnTcaqBi2ypp0xI-OZNi4W_ik2KhjgpqioTAtXLC8GzkMBQRMlyxvxyTnd5b73im&c=en-US&ur=in&da=n&logo=n&fmt=png&od=1&shading=hill&pp=30.316631,78.033066;dfp"
  },
  {
    "name": "Dr. Maratha Clinic",
    "address": "Rajpur Road, Bhel Chowk, Meedo Plaza, Shop no C -15, Behind Crossroad Mall, Near - Sai Institute, Dehradun  …",
    "phone": "Dr. Maratha Clinic",
    "hours": null,
    "image_url": "https://www.bing.com/maps/geoplat/REST/v1/Imagery/Map/RoadVibrant?ms=92,112&key=AnTcaqBi2ypp0xI-OZNi4W_ik2KhjgpqioTAtXLC8GzkMBQRMlyxvxyTnd5b73im&c=en-US&ur=in&da=n&logo=n&fmt=png&od=1&shading=hill&pp=30.324608,78.017136;dfp"
  },
  {
    "name": "Dr. Sneha Sarin's Smilecraft",
    "address": "168, Arhat Bazar, Saharanpur Road, Lakshman Chowk, Opposite Hotel Narula, Dehra Dun Uttarakhand, Uttara…",
    "phone": "Dr. Sneha Sarin's Smilecraft",
    "hours": "Open· Closes 14:00",
    "image_url": "/th?id=OLC.K%2bIwvL6iRXHVtw480x360&w=92&h=134&c=8&rs=1&qlt=80&cdv=1&pid=Local"
  },
  {
    "name": "Dr Dhir Clinic",
    "address": "57 A, Araghar, Dalanwala, Dehradun, Uttarakhand",
    "phone": "Dr Dhir Clinic",
    "hours": null,
    "image_url": "https://www.bing.com/maps/geoplat/REST/v1/Imagery/Map/RoadVibrant?ms=92,112&key=AnTcaqBi2ypp0xI-OZNi4W_ik2KhjgpqioTAtXLC8GzkMBQRMlyxvxyTnd5b73im&c=en-US&ur=in&da=n&logo=n&fmt=png&od=1&shading=hill&pp=30.30773,78.053871;dfp"
  },
  {
    "name": "Dr. Anoop Kaushal (Keshav ENT Hospital) - Hearing AID Machine/Thyroid/Neck/Ear/Nose/Throat/Best ENT Doctor",
    "address": "General Mahadev Singh Road, Sewla Kalan, Majra, Dehradun, Uttarakhand 248171",
    "phone": "Dr. Anoop Kaushal (Keshav ENT Hospital) - Hearing AID Machine/Thyroid/Neck/Ear/Nose/Throat/Best ENT Doctor",
    "hours": "Open 24 hours",
    "image_url": "https://www.bing.com/maps/geoplat/REST/v1/Imagery/Map/RoadVibrant?ms=92,134&key=AnTcaqBi2ypp0xI-OZNi4W_ik2KhjgpqioTAtXLC8GzkMBQRMlyxvxyTnd5b73im&c=en-US&ur=in&da=n&logo=n&fmt=png&od=1&shading=hill&pp=30.299599,78.001266;dfp"
  },
  {
    "name": "Dr. Vidushi Jyala Jain",
    "address": "Arihant Hospital Multi Speciality Hospital, 18, Main Haridwar Rd, Shastri Nagar, Ajabpur Kalan, Dehradun, …",
    "phone": "Dr. Vidushi Jyala Jain",
    "hours": "Closed· Opens 11:00",
    "image_url": null
  },
  {
    "name": "Dr J.P.Sharma Clinic",
    "address": "Majra, Hilton School, Saharanpur Road, Nh72a, Dehradun, Uttarakhand 248001",
    "phone": "Dr J.P.Sharma Clinic",
    "hours": null,
    "image_url": "https://www.bing.com/maps/geoplat/REST/v1/Imagery/Map/RoadVibrant?ms=92,112&key=AnTcaqBi2ypp0xI-OZNi4W_ik2KhjgpqioTAtXLC8GzkMBQRMlyxvxyTnd5b73im&c=en-US&ur=in&da=n&logo=n&fmt=png&od=1&shading=hill&pp=30.294191,78.001862;dfp"
  },
  {
    "name": "Dr. Varun Sarin",
    "address": "168, Arhat Bazar, Saharanpur Road, Dehradun, Uttarakhand 248001",
    "phone": "Dr. Varun Sarin",
    "hours": "Open· Closes 13:00",
    "image_url": null
  },
  {
    "name": "Dr Anand Yadav Dehradun",
    "address": "Near Ganesh Chowk, Bindal Road, Dehradun, Uttarakhand 248001",
    "phone": "Dr Anand Yadav Dehradun",
    "hours": null,
    "image_url": null
  },
  {
    "name": "Dr. Diwan Singh",
    "address": "7, Court Road, Race Course, Dehradun, Uttarakhand 248001",
    "phone": "Dr. Diwan Singh",
    "hours": "Open· Closes 15:00",
    "image_url": "https://www.bing.com/maps/geoplat/REST/v1/Imagery/Map/RoadVibrant?ms=92,134&key=AnTcaqBi2ypp0xI-OZNi4W_ik2KhjgpqioTAtXLC8GzkMBQRMlyxvxyTnd5b73im&c=en-US&ur=in&da=n&logo=n&fmt=png&od=1&shading=hill&pp=30.320263,78.041679;dfp"
  },
  {
    "name": "Dr. Arvinder Dang Homoeopathic Clinic",
    "address": "14/12 Race Course, Dehradun, Uttarakhand 248001",
    "phone": "Dr. Arvinder Dang Homoeopathic Clinic",
    "hours": null,
    "image_url": null
  },
  {
    "name": "Dr. Jitendra Uniyal Clinic",
    "address": "Rawal Nursing Home, EC Road, Dalanwala, Dehradun, Uttarakhand",
    "phone": "Dr. Jitendra Uniyal Clinic",
    "hours": null,
    "image_url": "https://www.bing.com/maps/geoplat/REST/v1/Imagery/Map/RoadVibrant?ms=92,112&key=AnTcaqBi2ypp0xI-OZNi4W_ik2KhjgpqioTAtXLC8GzkMBQRMlyxvxyTnd5b73im&c=en-US&ur=in&da=n&logo=n&fmt=png&od=1&shading=hill&pp=30.312288,78.047531;dfp"
  },
  {
    "name": "Max Super Speciality Hospital",
    "address": "Mussoorie Diversion Road, Dehradun, Uttarakhand 248001",
    "phone": "Max Super Speciality Hospital",
    "hours": "Open· Closes 17:00",
    "image_url": null
  },
  {
    "name": "Dr. Ankur Katiyar",
    "address": "Shop No-1, Nishima Complex, Nehru Colony, Near Chanchal Sweet Shop, Dehradun, Uttarakhand 248001",
    "phone": "Dr. Ankur Katiyar",
    "hours": "Open· Closes 14:00",
    "image_url": "https://www.bing.com/maps/geoplat/REST/v1/Imagery/Map/RoadVibrant?ms=92,134&key=AnTcaqBi2ypp0xI-OZNi4W_ik2KhjgpqioTAtXLC8GzkMBQRMlyxvxyTnd5b73im&c=en-US&ur=in&da=n&logo=n&fmt=png&od=1&shading=hill&pp=30.298359,78.0513;dfp"
  },
  {
    "name": "Apollo Clinic Dehradun",
    "address": "Melody Cottage, 8, 4-1, Ballupur Road, Dehradun, Uttarakhand 248001",
    "phone": "Apollo Clinic Dehradun",
    "hours": "Open· Closes 18:00",
    "image_url": null
  },
  {
    "name": "Dr. S D Joshi Clinic",
    "address": "Aasha Hospital, Badripur Road, Jogiwala, Dehradun, Uttarakhand 248001",
    "phone": "Dr. S D Joshi Clinic",
    "hours": null,
    "image_url": "https://www.bing.com/maps/geoplat/REST/v1/Imagery/Map/RoadVibrant?ms=92,112&key=AnTcaqBi2ypp0xI-OZNi4W_ik2KhjgpqioTAtXLC8GzkMBQRMlyxvxyTnd5b73im&c=en-US&ur=in&da=n&logo=n&fmt=png&od=1&shading=hill&pp=30.283787,78.065414;dfp"
  },
  {
    "name": "Dr Bhavin Brahmbhatt, Nephrologist (Sovin Kidney Clinic)",
    "address": "G 14/15, Race Course, Near Mla Hostel, Dehra Dun, Uttarakhand, Uttarakhand 248001",
    "phone": "Dr Bhavin Brahmbhatt, Nephrologist (Sovin Kidney Clinic)",
    "hours": null,
    "image_url": "https://www.bing.com/maps/geoplat/REST/v1/Imagery/Map/RoadVibrant?ms=92,112&key=AnTcaqBi2ypp0xI-OZNi4W_ik2KhjgpqioTAtXLC8GzkMBQRMlyxvxyTnd5b73im&c=en-US&ur=in&da=n&logo=n&fmt=png&od=1&shading=hill&pp=30.309908,78.046928;dfp"
  }
]