[
  {
    "name": "Ajay Sudha Clinic",
    "address": "Kunj Bihar Road, Deoghar, Jharkhand 814112",
    "phone": "Ajay Sudha Clinic",
    "hours": "Open· Closes 20:00",
    "image_url": "/th?id=OLC.Tt8kXXxDopdjOA480x360&w=92&h=134&c=8&rs=1&qlt=80&cdv=1&pid=Local"
  },
  {
    "name": "Dr. Akanksha Verma",
    "address": "Asharam Keshan Road, Near Baidyanathdham Station, Castairs Town, Deoghar, Jharkhand",
    "phone": "Dr. Akanksha Verma",
    "hours": null,
    "image_url": "/th?id=OLC.LNV9yOGzI0gKjw480x360&w=92&h=112&c=8&rs=1&qlt=80&cdv=1&pid=Local"
  },
  {
    "name": "Shree Amarnath Medical & CSC स्वस्थम केंद्र- सह- Digital Doctor Kendra",
    "address": "NH 80 Main Road Madansahi Fatak, Near Hanuman Mandir, Sahibganj, Jharkhand",
    "phone": "Shree Amarnath Medical & CSC स्वस्थम केंद्र- सह- Digital Doctor Kendra",
    "hours": null,
    "image_url": "/th?id=OLC.6IOKT919Y%2b%2bhUg480x360&w=92&h=112&c=8&rs=1&qlt=80&cdv=1&pid=Local"
  },
  {
    "name": "Dr. Kumar Gauraw",
    "address": "Angali Niwas SSM Jalan Road, Deoghar, Jharkhand 814112",
    "phone": "Dr. Kumar Gauraw",
    "hours": null,
    "image_url": "https://www.bing.com/maps/geoplat/REST/v1/Imagery/Map/RoadVibrant?ms=92,112&key=AnTcaqBi2ypp0xI-OZNi4W_ik2KhjgpqioTAtXLC8GzkMBQRMlyxvxyTnd5b73im&c=en-US&ur=in&da=n&logo=n&fmt=png&od=1&shading=hill&pp=24.487555,86.696594;dfp"
  },
  {
    "name": "Dr. Ashish Soy",
    "address": "Shiva Hospital, Castairs Town, Bajla Chowk, Deoghar, Jharkhand",
    "phone": "Dr. Ashish Soy",
    "hours": null,
    "image_url": "https://www.bing.com/maps/geoplat/REST/v1/Imagery/Map/RoadVibrant?ms=92,112&key=AnTcaqBi2ypp0xI-OZNi4W_ik2KhjgpqioTAtXLC8GzkMBQRMlyxvxyTnd5b73im&c=en-US&ur=in&da=n&logo=n&fmt=png&od=1&shading=hill&pp=24.48542,86.694801;dfp"
  },
  {
    "name": "JIO Medical Aadhers Clinic",
    "address": "Bes Station Rd, Bes, Jharkhand",
    "phone": "JIO Medical Aadhers Clinic",
    "hours": null,
    "image_url": "https://www.bing.com/maps/geoplat/REST/v1/Imagery/Map/RoadVibrant?ms=92,112&key=AnTcaqBi2ypp0xI-OZNi4W_ik2KhjgpqioTAtXLC8GzkMBQRMlyxvxyTnd5b73im&c=en-US&ur=in&da=n&logo=n&fmt=png&od=1&shading=hill&pp=24.487421,86.690666;dfp"
  },
  {
    "name": "Dr Pradeep Kumar Jha Child Specialist",
    "address": "Asha Ram Keshan Rd, Opposite Kalimandir, Castairs Town, Bompas Town, Deoghar, Jharkhand",
    "phone": "Dr Pradeep Kumar Jha Child Specialist",
    "hours": null,
    "image_url": null
  },
  {
    "name": "Gurukripa Clinic Dr P.Ranjan",
    "address": "Rani Kothi East, Near B.ed. College, Williams Town, Deoghar, Jharkhand",
    "phone": "Gurukripa Clinic Dr P.Ranjan",
    "hours": null,
    "image_url": "https://www.bing.com/maps/geoplat/REST/v1/Imagery/Map/RoadVibrant?ms=92,112&key=AnTcaqBi2ypp0xI-OZNi4W_ik2KhjgpqioTAtXLC8GzkMBQRMlyxvxyTnd5b73im&c=en-US&ur=in&da=n&logo=n&fmt=png&od=1&shading=hill&pp=24.498749,86.691734;dfp"
  },
  {
    "name": "H.F.B Clinic",
    "address": "Pari Rd, Williams Town, Deoghar, Jharkhand",
    "phone": "H.F.B Clinic",
    "hours": null,
    "image_url": "https://www.bing.com/maps/geoplat/REST/v1/Imagery/Map/RoadVibrant?ms=92,112&key=AnTcaqBi2ypp0xI-OZNi4W_ik2KhjgpqioTAtXLC8GzkMBQRMlyxvxyTnd5b73im&c=en-US&ur=in&da=n&logo=n&fmt=png&od=1&shading=hill&pp=24.501066,86.692863;dfp"
  },
  {
    "name": "Dr Manjusha Jha Eye surgeon MBBS(AFMC) DOMS Dip NB",
    "address": "Asharam Kesan Road, Opposite Kalimandir, Castairs Town, Bompas Town, Deoghar, Jharkhand",
    "phone": "Dr Manjusha Jha Eye surgeon MBBS(AFMC) DOMS Dip NB",
    "hours": null,
    "image_url": "https://www.bing.com/maps/geoplat/REST/v1/Imagery/Map/RoadVibrant?ms=92,112&key=AnTcaqBi2ypp0xI-OZNi4W_ik2KhjgpqioTAtXLC8GzkMBQRMlyxvxyTnd5b73im&c=en-US&ur=in&da=n&logo=n&fmt=png&od=1&shading=hill&pp=24.484596,86.703987;dfp"
  },
  {
    "name": "New Born & Child Clinic",
    "address": "Baidyanathdham, Station Rd, Castairs Town, Deoghar, Jharkhand 814112",
    "phone": "New Born & Child Clinic",
    "hours": null,
    "image_url": null
  },
  {
    "name": "Natural Speech & Hearing Clinic",
    "address": "Sarojani Complex ( Basement), Inftont OF Bajla House, Near SBI ATM, Bajla Chowk, Castair's Town, Deoghar, …",
    "phone": "Natural Speech & Hearing Clinic",
    "hours": "Open· Closes 19:00",
    "image_url": null
  },
  {
    "name": "Dr.zakir Husain Institute Deoghar",
    "address": "Fpx4+f5c, Chandra Dutta Dwari Path, Bilasi Town, Deoghar, Jharkhand 814122, Deoghar, Deoghar 814122",
    "phone": "Dr.zakir Husain Institute Deoghar",
    "hours": null,
    "image_url": "https://www.bing.com/maps/geoplat/REST/v1/Imagery/Map/RoadVibrant?ms=92,112&key=AnTcaqBi2ypp0xI-OZNi4W_ik2KhjgpqioTAtXLC8GzkMBQRMlyxvxyTnd5b73im&c=en-US&ur=in&da=n&logo=n&fmt=png&od=1&shading=hill&pp=24.507076,86.672256;dfp"
  },
  {
    "name": "Dr.A.Kumar's Pathology",
    "address": "House no.- 130, Solanki Bhawan Pandit Jee Road, Jharkhand",
    "phone": "Dr.A.Kumar's Pathology",
    "hours": null,
    "image_url": null
  },
  {
    "name": "Dr Lal PathLabs",
    "address": "Baijnathpur, Dumka Road, Deoghar, Jharkhand - 814112, Deoghar, Jharkhand 814112",
    "phone": "Dr Lal PathLabs",
    "hours": "Open· Closes 19:30",
    "image_url": "https://www.bing.com/maps/geoplat/REST/v1/Imagery/Map/RoadVibrant?ms=92,134&key=AnTcaqBi2ypp0xI-OZNi4W_ik2KhjgpqioTAtXLC8GzkMBQRMlyxvxyTnd5b73im&c=en-US&ur=in&da=n&logo=n&fmt=png&od=1&shading=hill&pp=24.49106,86.697403;dfp"
  },
  {
    "name": "Sunil Kumar Keshri",
    "address": "Khadigramodhyog Jhousagarhi Jhousagarhi Road, Deoghar, Jharkhand 814112",
    "phone": "Sunil Kumar Keshri",
    "hours": null,
    "image_url": "https://www.bing.com/maps/geoplat/REST/v1/Imagery/Map/RoadVibrant?ms=92,112&key=AnTcaqBi2ypp0xI-OZNi4W_ik2KhjgpqioTAtXLC8GzkMBQRMlyxvxyTnd5b73im&c=en-US&ur=in&da=n&logo=n&fmt=png&od=1&shading=hill&pp=24.50634,86.690384;dfp"
  },
  {
    "name": "Muskan Dental Care & Orthodontic Center",
    "address": "Opposite Sbi, Pbb, Bajla Chowk, Castairs Town, Deoghar, Deoghar 814112",
    "phone": "Muskan Dental Care & Orthodontic Center",
    "hours": null,
    "image_url": "https://www.bing.com/maps/geoplat/REST/v1/Imagery/Map/RoadVibrant?ms=92,112&key=AnTcaqBi2ypp0xI-OZNi4W_ik2KhjgpqioTAtXLC8GzkMBQRMlyxvxyTnd5b73im&c=en-US&ur=in&da=n&logo=n&fmt=png&od=1&shading=hill&pp=24.495537,86.683136;dfp"
  }
]