[
  {
    "name": "JN Clinic Deoria",
    "address": "Tubewell Colony Near State Bank ATM, Deoria, Uttar Pradesh 274001",
    "phone": "JN Clinic Deoria",
    "hours": "Open· Closes 18:00",
    "image_url": "/th?id=OLC.vxUtypS6WPHaBw480x360&w=92&h=134&c=8&rs=1&qlt=80&cdv=1&pid=Local"
  },
  {
    "name": "Dr. Sameer Yadav- General Surgeon",
    "address": "Kashi Hospital, Police Line, Near District Hosptial, Tubewell Colony, Deoria, Uttar Pradesh 274001",
    "phone": "Dr. Sameer Yadav- General Surgeon",
    "hours": "Closed· Opens 11:00",
    "image_url": "https://www.bing.com/maps/geoplat/REST/v1/Imagery/Map/RoadVibrant?ms=92,134&key=AnTcaqBi2ypp0xI-OZNi4W_ik2KhjgpqioTAtXLC8GzkMBQRMlyxvxyTnd5b73im&c=en-US&ur=in&da=n&logo=n&fmt=png&od=1&shading=hill&pp=26.492653,83.784409;dfp"
  },
  {
    "name": "Dr Singh Ent Hospital",
    "address": "Near B.R.D. Inter College, New Colony, Deoria, Uttar Pradesh, Uttar Pradesh 274001",
    "phone": "Dr Singh Ent Hospital",
    "hours": null,
    "image_url": "/th?id=OLC.7GHk%2f35%2bZQWclQ480x360&w=92&h=112&c=8&rs=1&qlt=80&cdv=1&pid=Local"
  },
  {
    "name": "Dr. Sanjay Kumar Malani",
    "address": "Sant Binoba Road, Jalkal Complex, New Colony Saket Nagar, Deoria, Uttar Pradesh 274807",
    "phone": "Dr. Sanjay Kumar Malani",
    "hours": "Open· Closes 15:00",
    "image_url": "https://www.bing.com/maps/geoplat/REST/v1/Imagery/Map/RoadVibrant?ms=92,112&key=AnTcaqBi2ypp0xI-OZNi4W_ik2KhjgpqioTAtXLC8GzkMBQRMlyxvxyTnd5b73im&c=en-US&ur=in&da=n&logo=n&fmt=png&od=1&shading=hill&pp=26.49752,83.785927;dfp"
  },
  {
    "name": "Dr J.M.Tripathi",
    "address": "Pragya Homoeo Clinic, Deoria, Uttar Pradesh, Uttar Pradesh 274001",
    "phone": "Dr J.M.Tripathi",
    "hours": "Open· Closes 14:00",
    "image_url": "/th?id=OLC.eN50dVfjJLkf9g480x360&w=92&h=112&c=8&rs=1&qlt=80&cdv=1&pid=Local"
  },
  {
    "name": "Dr Vijay Kumar Mishra",
    "address": "Tilak Road, Vaishno Katra, Nai Bazar Raghav Nagar, Deoria, Uttar Pradesh 274807",
    "phone": "Dr Vijay Kumar Mishra",
    "hours": null,
    "image_url": "/th?id=OLC.Z%2bgbqyS3hNXU8A480x360&w=92&h=112&c=8&rs=1&qlt=80&cdv=1&pid=Local"
  },
  {
    "name": "Dr. Ashok Rai (Gynecologists)",
    "address": "Savitri Hospital, Deoria - Barhaj Rd, Near iti College, Deoria, Uttar Pradesh",
    "phone": "Dr. Ashok Rai (Gynecologists)",
    "hours": null,
    "image_url": "https://www.bing.com/maps/geoplat/REST/v1/Imagery/Map/RoadVibrant?ms=92,112&key=AnTcaqBi2ypp0xI-OZNi4W_ik2KhjgpqioTAtXLC8GzkMBQRMlyxvxyTnd5b73im&c=en-US&ur=in&da=n&logo=n&fmt=png&od=1&shading=hill&pp=26.487093,83.781746;dfp"
  },
  {
    "name": "Prabhar Cardiac & Diabetes Care Centre ! Dr SK Singh Kushwaha",
    "address": "100 Steps West Of Rudrapur Main Road, Deoria, Uttar Pradesh 274001",
    "phone": "Prabhar Cardiac & Diabetes Care Centre ! Dr SK Singh Kushwaha",
    "hours": "Open· Closes 17:00",
    "image_url": null
  },
  {
    "name": "M S Ayush Clinic",
    "address": "Kotwali Road Deoria, Deori, Kotwali Road, Deoria, Uttar Pradesh 274001",
    "phone": "M S Ayush Clinic",
    "hours": null,
    "image_url": null
  },
  {
    "name": "Dirghayu Homoeo Clinic",
    "address": "Sh-79, Deoria, Uttar Pradesh, Uttar Pradesh 274405",
    "phone": "Dirghayu Homoeo Clinic",
    "hours": "Open· Closes 15:00",
    "image_url": null
  },
  {
    "name": "Dr. MD. Ansari's Clinic",
    "address": "Ansari Tola, Kishunpali, Deoria, Uttar Pradesh",
    "phone": "Dr. MD. Ansari's Clinic",
    "hours": null,
    "image_url": "https://www.bing.com/maps/geoplat/REST/v1/Imagery/Map/RoadVibrant?ms=92,112&key=AnTcaqBi2ypp0xI-OZNi4W_ik2KhjgpqioTAtXLC8GzkMBQRMlyxvxyTnd5b73im&c=en-US&ur=in&da=n&logo=n&fmt=png&od=1&shading=hill&pp=26.503454,83.787415;dfp"
  },
  {
    "name": "Dr. Umakant Pandey | Internal Medicine | Dr. U K Pandey Clinic",
    "address": "Unnamed Road, Saket Nagar, Deoria, Uttar Pradesh",
    "phone": "Dr. Umakant Pandey | Internal Medicine | Dr. U K Pandey Clinic",
    "hours": null,
    "image_url": "https://www.bing.com/maps/geoplat/REST/v1/Imagery/Map/RoadVibrant?ms=92,112&key=AnTcaqBi2ypp0xI-OZNi4W_ik2KhjgpqioTAtXLC8GzkMBQRMlyxvxyTnd5b73im&c=en-US&ur=in&da=n&logo=n&fmt=png&od=1&shading=hill&pp=26.490786,83.789375;dfp"
  },
  {
    "name": "Dr J N Pandey",
    "address": "Salempur Road, Sarswati Nursing Home, Ramnath Nagar, Deoria, Uttar Pradesh 274001",
    "phone": "Dr J N Pandey",
    "hours": null,
    "image_url": "https://www.bing.com/maps/geoplat/REST/v1/Imagery/Map/RoadVibrant?ms=92,112&key=AnTcaqBi2ypp0xI-OZNi4W_ik2KhjgpqioTAtXLC8GzkMBQRMlyxvxyTnd5b73im&c=en-US&ur=in&da=n&logo=n&fmt=png&od=1&shading=hill&pp=26.487898,83.779839;dfp"
  },
  {
    "name": "Dr S K Tiwari",
    "address": "Cc Road, Deoria, Uttar Pradesh 274001",
    "phone": "Dr S K Tiwari",
    "hours": null,
    "image_url": "https://www.bing.com/maps/geoplat/REST/v1/Imagery/Map/RoadVibrant?ms=92,112&key=AnTcaqBi2ypp0xI-OZNi4W_ik2KhjgpqioTAtXLC8GzkMBQRMlyxvxyTnd5b73im&c=en-US&ur=in&da=n&logo=n&fmt=png&od=1&shading=hill&pp=26.498606,83.773941;dfp"
  },
  {
    "name": "Dr Madhwa Prasad, Kidney & Liver Care CENTRE.",
    "address": "Rashmi Palace Marriage Hall Bhatpar Rani - Bhengari Rd, Mehrauna, Bandi Bhisa, Bhatpar Rani, Uttar Pradesh",
    "phone": "Dr Madhwa Prasad, Kidney & Liver Care CENTRE.",
    "hours": null,
    "image_url": null
  },
  {
    "name": "Dr Deepti Tiwari Skin Care Clinic",
    "address": "50 Meter East of Gurudwara, BRD Rd, Near Bada Park, New Colony, Deoria, Uttar Pradesh",
    "phone": "Dr Deepti Tiwari Skin Care Clinic",
    "hours": null,
    "image_url": "https://www.bing.com/maps/geoplat/REST/v1/Imagery/Map/RoadVibrant?ms=92,112&key=AnTcaqBi2ypp0xI-OZNi4W_ik2KhjgpqioTAtXLC8GzkMBQRMlyxvxyTnd5b73im&c=en-US&ur=in&da=n&logo=n&fmt=png&od=1&shading=hill&pp=26.503166,83.785767;dfp"
  },
  {
    "name": "Gulel Clinic",
    "address": "Koilasawa Fazilnagar Road, Pnb, Fazilnagar, Padrauna, Uttar Pradesh 274401",
    "phone": "Gulel Clinic",
    "hours": null,
    "image_url": "https://www.bing.com/maps/geoplat/REST/v1/Imagery/Map/RoadVibrant?ms=92,112&key=AnTcaqBi2ypp0xI-OZNi4W_ik2KhjgpqioTAtXLC8GzkMBQRMlyxvxyTnd5b73im&c=en-US&ur=in&da=n&logo=n&fmt=png&od=1&shading=hill&pp=26.68136,84.044579;dfp"
  }
]