[
  {
    "name": "Best medicine doctor in guwahati| ■ Dr Kishore Kumar Talukdar",
    "address": "Meditrust, Bhikhamji Arcade, Tripura Road Jayanagar, Near Nerim College, Backside OF Caffene, Klub, Assam",
    "phone": "Best medicine doctor in guwahati| ■ Dr Kishore Kumar Talukdar",
    "hours": null,
    "image_url": "https://www.bing.com/maps/geoplat/REST/v1/Imagery/Map/RoadVibrant?ms=92,112&key=AnTcaqBi2ypp0xI-OZNi4W_ik2KhjgpqioTAtXLC8GzkMBQRMlyxvxyTnd5b73im&c=en-US&ur=in&da=n&logo=n&fmt=png&od=1&shading=hill&pp=23.745092,91.742737;dfp"
  },
  {
    "name": "Dr. Subhadeep Majumder",
    "address": "Nishikanta Homoeo Hall, A.A, Road, Teliamura, Tripura",
    "phone": "Dr. Subhadeep Majumder",
    "hours": null,
    "image_url": "/th?id=OLC.MgkNsXbm9efYLQ480x360&w=92&h=112&c=8&rs=1&qlt=80&cdv=1&pid=Local"
  },
  {
    "name": "Dr. Abhijit Debbarma | Homoeopathy | Dr Abhijit Debbarma",
    "address": "Dr Abhijit Debbarma, Near Ramthakur Ashram, Ambassa, Tripura, India, 799289, Ambassa, Madhya Pradesh 799…",
    "phone": "Dr. Abhijit Debbarma | Homoeopathy | Dr Abhijit Debbarma",
    "hours": "Closed· Opens 16:00",
    "image_url": "/th?id=OLC.NUz209UPVOMgFA480x360&w=92&h=134&c=8&rs=1&qlt=80&cdv=1&pid=Local"
  },
  {
    "name": "Vinayaka Health Care & Diagnostic Centre",
    "address": "Office Lane Near SDM Office, Agartala, Tripura, 123",
    "phone": "Vinayaka Health Care & Diagnostic Centre",
    "hours": null,
    "image_url": "/th?id=OLC.lJpohWI31LuW8w480x360&w=92&h=112&c=8&rs=1&qlt=80&cdv=1&pid=Local"
  },
  {
    "name": "Dr. Abhik Sil",
    "address": "Opposite to Math Chowmohini Bazaar, Near Moth Chowmohini, Dhaleswar, Agartala, Tripura 799004",
    "phone": "Dr. Abhik Sil",
    "hours": "Closed· Opens 18:00",
    "image_url": "/th?id=OLC.b2waF541tfxSKA480x360&w=92&h=134&c=8&rs=1&qlt=80&cdv=1&pid=Local"
  },
  {
    "name": "Dr. Subhajit Datta- General Physician",
    "address": "Dr. Subhajit Datta's Clinic, Near Swasti Deep Medical Hall, Jagatpur, Indranagar, Agartala, Tripura 799003",
    "phone": "Dr. Subhajit Datta- General Physician",
    "hours": "Closed· Opens 17:00",
    "image_url": "/th?id=OLC.sq6PsYz0NVl2Cw480x360&w=92&h=134&c=8&rs=1&qlt=80&cdv=1&pid=Local"
  },
  {
    "name": "Dermatologist. Apollo Information Center. Dr Surajit Gorai. MD",
    "address": "Apollo Gleneagles Hospital Information Centre. Palace Compound., Near Akashbani Bhawan and Air India Offi…",
    "phone": "Dermatologist. Apollo Information Center. Dr Surajit Gorai. MD",
    "hours": null,
    "image_url": null
  },
  {
    "name": "Dr.Bishal Bhattacharjee",
    "address": "Sreenagar Road no 1, Milanchakra ( Near Milanchakra gym), Agartala, Tripura 799003",
    "phone": "Dr.Bishal Bhattacharjee",
    "hours": "Closed· Opens 17:00",
    "image_url": null
  },
  {
    "name": "Dr. Rajat Kanti Bhattacharjee- Diabetologist",
    "address": "Sharat Sarani, Durgachowmuhni, Ram Nagar, Agartala, Tripura 799001",
    "phone": "Dr. Rajat Kanti Bhattacharjee- Diabetologist",
    "hours": "Closed· Opens 18:00",
    "image_url": "https://www.bing.com/maps/geoplat/REST/v1/Imagery/Map/RoadVibrant?ms=92,112&key=AnTcaqBi2ypp0xI-OZNi4W_ik2KhjgpqioTAtXLC8GzkMBQRMlyxvxyTnd5b73im&c=en-US&ur=in&da=n&logo=n&fmt=png&od=1&shading=hill&pp=23.844603,91.321449;clcp"
  },
  {
    "name": "Balaji Health Care",
    "address": "Surjya Road, Near SBI Bazar Branch, Agartala, West Tripura, Agartala, Tripura 799001",
    "phone": "Balaji Health Care",
    "hours": null,
    "image_url": null
  },
  {
    "name": "Dr. Debasree Gangopadhyay | Pediatric Cardiologist | NH",
    "address": "Florence Diagnostic Centre, Near Sankar Chowmuhani, Krishna Nagar, Agartala, Tripura 799001",
    "phone": "Dr. Debasree Gangopadhyay | Pediatric Cardiologist | NH",
    "hours": "Open· Closes 17:00",
    "image_url": "https://www.bing.com/maps/geoplat/REST/v1/Imagery/Map/RoadVibrant?ms=92,134&key=AnTcaqBi2ypp0xI-OZNi4W_ik2KhjgpqioTAtXLC8GzkMBQRMlyxvxyTnd5b73im&c=en-US&ur=in&da=n&logo=n&fmt=png&od=1&shading=hill&pp=23.837933,91.265213;dfp"
  },
  {
    "name": "Dr. Neelesh Tiwari | Head and Neck Oncology Surgeon | NH",
    "address": "Florance Specialty Centre, Ramnagar 3no. Agartala, Agartala, Tripura 799001",
    "phone": "Dr. Neelesh Tiwari | Head and Neck Oncology Surgeon | NH",
    "hours": "Open· Closes 17:00",
    "image_url": "https://www.bing.com/maps/geoplat/REST/v1/Imagery/Map/RoadVibrant?ms=92,134&key=AnTcaqBi2ypp0xI-OZNi4W_ik2KhjgpqioTAtXLC8GzkMBQRMlyxvxyTnd5b73im&c=en-US&ur=in&da=n&logo=n&fmt=png&od=1&shading=hill&pp=23.837931,91.265205;dfp"
  },
  {
    "name": "Unofficial Dr.Shyamotpal's Multispeciality Clinic, Kalyani, Dhaleswar.",
    "address": "Dhaleswar Rd No 1, Indranagar Gb Road, Agartala 7, Agartala, Tripura 799007",
    "phone": "Unofficial Dr.Shyamotpal's Multispeciality Clinic, Kalyani, Dhaleswar.",
    "hours": "Open· Closes 17:00",
    "image_url": null
  },
  {
    "name": "Dr. Deepjyoti Das",
    "address": "A.D.Nagar, Road no.6/1 (Ramthakur Lane)., Beside A.D.Nagar P.S, Agartala, Tripura 799003",
    "phone": "Dr. Deepjyoti Das",
    "hours": "Open· Closes 13:00",
    "image_url": null
  },
  {
    "name": "Dr. Mridul Das Diabetes Clinic & Diagnostic Laboratory",
    "address": "Ganaraj Chowmuhani, Beside Petrol Pump, Banamalipur, Agartala, Tripura",
    "phone": "Dr. Mridul Das Diabetes Clinic & Diagnostic Laboratory",
    "hours": null,
    "image_url": null
  },
  {
    "name": "Dr.Kathakali Saha- Homoeopathy",
    "address": "Road Number 8, Dhaleswar, Agartala, Tripura 799001",
    "phone": "Dr.Kathakali Saha- Homoeopathy",
    "hours": "Open· Closes 18:00",
    "image_url": "https://www.bing.com/maps/geoplat/REST/v1/Imagery/Map/RoadVibrant?ms=92,112&key=AnTcaqBi2ypp0xI-OZNi4W_ik2KhjgpqioTAtXLC8GzkMBQRMlyxvxyTnd5b73im&c=en-US&ur=in&da=n&logo=n&fmt=png&od=1&shading=hill&pp=23.837488,91.298729;clcp"
  },
  {
    "name": "Dr.amit Saha's Homoeopathic Clinic",
    "address": "Near Melaghar Police Station, Melaghar, Tripura 799115",
    "phone": "Dr.amit Saha's Homoeopathic Clinic",
    "hours": null,
    "image_url": "https://www.bing.com/maps/geoplat/REST/v1/Imagery/Map/RoadVibrant?ms=92,112&key=AnTcaqBi2ypp0xI-OZNi4W_ik2KhjgpqioTAtXLC8GzkMBQRMlyxvxyTnd5b73im&c=en-US&ur=in&da=n&logo=n&fmt=png&od=1&shading=hill&pp=23.493124,91.325798;dfp"
  },
  {
    "name": "Dr. Udayan Majumder, MD Neuro Psychiatry Clinic",
    "address": "Divine Touch Medi Clinic, Colonel Chowmuhani, Agartala, Tripura 799001",
    "phone": "Dr. Udayan Majumder, MD Neuro Psychiatry Clinic",
    "hours": "Closed· Opens 16:30",
    "image_url": null
  }
]