[
  {
    "name": "Dr. Dharmendra Sinha Ayurvedic Clinic",
    "address": "Amba Chok, Jalampur Rd, Aama Para, Dhamtari, Chhattisgarh",
    "phone": "Dr. Dharmendra Sinha Ayurvedic Clinic",
    "hours": null,
    "image_url": "https://www.bing.com/maps/geoplat/REST/v1/Imagery/Map/RoadVibrant?ms=92,112&key=AnTcaqBi2ypp0xI-OZNi4W_ik2KhjgpqioTAtXLC8GzkMBQRMlyxvxyTnd5b73im&c=en-US&ur=in&da=n&logo=n&fmt=png&od=1&shading=hill&pp=20.714899,81.550903;dfp"
  },
  {
    "name": "Dr.rakesh Sahu.skin And Allergic Clinic",
    "address": "Brahmanpara, Itwari Bazar, Dhamtari, Chhattisgarh 493773, India, Dhamtari, Chhattisgarh 493773",
    "phone": "Dr.rakesh Sahu.skin And Allergic Clinic",
    "hours": null,
    "image_url": "https://www.bing.com/maps/geoplat/REST/v1/Imagery/Map/RoadVibrant?ms=92,112&key=AnTcaqBi2ypp0xI-OZNi4W_ik2KhjgpqioTAtXLC8GzkMBQRMlyxvxyTnd5b73im&c=en-US&ur=in&da=n&logo=n&fmt=png&od=1&shading=hill&pp=20.699766,81.533943;dfp"
  },
  {
    "name": "Ramakrishna Care Hospitals",
    "address": "Dhamtari Road, Aurobindo Enclave, NH - 43, Raipur, Chhattisgarh 492001",
    "phone": "Ramakrishna Care Hospitals",
    "hours": "Open 24 hours",
    "image_url": "/th?id=OLC.CoYNZqiqW7fWTQ480x360&w=92&h=134&c=8&rs=1&qlt=80&cdv=1&pid=Local"
  },
  {
    "name": "Dr. V.P Abhishek Sahu",
    "address": "At Sahu Hospital, Raipur Road, Dhamtari, Chhattisgarh",
    "phone": "Dr. V.P Abhishek Sahu",
    "hours": "Open· Closes 21:00",
    "image_url": "/th?id=OLC.gsUxACAdAGcY%2fA480x360&w=92&h=112&c=8&rs=1&qlt=80&cdv=1&pid=Local"
  },
  {
    "name": "Aditya Nursing Home(dr.ic Jain)(dr.anil Jain)(dr.varsha Jain)",
    "address": "Itwari Bazar, Dhamtari, Chhattisgarh 493773, India, Dhamtari, Chhattisgarh 493773",
    "phone": "Aditya Nursing Home(dr.ic Jain)(dr.anil Jain)(dr.varsha Jain)",
    "hours": null,
    "image_url": "https://www.bing.com/maps/geoplat/REST/v1/Imagery/Map/RoadVibrant?ms=92,112&key=AnTcaqBi2ypp0xI-OZNi4W_ik2KhjgpqioTAtXLC8GzkMBQRMlyxvxyTnd5b73im&c=en-US&ur=in&da=n&logo=n&fmt=png&od=1&shading=hill&pp=20.703442,81.550781;dfp"
  },
  {
    "name": "Patanjali Chikitsalaya Kanker",
    "address": "Annapurna Para, H No, G/19, Dhamtari, Chhattisgarh 494334",
    "phone": "Patanjali Chikitsalaya Kanker",
    "hours": null,
    "image_url": "https://www.bing.com/maps/geoplat/REST/v1/Imagery/Map/RoadVibrant?ms=92,112&key=AnTcaqBi2ypp0xI-OZNi4W_ik2KhjgpqioTAtXLC8GzkMBQRMlyxvxyTnd5b73im&c=en-US&ur=in&da=n&logo=n&fmt=png&od=1&shading=hill&pp=21.220932,81.648338;dfp"
  },
  {
    "name": "Upadhyay Nursing Home",
    "address": "Behind Bus Stand, Balaji Colony, Dhamtari, Chhattisgarh 493773",
    "phone": "Upadhyay Nursing Home",
    "hours": "Open 24 hours",
    "image_url": null
  },
  {
    "name": "Dr Washanis Maxillofacial Dental Clinic",
    "address": "Behind Idbi Bank, Washani Dental Clinic, Dhamtari, Behind Idbi Bank Sihawa Chowk, Dhamtari, Chhattisga…",
    "phone": "Dr Washanis Maxillofacial Dental Clinic",
    "hours": null,
    "image_url": "https://www.bing.com/maps/geoplat/REST/v1/Imagery/Map/RoadVibrant?ms=92,112&key=AnTcaqBi2ypp0xI-OZNi4W_ik2KhjgpqioTAtXLC8GzkMBQRMlyxvxyTnd5b73im&c=en-US&ur=in&da=n&logo=n&fmt=png&od=1&shading=hill&pp=20.701653,81.519257;dfp"
  },
  {
    "name": "Balaji Pathology Lab",
    "address": "Near Shri Laxmi Rice Mill, Dhamtari, Makai Chowk Dhamtari, Dhamtari, Chhattisgarh 493773",
    "phone": "Balaji Pathology Lab",
    "hours": null,
    "image_url": "https://www.bing.com/maps/geoplat/REST/v1/Imagery/Map/RoadVibrant?ms=92,112&key=AnTcaqBi2ypp0xI-OZNi4W_ik2KhjgpqioTAtXLC8GzkMBQRMlyxvxyTnd5b73im&c=en-US&ur=in&da=n&logo=n&fmt=png&od=1&shading=hill&pp=20.714899,81.550903;dfp"
  }
]