[
  {
    "name": "Dr P K Chatterjee Clinic",
    "address": "Bank Road, Shastri Nagar, Dhanbad, Jharkhand 826001",
    "phone": "Dr P K Chatterjee Clinic",
    "hours": null,
    "image_url": "/th?id=OLC.5jKP%2bYAgAx5f3w480x360&w=92&h=112&c=8&rs=1&qlt=80&cdv=1&pid=Local"
  },
  {
    "name": "DR. Manisha's Multispeciality Health Clinic",
    "address": "H I G Plot No 28, Housing Colony, Dhanbad, Jharkhand 826001",
    "phone": "DR. Manisha's Multispeciality Health Clinic",
    "hours": null,
    "image_url": "/th?id=OLC.aRbvpKzvzeoD6w480x360&w=92&h=112&c=8&rs=1&qlt=80&cdv=1&pid=Local"
  },
  {
    "name": "Sharda Clinic",
    "address": "Bank More, Dhanbad, Jharkhand",
    "phone": "Sharda Clinic",
    "hours": null,
    "image_url": "/th?id=OLC.svP17b4a%2fTt5Dw480x360&w=92&h=112&c=8&rs=1&qlt=80&cdv=1&pid=Local"
  },
  {
    "name": "Dr. Sanjay Kumar Chaurasia- General Surgeon",
    "address": "Park Market, Jharnapara Road, Hirapur, Dhanbad, Jharkhand 826001",
    "phone": "Dr. Sanjay Kumar Chaurasia- General Surgeon",
    "hours": "Closed· Opens 11:00",
    "image_url": "https://www.bing.com/maps/geoplat/REST/v1/Imagery/Map/RoadVibrant?ms=92,134&key=AnTcaqBi2ypp0xI-OZNi4W_ik2KhjgpqioTAtXLC8GzkMBQRMlyxvxyTnd5b73im&c=en-US&ur=in&da=n&logo=n&fmt=png&od=1&shading=hill&pp=23.802654,86.441269;dfp"
  },
  {
    "name": "Dr. Abhra Chandra Chowdhury",
    "address": "Jora Phatak Road, Dhanbad, Jharkhand",
    "phone": "Dr. Abhra Chandra Chowdhury",
    "hours": "Open 24 hours",
    "image_url": "/th?id=OLC.cWNMGL9KVxWXQg480x360&w=92&h=112&c=8&rs=1&qlt=80&cdv=1&pid=Local"
  },
  {
    "name": "Dr. V.S.V.Prasad",
    "address": "Jamuna Mansion, Dhanbad, Jharkhand",
    "phone": "Dr. V.S.V.Prasad",
    "hours": "Closed· Opens 15:00",
    "image_url": "https://www.bing.com/maps/geoplat/REST/v1/Imagery/Map/RoadVibrant?ms=92,112&key=AnTcaqBi2ypp0xI-OZNi4W_ik2KhjgpqioTAtXLC8GzkMBQRMlyxvxyTnd5b73im&c=en-US&ur=in&da=n&logo=n&fmt=png&od=1&shading=hill&pp=23.788467,86.420097;dfp"
  },
  {
    "name": "DR. Subir Chowdhary",
    "address": "Hirapur Hatia Road, Dhanbad, Jharkhand 826001",
    "phone": "DR. Subir Chowdhary",
    "hours": null,
    "image_url": "https://www.bing.com/maps/geoplat/REST/v1/Imagery/Map/RoadVibrant?ms=92,112&key=AnTcaqBi2ypp0xI-OZNi4W_ik2KhjgpqioTAtXLC8GzkMBQRMlyxvxyTnd5b73im&c=en-US&ur=in&da=n&logo=n&fmt=png&od=1&shading=hill&pp=23.804001,86.425598;dfp"
  },
  {
    "name": "Dr. Dinesh Kumar Agarwal",
    "address": "Ground Floor, Chandra Arcade (Near Chandra Vihar Colony Gate), Dhaiya, Dhanbad, Jharkhand",
    "phone": "Dr. Dinesh Kumar Agarwal",
    "hours": "Closed· Opens 16:00",
    "image_url": null
  },
  {
    "name": "Dr Dp Bhushan Clinic",
    "address": "Temple, Jora Fatak, Dhanbad, Jharkhand 826001",
    "phone": "Dr Dp Bhushan Clinic",
    "hours": null,
    "image_url": "https://www.bing.com/maps/geoplat/REST/v1/Imagery/Map/RoadVibrant?ms=92,112&key=AnTcaqBi2ypp0xI-OZNi4W_ik2KhjgpqioTAtXLC8GzkMBQRMlyxvxyTnd5b73im&c=en-US&ur=in&da=n&logo=n&fmt=png&od=1&shading=hill&pp=23.785107,86.42881;dfp"
  },
  {
    "name": "Kailash Hospital- Dr. Ashish Bajaj, Orthopedic Surgeon",
    "address": "Sardar Patel Nagar, Dhanbad, Jharkhand 826001",
    "phone": "Kailash Hospital- Dr. Ashish Bajaj, Orthopedic Surgeon",
    "hours": "Open 24 hours",
    "image_url": null
  },
  {
    "name": "Dr Paul's Multispeciality Clinic",
    "address": "Suite Katras Road, Dhanbad, Jharkhand 826001",
    "phone": "Dr Paul's Multispeciality Clinic",
    "hours": null,
    "image_url": "https://www.bing.com/maps/geoplat/REST/v1/Imagery/Map/RoadVibrant?ms=92,112&key=AnTcaqBi2ypp0xI-OZNi4W_ik2KhjgpqioTAtXLC8GzkMBQRMlyxvxyTnd5b73im&c=en-US&ur=in&da=n&logo=n&fmt=png&od=1&shading=hill&pp=23.78894,86.414711;dfp"
  },
  {
    "name": "Dr. Vaibhav Srivastava",
    "address": "Durga Mandir Road, Hirapur, Dhanbad, Madhya Pradesh 826001",
    "phone": "Dr. Vaibhav Srivastava",
    "hours": "Open· Closes 18:00",
    "image_url": null
  },
  {
    "name": "Dr. Gauri Shankar | Autism, Infertility, Skin, Kidney, Female And Male Chronic Diseases",
    "address": "Sahajanand Nagar, Barmasia, Dhanbad, Jharkhand, India, 826001, Dhanbad, Madhya Pradesh 826001",
    "phone": "Dr. Gauri Shankar | Autism, Infertility, Skin, Kidney, Female And Male Chronic Diseases",
    "hours": "Open· Closes 18:00",
    "image_url": null
  },
  {
    "name": "Dr. Gaurav Patodia",
    "address": "Bartand Road, Shastri Nagar, Dhanbad, Jharkhand",
    "phone": "Dr. Gaurav Patodia",
    "hours": "Closed· Opens Wed 09:00",
    "image_url": "https://www.bing.com/maps/geoplat/REST/v1/Imagery/Map/RoadVibrant?ms=92,112&key=AnTcaqBi2ypp0xI-OZNi4W_ik2KhjgpqioTAtXLC8GzkMBQRMlyxvxyTnd5b73im&c=en-US&ur=in&da=n&logo=n&fmt=png&od=1&shading=hill&pp=23.811634,86.432487;dfp"
  },
  {
    "name": "Dr. Gaurav Patodia",
    "address": "Jora Phatak Road, Dhanbad, Jharkhand",
    "phone": "Dr. Gaurav Patodia",
    "hours": "Open· Closes 13:00",
    "image_url": null
  },
  {
    "name": "Dr Batra's Homeopathy",
    "address": "Ground Floor, Sam Towers, Shastri Nagar, Dhanbad, Jharkhand 826001",
    "phone": "Dr Batra's Homeopathy",
    "hours": "Open· Closes 18:00",
    "image_url": null
  },
  {
    "name": "Dr. Md Sarfaraz Alam",
    "address": "Bhuli Road Gate No.1, Dhanbad, Jharkhand, Jharkhand 828130",
    "phone": "Dr. Md Sarfaraz Alam",
    "hours": "Open· Closes 13:00",
    "image_url": null
  },
  {
    "name": "Dr. Adya- Pathologist",
    "address": "Divisional Railway Hospital, Hill Colony, Dhanbad, Jharkhand 826001",
    "phone": "Dr. Adya- Pathologist",
    "hours": "Open· Closes 13:00",
    "image_url": "https://www.bing.com/maps/geoplat/REST/v1/Imagery/Map/RoadVibrant?ms=92,134&key=AnTcaqBi2ypp0xI-OZNi4W_ik2KhjgpqioTAtXLC8GzkMBQRMlyxvxyTnd5b73im&c=en-US&ur=in&da=n&logo=n&fmt=png&od=1&shading=hill&pp=23.792233,86.433769;dfp"
  }
]