[
  {
    "name": "Dr.Channabasayya Hiremath",
    "address": "Asian Homeocare, Opp. Prathima Residency, Kabbur Road, Malamaddi, Dharwad, Dharwad, Karnataka, Kar…",
    "phone": "Dr.Channabasayya Hiremath",
    "hours": null,
    "image_url": "https://www.bing.com/maps/geoplat/REST/v1/Imagery/Map/RoadVibrant?ms=92,112&key=AnTcaqBi2ypp0xI-OZNi4W_ik2KhjgpqioTAtXLC8GzkMBQRMlyxvxyTnd5b73im&c=en-US&ur=in&da=n&logo=n&fmt=png&od=1&shading=hill&pp=15.444636,75.005379;dfp"
  },
  {
    "name": "Dr. Roopa's Health Clinic",
    "address": "Madihal Main Rd, Madhial, Dharwad, Karnataka",
    "phone": "Dr. Roopa's Health Clinic",
    "hours": null,
    "image_url": "https://www.bing.com/maps/geoplat/REST/v1/Imagery/Map/RoadVibrant?ms=92,112&key=AnTcaqBi2ypp0xI-OZNi4W_ik2KhjgpqioTAtXLC8GzkMBQRMlyxvxyTnd5b73im&c=en-US&ur=in&da=n&logo=n&fmt=png&od=1&shading=hill&pp=15.470939,75.027748;dfp"
  },
  {
    "name": "Dr. Ashith B. Acharya",
    "address": "Manjunatheshwara University, Sattur Colony, Dharwad, Karnataka",
    "phone": "Dr. Ashith B. Acharya",
    "hours": null,
    "image_url": "https://www.bing.com/maps/geoplat/REST/v1/Imagery/Map/RoadVibrant?ms=92,112&key=AnTcaqBi2ypp0xI-OZNi4W_ik2KhjgpqioTAtXLC8GzkMBQRMlyxvxyTnd5b73im&c=en-US&ur=in&da=n&logo=n&fmt=png&od=1&shading=hill&pp=15.436956,74.993446;dfp"
  },
  {
    "name": "Dr. Ujwala Jaiswal- General Physician",
    "address": "Gajanan Clinic, Shivaji Chowk Main Market Road, Dharwad, Karnataka 580008",
    "phone": "Dr. Ujwala Jaiswal- General Physician",
    "hours": "Closed· Opens 11:00",
    "image_url": "https://www.bing.com/maps/geoplat/REST/v1/Imagery/Map/RoadVibrant?ms=92,134&key=AnTcaqBi2ypp0xI-OZNi4W_ik2KhjgpqioTAtXLC8GzkMBQRMlyxvxyTnd5b73im&c=en-US&ur=in&da=n&logo=n&fmt=png&od=1&shading=hill&pp=15.469194,74.976013;dfp"
  },
  {
    "name": "Dr. Shivanand V Dharwad \"SHREE CLINIC\"",
    "address": "Plot No. 103 Dr. S V Dharwad House 2 nd Main Road, Vidya Nagar, Sahyadri Nagar, Belagavi, Karnataka",
    "phone": "Dr. Shivanand V Dharwad \"SHREE CLINIC\"",
    "hours": null,
    "image_url": "https://www.bing.com/maps/geoplat/REST/v1/Imagery/Map/RoadVibrant?ms=92,112&key=AnTcaqBi2ypp0xI-OZNi4W_ik2KhjgpqioTAtXLC8GzkMBQRMlyxvxyTnd5b73im&c=en-US&ur=in&da=n&logo=n&fmt=png&od=1&shading=hill&pp=15.459261,74.981689;dfp"
  },
  {
    "name": "Dr Prakash Ramangoudar Clinic",
    "address": "Dharwad - Saundatti Rd, Mrityunjaya Nagar, Dharwad, Karnataka",
    "phone": "Dr Prakash Ramangoudar Clinic",
    "hours": null,
    "image_url": "https://www.bing.com/maps/geoplat/REST/v1/Imagery/Map/RoadVibrant?ms=92,112&key=AnTcaqBi2ypp0xI-OZNi4W_ik2KhjgpqioTAtXLC8GzkMBQRMlyxvxyTnd5b73im&c=en-US&ur=in&da=n&logo=n&fmt=png&od=1&shading=hill&pp=15.466559,75.015381;dfp"
  },
  {
    "name": "Manoshanti Clinic",
    "address": "German Hospital Road-Haliyal Naka Rd, Narayanpura, Dharwad, Karnataka",
    "phone": "Manoshanti Clinic",
    "hours": null,
    "image_url": "https://www.bing.com/maps/geoplat/REST/v1/Imagery/Map/RoadVibrant?ms=92,112&key=AnTcaqBi2ypp0xI-OZNi4W_ik2KhjgpqioTAtXLC8GzkMBQRMlyxvxyTnd5b73im&c=en-US&ur=in&da=n&logo=n&fmt=png&od=1&shading=hill&pp=15.453885,74.991714;dfp"
  },
  {
    "name": "Nitinchandra Dr Hattikal",
    "address": "Gandhi Chowk, Dharwad, Karnataka 580001, India, Dharwad, Karnataka 580001",
    "phone": "Nitinchandra Dr Hattikal",
    "hours": null,
    "image_url": "https://www.bing.com/maps/geoplat/REST/v1/Imagery/Map/RoadVibrant?ms=92,112&key=AnTcaqBi2ypp0xI-OZNi4W_ik2KhjgpqioTAtXLC8GzkMBQRMlyxvxyTnd5b73im&c=en-US&ur=in&da=n&logo=n&fmt=png&od=1&shading=hill&pp=15.460284,75.016014;dfp"
  },
  {
    "name": "Dr. Vishal Malavade, Treated 4K+ Patients | Best Radiation Oncologist  | Medical Oncologist | Cancer Doc…",
    "address": "Radon Cancer Centre, #65, Javali Garden, M T Sagar, off Gokul Road Hubli, Dharwad, Karnataka 580030",
    "phone": "Dr. Vishal Malavade, Treated 4K+ Patients | Best Radiation Oncologist  | Medical Oncologist | Cancer Doc…",
    "hours": "Open· Closes 18:30",
    "image_url": null
  },
  {
    "name": "Dr. C S Hiremata",
    "address": "Malamaddi, Dharwad, Karnataka",
    "phone": "Dr. C S Hiremata",
    "hours": "Open· Closes 13:30",
    "image_url": "https://www.bing.com/maps/geoplat/REST/v1/Imagery/Map/RoadVibrant?ms=92,112&key=AnTcaqBi2ypp0xI-OZNi4W_ik2KhjgpqioTAtXLC8GzkMBQRMlyxvxyTnd5b73im&c=en-US&ur=in&da=n&logo=n&fmt=png&od=1&shading=hill&pp=15.444657,75.005371;dfp"
  },
  {
    "name": "Vishwas clinic",
    "address": "Opposite TV Tower AIR Road, Haliyal Naka, Dharwad, Karnataka",
    "phone": "Vishwas clinic",
    "hours": null,
    "image_url": null
  },
  {
    "name": "Dr A K Kale Clinic",
    "address": "Dharwad-Belgaum Road, Maratha Colony, Dharwad, Karnataka 580001",
    "phone": "Dr A K Kale Clinic",
    "hours": null,
    "image_url": "https://www.bing.com/maps/geoplat/REST/v1/Imagery/Map/RoadVibrant?ms=92,112&key=AnTcaqBi2ypp0xI-OZNi4W_ik2KhjgpqioTAtXLC8GzkMBQRMlyxvxyTnd5b73im&c=en-US&ur=in&da=n&logo=n&fmt=png&od=1&shading=hill&pp=15.463095,75.007225;dfp"
  },
  {
    "name": "Dr. Vivekanand S Gajapati",
    "address": "SDM College of Medical Sciences, Manjushree Nagar, Sattur Colony, Karnataka",
    "phone": "Dr. Vivekanand S Gajapati",
    "hours": null,
    "image_url": "https://www.bing.com/maps/geoplat/REST/v1/Imagery/Map/RoadVibrant?ms=92,112&key=AnTcaqBi2ypp0xI-OZNi4W_ik2KhjgpqioTAtXLC8GzkMBQRMlyxvxyTnd5b73im&c=en-US&ur=in&da=n&logo=n&fmt=png&od=1&shading=hill&pp=15.430686,75.016975;dfp"
  },
  {
    "name": "Ayursparsh Clinic - Ayurvedic Consultation & Panchakarma Center",
    "address": "H. No: 8B, Opp. Indira Canteen, Near new Bus Stand, P. B. Road, Dharwad, Karnataka 580008",
    "phone": "Ayursparsh Clinic - Ayurvedic Consultation & Panchakarma Center",
    "hours": "Open· Closes 13:30",
    "image_url": null
  },
  {
    "name": "Dr Agarwals Eye Hospital",
    "address": "CTS No 96B/1A, Samarth Arcade, PB Road, Brts Bus Station, Opposite Jubilee Circle, Dharwad, Karnataka 5…",
    "phone": "Dr Agarwals Eye Hospital",
    "hours": "Open· Closes 20:00",
    "image_url": null
  },
  {
    "name": "Dr. Desai's Homoeo Clinic",
    "address": "Opp. Mahalaxmi Temple, Vijaya Rd, Near Bharat High School, Dharwad, Karnataka",
    "phone": "Dr. Desai's Homoeo Clinic",
    "hours": null,
    "image_url": "https://www.bing.com/maps/geoplat/REST/v1/Imagery/Map/RoadVibrant?ms=92,112&key=AnTcaqBi2ypp0xI-OZNi4W_ik2KhjgpqioTAtXLC8GzkMBQRMlyxvxyTnd5b73im&c=en-US&ur=in&da=n&logo=n&fmt=png&od=1&shading=hill&pp=15.460236,75.006813;dfp"
  },
  {
    "name": "Dr. Raghavendra Nayak",
    "address": "F9, Madhav Square, Railway Station Road, Dharwad, Karnataka",
    "phone": "Dr. Raghavendra Nayak",
    "hours": "Closed· Opens 17:00",
    "image_url": null
  },
  {
    "name": "Dr Ishwar S Husabi Clinic",
    "address": "Shri Krishna Bhawan, Dhajabanpet, Maniyar Complex, Dharwad, Karnataka 580004",
    "phone": "Dr Ishwar S Husabi Clinic",
    "hours": null,
    "image_url": "https://www.bing.com/maps/geoplat/REST/v1/Imagery/Map/RoadVibrant?ms=92,112&key=AnTcaqBi2ypp0xI-OZNi4W_ik2KhjgpqioTAtXLC8GzkMBQRMlyxvxyTnd5b73im&c=en-US&ur=in&da=n&logo=n&fmt=png&od=1&shading=hill&pp=15.346701,75.141975;dfp"
  }
]