[
  {
    "name": "Dr. Alpesh Chaturvedi- General Physician",
    "address": "Sanjivnee Clinic, Mhow Neemuch Road, Pithampur, Dhar, Madhya Pradesh 454775",
    "phone": "Dr. Alpesh Chaturvedi- General Physician",
    "hours": "Open· Closes 21:00",
    "image_url": "https://www.bing.com/maps/geoplat/REST/v1/Imagery/Map/RoadVibrant?ms=92,134&key=AnTcaqBi2ypp0xI-OZNi4W_ik2KhjgpqioTAtXLC8GzkMBQRMlyxvxyTnd5b73im&c=en-US&ur=in&da=n&logo=n&fmt=png&od=1&shading=hill&pp=22.607248,75.661324;dfp"
  },
  {
    "name": "Dr. Kavish Chouhan",
    "address": "18, Tilak Marg, Chouhan Hospital, Dhar, Madhya Pradesh",
    "phone": "Dr. Kavish Chouhan",
    "hours": null,
    "image_url": "https://www.bing.com/maps/geoplat/REST/v1/Imagery/Map/RoadVibrant?ms=92,112&key=AnTcaqBi2ypp0xI-OZNi4W_ik2KhjgpqioTAtXLC8GzkMBQRMlyxvxyTnd5b73im&c=en-US&ur=in&da=n&logo=n&fmt=png&od=1&shading=hill&pp=23.457012,75.418343;dfp"
  },
  {
    "name": "Shree Gurukripa Clinic",
    "address": "Pochaupati, Dhar, Madhya Pradesh 454001",
    "phone": "Shree Gurukripa Clinic",
    "hours": null,
    "image_url": "https://www.bing.com/maps/geoplat/REST/v1/Imagery/Map/RoadVibrant?ms=92,112&key=AnTcaqBi2ypp0xI-OZNi4W_ik2KhjgpqioTAtXLC8GzkMBQRMlyxvxyTnd5b73im&c=en-US&ur=in&da=n&logo=n&fmt=png&od=1&shading=hill&pp=22.591793,75.296928;dfp"
  },
  {
    "name": "Dr. Hemant | General Physician | Health clinic",
    "address": "Health Clinic, Bhaktawar Marg, Dhar, Madhya Pradesh, India, 454001, Dhar, Madhya Pradesh 454001",
    "phone": "Dr. Hemant | General Physician | Health clinic",
    "hours": "Closed· Opens 14:00",
    "image_url": "/th?id=OLC.7jaVExZl8LbztQ480x360&w=92&h=134&c=8&rs=1&qlt=80&cdv=1&pid=Local"
  },
  {
    "name": "Jai Gurudev Clinic",
    "address": "Pochaupati, Dhar, Madhya Pradesh 454001",
    "phone": "Jai Gurudev Clinic",
    "hours": null,
    "image_url": "https://www.bing.com/maps/geoplat/REST/v1/Imagery/Map/RoadVibrant?ms=92,112&key=AnTcaqBi2ypp0xI-OZNi4W_ik2KhjgpqioTAtXLC8GzkMBQRMlyxvxyTnd5b73im&c=en-US&ur=in&da=n&logo=n&fmt=png&od=1&shading=hill&pp=22.596317,75.300453;dfp"
  },
  {
    "name": "Madhavbaug Clinic Dhar",
    "address": "103- Kashibagh Colony Opposite Chiku Garden, Behind old Rukmani Motors Office, Dhar, Madhya Pradesh",
    "phone": "Madhavbaug Clinic Dhar",
    "hours": null,
    "image_url": "https://www.bing.com/maps/geoplat/REST/v1/Imagery/Map/RoadVibrant?ms=92,112&key=AnTcaqBi2ypp0xI-OZNi4W_ik2KhjgpqioTAtXLC8GzkMBQRMlyxvxyTnd5b73im&c=en-US&ur=in&da=n&logo=n&fmt=png&od=1&shading=hill&pp=22.5977,75.303703;dfp"
  },
  {
    "name": "Gowri Clinic",
    "address": "Mandsaur Dhar Road, Bhoj Nagar Colony Trimurti Nagar, Dhar, Madhya Pradesh 454001",
    "phone": "Gowri Clinic",
    "hours": null,
    "image_url": "https://www.bing.com/maps/geoplat/REST/v1/Imagery/Map/RoadVibrant?ms=92,112&key=AnTcaqBi2ypp0xI-OZNi4W_ik2KhjgpqioTAtXLC8GzkMBQRMlyxvxyTnd5b73im&c=en-US&ur=in&da=n&logo=n&fmt=png&od=1&shading=hill&pp=22.602299,75.302208;dfp"
  },
  {
    "name": "Sampurna Sodani Diagnostic Clinic Dhar",
    "address": "95 LIG Colony, Veer Savarkar Nagar, Dhar, Madhya Pradesh 454001",
    "phone": "Sampurna Sodani Diagnostic Clinic Dhar",
    "hours": "Open· Closes 20:00",
    "image_url": null
  },
  {
    "name": "Rawal Clinic",
    "address": "1, Nayakheda, Dhar, Madhya Pradesh 454665",
    "phone": "Rawal Clinic",
    "hours": null,
    "image_url": "https://www.bing.com/maps/geoplat/REST/v1/Imagery/Map/RoadVibrant?ms=92,112&key=AnTcaqBi2ypp0xI-OZNi4W_ik2KhjgpqioTAtXLC8GzkMBQRMlyxvxyTnd5b73im&c=en-US&ur=in&da=n&logo=n&fmt=png&od=1&shading=hill&pp=22.594254,75.310486;dfp"
  },
  {
    "name": "Total Care & Cure Dental(Dr Hasan Ali)",
    "address": "Total Care & Cure Dental Clinic, Dhar, Madhya Pradesh, Madhya Pradesh 454001",
    "phone": "Total Care & Cure Dental(Dr Hasan Ali)",
    "hours": "Opens in 14 mins",
    "image_url": null
  },
  {
    "name": "Dr. Srikanth Reddy (Neuro-Psychiatrist)",
    "address": "Sarvesh Medicals, In Front of New Bhajpa Karyalay, Dhar., Near Mahajan Hospital, Dhar, Madhya Pradesh",
    "phone": "Dr. Srikanth Reddy (Neuro-Psychiatrist)",
    "hours": null,
    "image_url": null
  },
  {
    "name": "Thakur Eye Hospital and Laser Center, DR.R.C.S Thakur",
    "address": "63, Mandu Road, Dhar, Madhya Pradesh 454001",
    "phone": "Thakur Eye Hospital and Laser Center, DR.R.C.S Thakur",
    "hours": null,
    "image_url": "https://www.bing.com/maps/geoplat/REST/v1/Imagery/Map/RoadVibrant?ms=92,112&key=AnTcaqBi2ypp0xI-OZNi4W_ik2KhjgpqioTAtXLC8GzkMBQRMlyxvxyTnd5b73im&c=en-US&ur=in&da=n&logo=n&fmt=png&od=1&shading=hill&pp=22.591652,75.304955;dfp"
  },
  {
    "name": "Dr. Rajesh Kumar",
    "address": "40, Ragunath Pura, Near Mittal Hospial, Dhar, Madhya Pradesh",
    "phone": "Dr. Rajesh Kumar",
    "hours": null,
    "image_url": "https://www.bing.com/maps/geoplat/REST/v1/Imagery/Map/RoadVibrant?ms=92,112&key=AnTcaqBi2ypp0xI-OZNi4W_ik2KhjgpqioTAtXLC8GzkMBQRMlyxvxyTnd5b73im&c=en-US&ur=in&da=n&logo=n&fmt=png&od=1&shading=hill&pp=22.592459,75.30439;dfp"
  },
  {
    "name": "Ashirwad Skin Clinic",
    "address": "Sh31, Lig Colony, Dhar, Madhya Pradesh 454001",
    "phone": "Ashirwad Skin Clinic",
    "hours": null,
    "image_url": "https://www.bing.com/maps/geoplat/REST/v1/Imagery/Map/RoadVibrant?ms=92,112&key=AnTcaqBi2ypp0xI-OZNi4W_ik2KhjgpqioTAtXLC8GzkMBQRMlyxvxyTnd5b73im&c=en-US&ur=in&da=n&logo=n&fmt=png&od=1&shading=hill&pp=22.594091,75.310249;dfp"
  },
  {
    "name": "Thakur Eyes Clinic And Laser Centre",
    "address": "Indira Colony, Dhar, Madhya Pradesh 454001",
    "phone": "Thakur Eyes Clinic And Laser Centre",
    "hours": null,
    "image_url": "https://www.bing.com/maps/geoplat/REST/v1/Imagery/Map/RoadVibrant?ms=92,112&key=AnTcaqBi2ypp0xI-OZNi4W_ik2KhjgpqioTAtXLC8GzkMBQRMlyxvxyTnd5b73im&c=en-US&ur=in&da=n&logo=n&fmt=png&od=1&shading=hill&pp=22.595022,75.304428;dfp"
  },
  {
    "name": "DR. BHUSHAN'S दन्त रक्षा dentist  city",
    "address": "29MIG, In Front Of New BJP Office, Near Airtel Office, Dhar, m.p, Dhar, Madhya Pradesh 454001",
    "phone": "DR. BHUSHAN'S दन्त रक्षा dentist  city",
    "hours": "Open· Closes 19:00",
    "image_url": null
  },
  {
    "name": "Dr. Atul R Vadnere",
    "address": "Kukshi - Jobat Road, Dhar, Madhya Pradesh",
    "phone": "Dr. Atul R Vadnere",
    "hours": "Closed· Opens 11:00",
    "image_url": "https://www.bing.com/maps/geoplat/REST/v1/Imagery/Map/RoadVibrant?ms=92,112&key=AnTcaqBi2ypp0xI-OZNi4W_ik2KhjgpqioTAtXLC8GzkMBQRMlyxvxyTnd5b73im&c=en-US&ur=in&da=n&logo=n&fmt=png&od=1&shading=hill&pp=22.20941,74.755821;dfp"
  },
  {
    "name": "Dr. Yogesh Jain",
    "address": "Mhow Neemuch Road, Chatra Chhaya Colony Sector 1, Pithampur, Madhya Pradesh 454775",
    "phone": "Dr. Yogesh Jain",
    "hours": "Open· Closes 20:00",
    "image_url": "https://www.bing.com/maps/geoplat/REST/v1/Imagery/Map/RoadVibrant?ms=92,112&key=AnTcaqBi2ypp0xI-OZNi4W_ik2KhjgpqioTAtXLC8GzkMBQRMlyxvxyTnd5b73im&c=en-US&ur=in&da=n&logo=n&fmt=png&od=1&shading=hill&pp=22.6082,75.68306;dfp"
  }
]