[
  {
    "name": "Dr. Balabhadra Ram- General Medicine",
    "address": "Clinic Unique & Lab, Kunjakant, Dhenkanal 759001",
    "phone": "Dr. Balabhadra Ram- General Medicine",
    "hours": "Open· Closes 14:00",
    "image_url": "/th?id=OLC.xqu2j%2f9DENj1UA480x360&w=92&h=134&c=8&rs=1&qlt=80&cdv=1&pid=Local"
  },
  {
    "name": "Masterdoctor Clinic - Dhenkanal - Best Diabetes Clinic - Best Diabetologist Dr B Jagadish",
    "address": "Gopinanda Rout NEW Friends Clinic, Patholab & Medicine Store Chandan Bazar, in Front of Govt Blood …",
    "phone": "Masterdoctor Clinic - Dhenkanal - Best Diabetes Clinic - Best Diabetologist Dr B Jagadish",
    "hours": "Open· Closes 21:00",
    "image_url": "/th?id=OLC.eFMJ55EgoKcKaQ480x360&w=92&h=134&c=8&rs=1&qlt=80&cdv=1&pid=Local"
  },
  {
    "name": "Om Clinic",
    "address": "Bharampur Dhenkhanal Road, Dhenkanal, Odisha 759001",
    "phone": "Om Clinic",
    "hours": null,
    "image_url": "https://www.bing.com/maps/geoplat/REST/v1/Imagery/Map/RoadVibrant?ms=92,112&key=AnTcaqBi2ypp0xI-OZNi4W_ik2KhjgpqioTAtXLC8GzkMBQRMlyxvxyTnd5b73im&c=en-US&ur=in&da=n&logo=n&fmt=png&od=1&shading=hill&pp=20.664366,85.596046;dfp"
  },
  {
    "name": "Popular Clinic",
    "address": "Bharampur Dhenkhanal Road, Dhenkanal, Odisha 759001",
    "phone": "Popular Clinic",
    "hours": null,
    "image_url": "https://www.bing.com/maps/geoplat/REST/v1/Imagery/Map/RoadVibrant?ms=92,112&key=AnTcaqBi2ypp0xI-OZNi4W_ik2KhjgpqioTAtXLC8GzkMBQRMlyxvxyTnd5b73im&c=en-US&ur=in&da=n&logo=n&fmt=png&od=1&shading=hill&pp=20.664286,85.596466;dfp"
  },
  {
    "name": "Life Care",
    "address": "Bharampur Dhenkhanal Road, Dhenkanal, Odisha 759001",
    "phone": "Life Care",
    "hours": null,
    "image_url": "/th?id=OLC.Qk%2fEjApFBXG8EQ480x360&w=92&h=112&c=8&rs=1&qlt=80&cdv=1&pid=Local"
  },
  {
    "name": "Gurukul Ayurveda & naturopathy center",
    "address": "Village + Po - Pattikaliyana, NH-1 Opposite Piet College, Apollo School, Samalkha, Haryana",
    "phone": "Gurukul Ayurveda & naturopathy center",
    "hours": null,
    "image_url": "https://www.bing.com/maps/geoplat/REST/v1/Imagery/Map/RoadVibrant?ms=92,112&key=AnTcaqBi2ypp0xI-OZNi4W_ik2KhjgpqioTAtXLC8GzkMBQRMlyxvxyTnd5b73im&c=en-US&ur=in&da=n&logo=n&fmt=png&od=1&shading=hill&pp=20.66971,85.598526;dfp"
  },
  {
    "name": "Dr. Aiswarjya mishra (MDS) dental and periodontal surgeon implantologist",
    "address": "Sai Dental Clinic, Infront of Hanuman Mandir, Mahavir Bazar, Dhenkanal, Odisha",
    "phone": "Dr. Aiswarjya mishra (MDS) dental and periodontal surgeon implantologist",
    "hours": null,
    "image_url": "https://www.bing.com/maps/geoplat/REST/v1/Imagery/Map/RoadVibrant?ms=92,112&key=AnTcaqBi2ypp0xI-OZNi4W_ik2KhjgpqioTAtXLC8GzkMBQRMlyxvxyTnd5b73im&c=en-US&ur=in&da=n&logo=n&fmt=png&od=1&shading=hill&pp=20.662903,85.5979;dfp"
  },
  {
    "name": "Geeta Electropathy & SpHear Clinic ✓India",
    "address": "Gopabandhu Science College Road, Athgarh ., In Front of Sai Marbles, Athgarh 754029",
    "phone": "Geeta Electropathy & SpHear Clinic ✓India",
    "hours": "Open· Closes 19:30",
    "image_url": null
  },
  {
    "name": "Dr. Debashis Maikap",
    "address": "Campus Number 5, Kiit Road, Orissa",
    "phone": "Dr. Debashis Maikap",
    "hours": "Open· Closes 13:00",
    "image_url": null
  },
  {
    "name": "Dr. P.K.Moharana",
    "address": "Campus Number 5, Kiit Road, Orissa",
    "phone": "Dr. P.K.Moharana",
    "hours": "Open· Closes 17:00",
    "image_url": "https://www.bing.com/maps/geoplat/REST/v1/Imagery/Map/RoadVibrant?ms=92,112&key=AnTcaqBi2ypp0xI-OZNi4W_ik2KhjgpqioTAtXLC8GzkMBQRMlyxvxyTnd5b73im&c=en-US&ur=in&da=n&logo=n&fmt=png&od=1&shading=hill&pp=20.354771,85.815292;dfp"
  },
  {
    "name": "Dr Harpreet Kaur",
    "address": "Amri Hospital, Beside, Satyasai Enclave Rd, Khandagiri, Bhubaneswar, Odisha",
    "phone": "Dr Harpreet Kaur",
    "hours": null,
    "image_url": "https://www.bing.com/maps/geoplat/REST/v1/Imagery/Map/RoadVibrant?ms=92,112&key=AnTcaqBi2ypp0xI-OZNi4W_ik2KhjgpqioTAtXLC8GzkMBQRMlyxvxyTnd5b73im&c=en-US&ur=in&da=n&logo=n&fmt=png&od=1&shading=hill&pp=20.245028,85.78611;dfp"
  },
  {
    "name": "Hahnemann Homoeo Clinic",
    "address": "Near Panchamukhi Hanuman Mandir, Baurisahi Chakk, Tulsipur, Cuttack, Odisha",
    "phone": "Hahnemann Homoeo Clinic",
    "hours": null,
    "image_url": null
  },
  {
    "name": "Gauri Clinic",
    "address": "Hindol Road, Odapada, Odisha 759019",
    "phone": "Gauri Clinic",
    "hours": null,
    "image_url": "https://www.bing.com/maps/geoplat/REST/v1/Imagery/Map/RoadVibrant?ms=92,112&key=AnTcaqBi2ypp0xI-OZNi4W_ik2KhjgpqioTAtXLC8GzkMBQRMlyxvxyTnd5b73im&c=en-US&ur=in&da=n&logo=n&fmt=png&od=1&shading=hill&pp=20.763121,85.421104;dfp"
  },
  {
    "name": "Utkal Clinic",
    "address": "Bijupattnaik Chawk, Cuttack, Odisha 753008",
    "phone": "Utkal Clinic",
    "hours": null,
    "image_url": "https://www.bing.com/maps/geoplat/REST/v1/Imagery/Map/RoadVibrant?ms=92,112&key=AnTcaqBi2ypp0xI-OZNi4W_ik2KhjgpqioTAtXLC8GzkMBQRMlyxvxyTnd5b73im&c=en-US&ur=in&da=n&logo=n&fmt=png&od=1&shading=hill&pp=20.483446,85.859917;dfp"
  }
]