[
  {
    "name": "Dr. Nitin Bhartia",
    "address": "Naharkatia, Dibrugarh, Landmark: Opposite Post Office, Dibrugarh 786001",
    "phone": "Dr. Nitin Bhartia",
    "hours": "Open· Closes 13:00",
    "image_url": "/th?id=OLC.orSPO1jqRjhLXw480x360&w=92&h=134&c=8&rs=1&qlt=80&cdv=1&pid=Local"
  },
  {
    "name": "Srishti Hospitals",
    "address": "AMC Road, Dibrugarh East, Assam 786001",
    "phone": "Srishti Hospitals",
    "hours": null,
    "image_url": "/th?id=OLC.j%2bvkw7xYtdu4WQ480x360&w=92&h=112&c=8&rs=1&qlt=80&cdv=1&pid=Local"
  },
  {
    "name": "Dr. Aritra Pradhan",
    "address": "Srishti Fertility Centre, Srishti Hospital, Dibrugarh East, Assam 786005",
    "phone": "Dr. Aritra Pradhan",
    "hours": "Open· Closes 17:00",
    "image_url": "/th?id=OLC.3hBDsqTxPNeNfA480x360&w=92&h=134&c=8&rs=1&qlt=80&cdv=1&pid=Local"
  },
  {
    "name": "Apollo Clinic",
    "address": "A T Road, Graham Bazar, Near Puja Nursing Home, Dibrugarh, Dibrugarh 786001",
    "phone": "Apollo Clinic",
    "hours": null,
    "image_url": "/th?id=OLC.vWq1z31zhi%2bicg480x360&w=92&h=112&c=8&rs=1&qlt=80&cdv=1&pid=Local"
  },
  {
    "name": "Sanjivani Diaganostics - Hospital",
    "address": "Amc Road, Dibrujan, Assam 786001",
    "phone": "Sanjivani Diaganostics - Hospital",
    "hours": null,
    "image_url": "https://www.bing.com/maps/geoplat/REST/v1/Imagery/Map/RoadVibrant?ms=92,112&key=AnTcaqBi2ypp0xI-OZNi4W_ik2KhjgpqioTAtXLC8GzkMBQRMlyxvxyTnd5b73im&c=en-US&ur=in&da=n&logo=n&fmt=png&od=1&shading=hill&pp=27.492588,94.931129;dfp"
  },
  {
    "name": "Dr. Dipok Kumar Neog",
    "address": "Brahmaputra Diagnostics Hospital Ltd., Jyoti Nagar, Dibrugarh, Assam 786001",
    "phone": "Dr. Dipok Kumar Neog",
    "hours": "Open· Closes 18:00",
    "image_url": "/th?id=OLC.uEm4sUz9ZlFaug480x360&w=92&h=134&c=8&rs=1&qlt=80&cdv=1&pid=Local"
  },
  {
    "name": "Dr Reeta Nath",
    "address": "AMC Road, Paltan Bazar, Opposite Jyotsna Cinema Hall, Jalan Nagar Colony, Dibrugarh, Assam",
    "phone": "Dr Reeta Nath",
    "hours": null,
    "image_url": "https://www.bing.com/maps/geoplat/REST/v1/Imagery/Map/RoadVibrant?ms=92,112&key=AnTcaqBi2ypp0xI-OZNi4W_ik2KhjgpqioTAtXLC8GzkMBQRMlyxvxyTnd5b73im&c=en-US&ur=in&da=n&logo=n&fmt=png&od=1&shading=hill&pp=27.490736,94.924484;dfp"
  },
  {
    "name": "Dr. Prakash Maheswari",
    "address": "Brahmaputra Hospital & Srishti Hospital Near, AMC Rd, Paltan Bazaar, Dibrugarh, Assam",
    "phone": "Dr. Prakash Maheswari",
    "hours": "Closed· Opens 12:00",
    "image_url": "https://www.bing.com/maps/geoplat/REST/v1/Imagery/Map/RoadVibrant?ms=92,134&key=AnTcaqBi2ypp0xI-OZNi4W_ik2KhjgpqioTAtXLC8GzkMBQRMlyxvxyTnd5b73im&c=en-US&ur=in&da=n&logo=n&fmt=png&od=1&shading=hill&pp=27.486732,94.936447;dfp"
  },
  {
    "name": "SRISHTI HOSPITALS & RESEARCH CENTRE",
    "address": "AMC Road, Paltan Bazaar, Dibrugarh, Assam 786001",
    "phone": "SRISHTI HOSPITALS & RESEARCH CENTRE",
    "hours": null,
    "image_url": null
  },
  {
    "name": "Aditya Diagnostics & Hospital",
    "address": "AMC Rd, Near Gautam Bazar, Dibrugarh East, Assam 786005",
    "phone": "Aditya Diagnostics & Hospital",
    "hours": null,
    "image_url": null
  },
  {
    "name": "Dr.Mukesh Fogla",
    "address": "37, At Rd, Graham, Bazar Dibrugarh, Assam 786001",
    "phone": "Dr.Mukesh Fogla",
    "hours": null,
    "image_url": "https://www.bing.com/maps/geoplat/REST/v1/Imagery/Map/RoadVibrant?ms=92,112&key=AnTcaqBi2ypp0xI-OZNi4W_ik2KhjgpqioTAtXLC8GzkMBQRMlyxvxyTnd5b73im&c=en-US&ur=in&da=n&logo=n&fmt=png&od=1&shading=hill&pp=27.490416,94.929649;dfp"
  },
  {
    "name": "Dr. Pulak Kalita- Gynecologist And Fertility Specialist",
    "address": "Appolo Clinic, At Road, Graham Bazar, Dibrugarh, Assam 786001",
    "phone": "Dr. Pulak Kalita- Gynecologist And Fertility Specialist",
    "hours": "Closed· Opens 14:00",
    "image_url": "https://www.bing.com/maps/geoplat/REST/v1/Imagery/Map/RoadVibrant?ms=92,134&key=AnTcaqBi2ypp0xI-OZNi4W_ik2KhjgpqioTAtXLC8GzkMBQRMlyxvxyTnd5b73im&c=en-US&ur=in&da=n&logo=n&fmt=png&od=1&shading=hill&pp=27.49008,94.918465;dfp"
  },
  {
    "name": "Apollo Clinic , Tinsukia",
    "address": "Nilima Apartment, Rangagora Road, Tinsukia, Assam 786125",
    "phone": "Apollo Clinic , Tinsukia",
    "hours": "Open· Closes 19:30",
    "image_url": "https://www.bing.com/maps/geoplat/REST/v1/Imagery/Map/RoadVibrant?ms=92,134&key=AnTcaqBi2ypp0xI-OZNi4W_ik2KhjgpqioTAtXLC8GzkMBQRMlyxvxyTnd5b73im&c=en-US&ur=in&da=n&logo=n&fmt=png&od=1&shading=hill&pp=27.493401,95.349289;dfp"
  },
  {
    "name": "Dr Sourabh Mukharjee Cancer Care Centre",
    "address": "Apeksha Hospital, Medical Road, Dibrugarh, Assam",
    "phone": "Dr Sourabh Mukharjee Cancer Care Centre",
    "hours": null,
    "image_url": "https://www.bing.com/maps/geoplat/REST/v1/Imagery/Map/RoadVibrant?ms=92,112&key=AnTcaqBi2ypp0xI-OZNi4W_ik2KhjgpqioTAtXLC8GzkMBQRMlyxvxyTnd5b73im&c=en-US&ur=in&da=n&logo=n&fmt=png&od=1&shading=hill&pp=27.490187,94.923088;dfp"
  },
  {
    "name": "Poddar Laser Endourology & Stone Clinic",
    "address": "Paltan Bazar, Dibrugarh East, Assam 786001",
    "phone": "Poddar Laser Endourology & Stone Clinic",
    "hours": "Open· Closes 12:00",
    "image_url": null
  },
  {
    "name": "Dr. Silpika C. Bora",
    "address": "Convoy Road, Dibrugarh, Assam",
    "phone": "Dr. Silpika C. Bora",
    "hours": "Open· Closes 13:00",
    "image_url": null
  },
  {
    "name": "Dr. Rahul bagaria | Swastik Hospital",
    "address": "Swastik Hospital Near Naupukhuri, Tinsukia, Assam, India, 786125, Tinsukia, Madhya Pradesh 786125",
    "phone": "Dr. Rahul bagaria | Swastik Hospital",
    "hours": "Closed· Opens 11:00",
    "image_url": null
  },
  {
    "name": "Dr Dibyajyoti Kalita, Nephrologist",
    "address": "Borbari Kidney Clinic. Amc Road, Dibrugarh, Assam, Assam 786001",
    "phone": "Dr Dibyajyoti Kalita, Nephrologist",
    "hours": "Open· Closes 17:00",
    "image_url": null
  }
]