[
  {
    "name": "Dr P.K Kori Clinic",
    "address": "Dindori Road, Masjid Colony, Dindori, Madhya Pradesh 481880",
    "phone": "Dr P.K Kori Clinic",
    "hours": null,
    "image_url": "https://www.bing.com/maps/geoplat/REST/v1/Imagery/Map/RoadVibrant?ms=92,112&key=AnTcaqBi2ypp0xI-OZNi4W_ik2KhjgpqioTAtXLC8GzkMBQRMlyxvxyTnd5b73im&c=en-US&ur=in&da=n&logo=n&fmt=png&od=1&shading=hill&pp=22.944639,81.075249;dfp"
  },
  {
    "name": "DR. Chouksey Poly Clinic",
    "address": "Narmada Pul Paar, Mudki Road, Deora Mal, Near Deora Tiraha, Dindori, Madhya Pradesh 481880",
    "phone": "DR. Chouksey Poly Clinic",
    "hours": null,
    "image_url": "https://www.bing.com/maps/geoplat/REST/v1/Imagery/Map/RoadVibrant?ms=92,112&key=AnTcaqBi2ypp0xI-OZNi4W_ik2KhjgpqioTAtXLC8GzkMBQRMlyxvxyTnd5b73im&c=en-US&ur=in&da=n&logo=n&fmt=png&od=1&shading=hill&pp=22.937883,81.079498;dfp"
  },
  {
    "name": "Dr Rishikesh. Homoeopathy Specialist",
    "address": "Hans Nagar, Dindori, Madhya Pradesh 481880",
    "phone": "Dr Rishikesh. Homoeopathy Specialist",
    "hours": null,
    "image_url": "/th?id=OLC.hYEh8h3HLBzGSA480x360&w=92&h=112&c=8&rs=1&qlt=80&cdv=1&pid=Local"
  },
  {
    "name": "Dr.vijay Chourasia Hospital",
    "address": "R8fg+mfj, Mp Sh 22, Gadasarai, Madhya Pradesh 481882, India, Dindori, Madhya Pradesh, Madhya Pradâ€¦",
    "phone": "Dr.vijay Chourasia Hospital",
    "hours": null,
    "image_url": "https://www.bing.com/maps/geoplat/REST/v1/Imagery/Map/RoadVibrant?ms=92,112&key=AnTcaqBi2ypp0xI-OZNi4W_ik2KhjgpqioTAtXLC8GzkMBQRMlyxvxyTnd5b73im&c=en-US&ur=in&da=n&logo=n&fmt=png&od=1&shading=hill&pp=22.822201,81.3284;dfp"
  },
  {
    "name": "Dr MS Parasthy Clinic",
    "address": "Gorakhpur Road Samnapur, Dindori, Madhya Pradesh 481778",
    "phone": "Dr MS Parasthy Clinic",
    "hours": null,
    "image_url": "https://www.bing.com/maps/geoplat/REST/v1/Imagery/Map/RoadVibrant?ms=92,112&key=AnTcaqBi2ypp0xI-OZNi4W_ik2KhjgpqioTAtXLC8GzkMBQRMlyxvxyTnd5b73im&c=en-US&ur=in&da=n&logo=n&fmt=png&od=1&shading=hill&pp=22.746851,81.09819;dfp"
  },
  {
    "name": "Ashok Clinic",
    "address": "Old Kalwan Road, Bank Of Baroda Atm, Dindori, Maharashtra 422202",
    "phone": "Ashok Clinic",
    "hours": null,
    "image_url": "https://www.bing.com/maps/geoplat/REST/v1/Imagery/Map/RoadVibrant?ms=92,112&key=AnTcaqBi2ypp0xI-OZNi4W_ik2KhjgpqioTAtXLC8GzkMBQRMlyxvxyTnd5b73im&c=en-US&ur=in&da=n&logo=n&fmt=png&od=1&shading=hill&pp=20.203224,73.831169;dfp"
  },
  {
    "name": "Dr Mansuori Clinic",
    "address": "Anuppur Road, Anuppur, Madhya Pradesh 484224",
    "phone": "Dr Mansuori Clinic",
    "hours": null,
    "image_url": "https://www.bing.com/maps/geoplat/REST/v1/Imagery/Map/RoadVibrant?ms=92,112&key=AnTcaqBi2ypp0xI-OZNi4W_ik2KhjgpqioTAtXLC8GzkMBQRMlyxvxyTnd5b73im&c=en-US&ur=in&da=n&logo=n&fmt=png&od=1&shading=hill&pp=23.119638,81.697098;dfp"
  }
]