[
  {
    "name": "Dr. Raja Rasool Mohamed",
    "address": "20/2B, Aarthy Theatre Road, Dindigul, Landmark, Dindigul, Tamil Nadu 624601",
    "phone": "Dr. Raja Rasool Mohamed",
    "hours": "Closed· Opens 18:30",
    "image_url": "https://www.bing.com/maps/geoplat/REST/v1/Imagery/Map/RoadVibrant?ms=92,134&key=AnTcaqBi2ypp0xI-OZNi4W_ik2KhjgpqioTAtXLC8GzkMBQRMlyxvxyTnd5b73im&c=en-US&ur=in&da=n&logo=n&fmt=png&od=1&shading=hill&pp=10.363549,77.982643;dfp"
  },
  {
    "name": "Sakthi Clinic - Dr. K Uma Ramesh - doctor",
    "address": "172, Santhai Road, Nagal Nagar, Dindigul, Tamil Nadu",
    "phone": "Sakthi Clinic - Dr. K Uma Ramesh - doctor",
    "hours": null,
    "image_url": "https://www.bing.com/maps/geoplat/REST/v1/Imagery/Map/RoadVibrant?ms=92,112&key=AnTcaqBi2ypp0xI-OZNi4W_ik2KhjgpqioTAtXLC8GzkMBQRMlyxvxyTnd5b73im&c=en-US&ur=in&da=n&logo=n&fmt=png&od=1&shading=hill&pp=10.353123,77.978844;dfp"
  },
  {
    "name": "Jj Arul Hospital",
    "address": "2/1, A2, Madurai Dindigul NH 8XJ4+FJ2 Begampur, Po, Dindigul, Tamil Nadu",
    "phone": "Jj Arul Hospital",
    "hours": null,
    "image_url": "https://www.bing.com/maps/geoplat/REST/v1/Imagery/Map/RoadVibrant?ms=92,112&key=AnTcaqBi2ypp0xI-OZNi4W_ik2KhjgpqioTAtXLC8GzkMBQRMlyxvxyTnd5b73im&c=en-US&ur=in&da=n&logo=n&fmt=png&od=1&shading=hill&pp=10.35871,77.978523;dfp"
  },
  {
    "name": "Dr.Geetha's Classic Homoeo Clinic",
    "address": "9 80 Ft R M Colony Road, Dindigul, Tamil Nadu 624001",
    "phone": "Dr.Geetha's Classic Homoeo Clinic",
    "hours": null,
    "image_url": "/th?id=OLC.De%2b4dYaYNSffpQ480x360&w=92&h=112&c=8&rs=1&qlt=80&cdv=1&pid=Local"
  },
  {
    "name": "Dr. V. Geetha",
    "address": "80 Feet Road, R M Colony 9th Cross, Dindigul, Tamil Nadu",
    "phone": "Dr. V. Geetha",
    "hours": "Open· Closes 14:00",
    "image_url": "https://www.bing.com/maps/geoplat/REST/v1/Imagery/Map/RoadVibrant?ms=92,112&key=AnTcaqBi2ypp0xI-OZNi4W_ik2KhjgpqioTAtXLC8GzkMBQRMlyxvxyTnd5b73im&c=en-US&ur=in&da=n&logo=n&fmt=png&od=1&shading=hill&pp=10.374466,77.977142;dfp"
  },
  {
    "name": "Bhanumathi Clinic",
    "address": "Mingle Road, Ymr Patti, Dindigul, Tamil Nadu 624003",
    "phone": "Bhanumathi Clinic",
    "hours": null,
    "image_url": "https://www.bing.com/maps/geoplat/REST/v1/Imagery/Map/RoadVibrant?ms=92,112&key=AnTcaqBi2ypp0xI-OZNi4W_ik2KhjgpqioTAtXLC8GzkMBQRMlyxvxyTnd5b73im&c=en-US&ur=in&da=n&logo=n&fmt=png&od=1&shading=hill&pp=10.355511,77.98008;dfp"
  },
  {
    "name": "Almaa Siddha Care Clinic",
    "address": "Almaa Siddha Care Clinic, Kurinji Herbals Agency, No:151 Sheme Road Nagal Nagar, Dindigul, Tamil Nad…",
    "phone": "Almaa Siddha Care Clinic",
    "hours": "Open· Closes 18:00",
    "image_url": null
  },
  {
    "name": "Dhanvanthri Nilayam Dindigul Branch",
    "address": "Round Road, Dindigul, Tamil Nadu 624003",
    "phone": "Dhanvanthri Nilayam Dindigul Branch",
    "hours": null,
    "image_url": "https://www.bing.com/maps/geoplat/REST/v1/Imagery/Map/RoadVibrant?ms=92,112&key=AnTcaqBi2ypp0xI-OZNi4W_ik2KhjgpqioTAtXLC8GzkMBQRMlyxvxyTnd5b73im&c=en-US&ur=in&da=n&logo=n&fmt=png&od=1&shading=hill&pp=10.358826,77.98951;dfp"
  },
  {
    "name": "Dr. Narthanan",
    "address": "90, South car Street, Landmark: Opposite to Fire Service Station, Dindigul",
    "phone": "Dr. Narthanan",
    "hours": "Open· Closes 21:30",
    "image_url": "https://www.bing.com/maps/geoplat/REST/v1/Imagery/Map/RoadVibrant?ms=92,112&key=AnTcaqBi2ypp0xI-OZNi4W_ik2KhjgpqioTAtXLC8GzkMBQRMlyxvxyTnd5b73im&c=en-US&ur=in&da=n&logo=n&fmt=png&od=1&shading=hill&pp=10.35842,77.97081;dfp"
  },
  {
    "name": "Dr.geetha's Classic Homoeo Clinic",
    "address": "Rm Colony Main Rd, Nehruji Nagar, Dindigul, Tamil Nadu 624004, India, Dindigul, Tamil Nadu 624004",
    "phone": "Dr.geetha's Classic Homoeo Clinic",
    "hours": null,
    "image_url": "https://www.bing.com/maps/geoplat/REST/v1/Imagery/Map/RoadVibrant?ms=92,112&key=AnTcaqBi2ypp0xI-OZNi4W_ik2KhjgpqioTAtXLC8GzkMBQRMlyxvxyTnd5b73im&c=en-US&ur=in&da=n&logo=n&fmt=png&od=1&shading=hill&pp=10.366996,77.979713;dfp"
  },
  {
    "name": "Dr. R.M.K.R.K. Sudharson",
    "address": "No.92, Pensioner Street, Dindigul. Landmark: Opposite Gomath Towers, Dindigul, Tamil Nadu",
    "phone": "Dr. R.M.K.R.K. Sudharson",
    "hours": "Open· Closes 21:00",
    "image_url": "https://www.bing.com/maps/geoplat/REST/v1/Imagery/Map/RoadVibrant?ms=92,112&key=AnTcaqBi2ypp0xI-OZNi4W_ik2KhjgpqioTAtXLC8GzkMBQRMlyxvxyTnd5b73im&c=en-US&ur=in&da=n&logo=n&fmt=png&od=1&shading=hill&pp=10.36577,77.979561;dfp"
  },
  {
    "name": "Jegadeesh Clinic",
    "address": "27, Pandian Nagar, Nehruji Nagar, Dindigul, Tamil Nadu",
    "phone": "Jegadeesh Clinic",
    "hours": null,
    "image_url": null
  },
  {
    "name": "Ramkumar Mill",
    "address": "S/o.k.Ramaraj, Amaravathi Nagar, Karur Road, n.s.Nagar, Dindigul, Dindigul, Tamil Nadu, Tamil Nadu …",
    "phone": "Ramkumar Mill",
    "hours": null,
    "image_url": "https://www.bing.com/maps/geoplat/REST/v1/Imagery/Map/RoadVibrant?ms=92,112&key=AnTcaqBi2ypp0xI-OZNi4W_ik2KhjgpqioTAtXLC8GzkMBQRMlyxvxyTnd5b73im&c=en-US&ur=in&da=n&logo=n&fmt=png&od=1&shading=hill&pp=10.368461,77.969048;dfp"
  },
  {
    "name": "Dr A Seethapathy Ent Clinic",
    "address": "5, Mendonsa Colony Road, Police Station, Mendonsa Colony, Dindigul, Tamil Nadu 624003",
    "phone": "Dr A Seethapathy Ent Clinic",
    "hours": null,
    "image_url": "https://www.bing.com/maps/geoplat/REST/v1/Imagery/Map/RoadVibrant?ms=92,112&key=AnTcaqBi2ypp0xI-OZNi4W_ik2KhjgpqioTAtXLC8GzkMBQRMlyxvxyTnd5b73im&c=en-US&ur=in&da=n&logo=n&fmt=png&od=1&shading=hill&pp=10.360942,77.982841;dfp"
  },
  {
    "name": "Dr. Sivaraman | RSC Kids Clinic",
    "address": "Nilakottai Dindigal, Madhurai Main Road, Dindigul, Tamil Nadu, India, 624208, Dindigul, Madhya Pradesh 624208",
    "phone": "Dr. Sivaraman | RSC Kids Clinic",
    "hours": "Closed· Opens 17:30",
    "image_url": null
  },
  {
    "name": "Vijaya Clinic Diabetes Care Center",
    "address": "Chatram Street, Dindigul, Tamil Nadu 624001",
    "phone": "Vijaya Clinic Diabetes Care Center",
    "hours": null,
    "image_url": null
  },
  {
    "name": "Dr. R. Sasi Kumar",
    "address": "No.92, Pensioner Street, Dindigul. Landmark: Opposite Gomath Towers, Dindigul, Tamil Nadu",
    "phone": "Dr. R. Sasi Kumar",
    "hours": null,
    "image_url": null
  },
  {
    "name": "Dr. Vinoth Chandran.Sr",
    "address": "137/1 R S Road, Saravana Complex, Dindigul, Landmark: Near Kannal Department Store, Dindigul, Tamil Nadu",
    "phone": "Dr. Vinoth Chandran.Sr",
    "hours": "Open· Closes 14:00",
    "image_url": "https://www.bing.com/maps/geoplat/REST/v1/Imagery/Map/RoadVibrant?ms=92,112&key=AnTcaqBi2ypp0xI-OZNi4W_ik2KhjgpqioTAtXLC8GzkMBQRMlyxvxyTnd5b73im&c=en-US&ur=in&da=n&logo=n&fmt=png&od=1&shading=hill&pp=10.354301,77.978424;dfp"
  }
]