[
  {
    "name": "Dr. Shashi K Suman",
    "address": "Municipality Chowk, Dumka, Jharkhand",
    "phone": "Dr. Shashi K Suman",
    "hours": null,
    "image_url": "https://www.bing.com/maps/geoplat/REST/v1/Imagery/Map/RoadVibrant?ms=92,112&key=AnTcaqBi2ypp0xI-OZNi4W_ik2KhjgpqioTAtXLC8GzkMBQRMlyxvxyTnd5b73im&c=en-US&ur=in&da=n&logo=n&fmt=png&od=1&shading=hill&pp=24.265244,87.250191;dfp"
  },
  {
    "name": "Dr Sweta Swaraj",
    "address": "A K Das Road, Dumka, Jharkhand, Dumka",
    "phone": "Dr Sweta Swaraj",
    "hours": null,
    "image_url": "/th?id=OLC.B8gk39c3pP1q0Q480x360&w=92&h=112&c=8&rs=1&qlt=80&cdv=1&pid=Local"
  },
  {
    "name": "Hansda Clinic",
    "address": "S P College Road, Karharbill, Dumka, Jharkhand, Indien, Jharkhand 814101",
    "phone": "Hansda Clinic",
    "hours": null,
    "image_url": "/th?id=OLC.HVxfetzTZ%2bMhEw480x360&w=92&h=112&c=8&rs=1&qlt=80&cdv=1&pid=Local"
  },
  {
    "name": "Prasads Clinic",
    "address": "Nh114a, Dumka, Jharkhand 814101",
    "phone": "Prasads Clinic",
    "hours": null,
    "image_url": "https://www.bing.com/maps/geoplat/REST/v1/Imagery/Map/RoadVibrant?ms=92,112&key=AnTcaqBi2ypp0xI-OZNi4W_ik2KhjgpqioTAtXLC8GzkMBQRMlyxvxyTnd5b73im&c=en-US&ur=in&da=n&logo=n&fmt=png&od=1&shading=hill&pp=24.264776,87.244263;dfp"
  },
  {
    "name": "Nagraj Clinic",
    "address": "Bagnocha, Dumka, Jharkhand 814110",
    "phone": "Nagraj Clinic",
    "hours": null,
    "image_url": "https://www.bing.com/maps/geoplat/REST/v1/Imagery/Map/RoadVibrant?ms=92,112&key=AnTcaqBi2ypp0xI-OZNi4W_ik2KhjgpqioTAtXLC8GzkMBQRMlyxvxyTnd5b73im&c=en-US&ur=in&da=n&logo=n&fmt=png&od=1&shading=hill&pp=24.277069,87.241402;dfp"
  },
  {
    "name": "Dr. Mukesh Kumar",
    "address": "Bakshi Bandh Road, Naya Para, Jharkhand 814110",
    "phone": "Dr. Mukesh Kumar",
    "hours": null,
    "image_url": "https://www.bing.com/maps/geoplat/REST/v1/Imagery/Map/RoadVibrant?ms=92,112&key=AnTcaqBi2ypp0xI-OZNi4W_ik2KhjgpqioTAtXLC8GzkMBQRMlyxvxyTnd5b73im&c=en-US&ur=in&da=n&logo=n&fmt=png&od=1&shading=hill&pp=24.290304,87.23304;dfp"
  },
  {
    "name": "Dr. Diwakar vatf | vicha eye care",
    "address": "Dr Land Durga Nath Mandir in Front gym Dumka, Dumka, Jharkhand, India, 814101, Dumka, Madhya Pradesh 81…",
    "phone": "Dr. Diwakar vatf | vicha eye care",
    "hours": "Open· Closes 20:00",
    "image_url": null
  },
  {
    "name": "Raj Clinic",
    "address": "Gyan Bharti School, Singhara Pokhar, Dumka, Bakshibandh Road, Dumka, Jharkhand 814101",
    "phone": "Raj Clinic",
    "hours": null,
    "image_url": "https://www.bing.com/maps/geoplat/REST/v1/Imagery/Map/RoadVibrant?ms=92,112&key=AnTcaqBi2ypp0xI-OZNi4W_ik2KhjgpqioTAtXLC8GzkMBQRMlyxvxyTnd5b73im&c=en-US&ur=in&da=n&logo=n&fmt=png&od=1&shading=hill&pp=24.270342,87.245239;dfp"
  },
  {
    "name": "Rajkiya Ayurvedic Hospital",
    "address": "Rampurhat Road, Near Policeline, Dumka, Jharkhand",
    "phone": "Rajkiya Ayurvedic Hospital",
    "hours": null,
    "image_url": null
  },
  {
    "name": "ZiffyHealth Ayush e-Clinic",
    "address": "Behind Heroshowroom, Dudhani, Dumka, Jharkhand",
    "phone": "ZiffyHealth Ayush e-Clinic",
    "hours": null,
    "image_url": "https://www.bing.com/maps/geoplat/REST/v1/Imagery/Map/RoadVibrant?ms=92,112&key=AnTcaqBi2ypp0xI-OZNi4W_ik2KhjgpqioTAtXLC8GzkMBQRMlyxvxyTnd5b73im&c=en-US&ur=in&da=n&logo=n&fmt=png&od=1&shading=hill&pp=24.285904,87.23745;dfp"
  },
  {
    "name": "Decibel Speech & hearing care - Speech Therapy, Hearing AID Clinic Dhanbad",
    "address": "Prithivi Astha Trade Centre, Bekar Bandh, opp. Surya Shiv Mandir, Dhanbad, Jharkhand",
    "phone": "Decibel Speech & hearing care - Speech Therapy, Hearing AID Clinic Dhanbad",
    "hours": "Open· Closes 20:00",
    "image_url": "https://www.bing.com/maps/geoplat/REST/v1/Imagery/Map/RoadVibrant?ms=92,134&key=AnTcaqBi2ypp0xI-OZNi4W_ik2KhjgpqioTAtXLC8GzkMBQRMlyxvxyTnd5b73im&c=en-US&ur=in&da=n&logo=n&fmt=png&od=1&shading=hill&pp=23.78503,86.439369;dfp"
  },
  {
    "name": "Radha Rani Ayurvedic Clinic",
    "address": "At- Gardi, Po- Jarmundi, Ward No. 01, Ps- Jarmundi, Jarmundi, Dumka, Jharkhand 814141",
    "phone": "Radha Rani Ayurvedic Clinic",
    "hours": null,
    "image_url": "https://www.bing.com/maps/geoplat/REST/v1/Imagery/Map/RoadVibrant?ms=92,112&key=AnTcaqBi2ypp0xI-OZNi4W_ik2KhjgpqioTAtXLC8GzkMBQRMlyxvxyTnd5b73im&c=en-US&ur=in&da=n&logo=n&fmt=png&od=1&shading=hill&pp=24.265032,87.255478;dfp"
  },
  {
    "name": "Health Care Diagnostic Center",
    "address": "Main, Road Sialkot Bypass, opp. Royal Garden Hotel and Apex College, Faiz Alam Town, Gujranwala, Punjab 75…",
    "phone": "Health Care Diagnostic Center",
    "hours": null,
    "image_url": "https://www.bing.com/maps/geoplat/REST/v1/Imagery/Map/RoadVibrant?ms=92,112&key=AnTcaqBi2ypp0xI-OZNi4W_ik2KhjgpqioTAtXLC8GzkMBQRMlyxvxyTnd5b73im&c=en-US&ur=in&da=n&logo=n&fmt=png&od=1&shading=hill&pp=24.267815,87.248543;dfp"
  },
  {
    "name": "Vivekanand Jha",
    "address": "Bhagalpur Road, Zila School, Dumka, Jharkhand 814101",
    "phone": "Vivekanand Jha",
    "hours": null,
    "image_url": "https://www.bing.com/maps/geoplat/REST/v1/Imagery/Map/RoadVibrant?ms=92,112&key=AnTcaqBi2ypp0xI-OZNi4W_ik2KhjgpqioTAtXLC8GzkMBQRMlyxvxyTnd5b73im&c=en-US&ur=in&da=n&logo=n&fmt=png&od=1&shading=hill&pp=24.270367,87.247261;dfp"
  },
  {
    "name": "Patanjali Chikitsalay",
    "address": "Ground Floor, Bhaghalpur Road, Dumka, Jharkhand 814101",
    "phone": "Patanjali Chikitsalay",
    "hours": "Open· Closes 21:00",
    "image_url": "https://www.bing.com/maps/geoplat/REST/v1/Imagery/Map/RoadVibrant?ms=92,134&key=AnTcaqBi2ypp0xI-OZNi4W_ik2KhjgpqioTAtXLC8GzkMBQRMlyxvxyTnd5b73im&c=en-US&ur=in&da=n&logo=n&fmt=png&od=1&shading=hill&pp=24.271597,87.245491;dfp"
  },
  {
    "name": "Dr Lal Pathlabs",
    "address": "Bhagalpur - Dumka Rd, Basmati Nagar, Godda, Jharkhand",
    "phone": "Dr Lal Pathlabs",
    "hours": "Open· Closes 19:30",
    "image_url": "https://www.bing.com/maps/geoplat/REST/v1/Imagery/Map/RoadVibrant?ms=92,134&key=AnTcaqBi2ypp0xI-OZNi4W_ik2KhjgpqioTAtXLC8GzkMBQRMlyxvxyTnd5b73im&c=en-US&ur=in&da=n&logo=n&fmt=png&od=1&shading=hill&pp=24.285311,87.24192;dfp"
  },
  {
    "name": "Jerath Path Labs & Allergy Testing Centre",
    "address": "Prateek LAB Dr.A.K Dass Road, Napit Para, in Front of Kalpana Medical Store, Dumka, Jharkhand",
    "phone": "Jerath Path Labs & Allergy Testing Centre",
    "hours": null,
    "image_url": "https://www.bing.com/maps/geoplat/REST/v1/Imagery/Map/RoadVibrant?ms=92,112&key=AnTcaqBi2ypp0xI-OZNi4W_ik2KhjgpqioTAtXLC8GzkMBQRMlyxvxyTnd5b73im&c=en-US&ur=in&da=n&logo=n&fmt=png&od=1&shading=hill&pp=24.268015,87.256462;dfp"
  }
]