[
  {
    "name": "Dr. Hitesh Bardania- General Physician in Baran",
    "address": "Bardania Hospital, Pratap Chowk, Rajasthan",
    "phone": "Dr. Hitesh Bardania- General Physician in Baran",
    "hours": null,
    "image_url": "https://www.bing.com/maps/geoplat/REST/v1/Imagery/Map/RoadVibrant?ms=92,112&key=AnTcaqBi2ypp0xI-OZNi4W_ik2KhjgpqioTAtXLC8GzkMBQRMlyxvxyTnd5b73im&c=en-US&ur=in&da=n&logo=n&fmt=png&od=1&shading=hill&pp=23.855782,73.709396;clcp"
  },
  {
    "name": "Ravi Clinic",
    "address": "Bus Stand To Hospital Road, Sadar Police Station Dungarpur, Dungarpur, Rajasthan 314001",
    "phone": "Ravi Clinic",
    "hours": null,
    "image_url": "https://www.bing.com/maps/geoplat/REST/v1/Imagery/Map/RoadVibrant?ms=92,112&key=AnTcaqBi2ypp0xI-OZNi4W_ik2KhjgpqioTAtXLC8GzkMBQRMlyxvxyTnd5b73im&c=en-US&ur=in&da=n&logo=n&fmt=png&od=1&shading=hill&pp=23.857754,73.715553;dfp"
  },
  {
    "name": "DR.Manish Labana",
    "address": "Hospital Road, New Colony, Dungarpur, Rajasthan",
    "phone": "DR.Manish Labana",
    "hours": null,
    "image_url": "/th?id=OLC.0a%2fckgCrjQzkhA480x360&w=92&h=112&c=8&rs=1&qlt=80&cdv=1&pid=Local"
  },
  {
    "name": "Dr Banveer Clinic",
    "address": "Hospital Road, Axis Bank, New Colony, Dungarpur, Rajasthan 314001",
    "phone": "Dr Banveer Clinic",
    "hours": null,
    "image_url": "https://www.bing.com/maps/geoplat/REST/v1/Imagery/Map/RoadVibrant?ms=92,112&key=AnTcaqBi2ypp0xI-OZNi4W_ik2KhjgpqioTAtXLC8GzkMBQRMlyxvxyTnd5b73im&c=en-US&ur=in&da=n&logo=n&fmt=png&od=1&shading=hill&pp=23.857346,73.708794;dfp"
  },
  {
    "name": "Anand Clinic",
    "address": "1, Near BUS Stand, Simalwara Road, Simalwara, Dungarpur, Rajasthan 314403",
    "phone": "Anand Clinic",
    "hours": null,
    "image_url": "https://www.bing.com/maps/geoplat/REST/v1/Imagery/Map/RoadVibrant?ms=92,112&key=AnTcaqBi2ypp0xI-OZNi4W_ik2KhjgpqioTAtXLC8GzkMBQRMlyxvxyTnd5b73im&c=en-US&ur=in&da=n&logo=n&fmt=png&od=1&shading=hill&pp=23.833584,73.711411;dfp"
  },
  {
    "name": "DR. Piyush Singhvi Ent Doctor",
    "address": "Street NO. 5, Near Tushar Vatika, Jaihind Nagar, Ashok Nagar, Dungarpur, Rajasthan",
    "phone": "DR. Piyush Singhvi Ent Doctor",
    "hours": null,
    "image_url": "https://www.bing.com/maps/geoplat/REST/v1/Imagery/Map/RoadVibrant?ms=92,112&key=AnTcaqBi2ypp0xI-OZNi4W_ik2KhjgpqioTAtXLC8GzkMBQRMlyxvxyTnd5b73im&c=en-US&ur=in&da=n&logo=n&fmt=png&od=1&shading=hill&pp=23.854208,73.70771;dfp"
  },
  {
    "name": "Dr. Kanak Yadav ENT",
    "address": "New Hospital Road, Near Old Rto Office, Dungarpur, Rajasthan, Rajasthan 314001",
    "phone": "Dr. Kanak Yadav ENT",
    "hours": null,
    "image_url": null
  },
  {
    "name": "Dr. Nimit Jain",
    "address": "Abhay Eye Clinic, New Colony, Dungarpur, Rajasthan 314001, India, Dungarpur, Rajasthan 314001",
    "phone": "Dr. Nimit Jain",
    "hours": "Open· Closes 14:00",
    "image_url": null
  },
  {
    "name": "Gujrat Clinic",
    "address": "1 Nandor, Dungarpur, Rajasthan 314029",
    "phone": "Gujrat Clinic",
    "hours": null,
    "image_url": "https://www.bing.com/maps/geoplat/REST/v1/Imagery/Map/RoadVibrant?ms=92,112&key=AnTcaqBi2ypp0xI-OZNi4W_ik2KhjgpqioTAtXLC8GzkMBQRMlyxvxyTnd5b73im&c=en-US&ur=in&da=n&logo=n&fmt=png&od=1&shading=hill&pp=23.854092,73.714096;dfp"
  },
  {
    "name": "Dr. Arpit Saxena",
    "address": "Adarsh Nagar Link Road, Dungarpur, Rajasthan",
    "phone": "Dr. Arpit Saxena",
    "hours": "Open· Closes 20:30",
    "image_url": "https://www.bing.com/maps/geoplat/REST/v1/Imagery/Map/RoadVibrant?ms=92,112&key=AnTcaqBi2ypp0xI-OZNi4W_ik2KhjgpqioTAtXLC8GzkMBQRMlyxvxyTnd5b73im&c=en-US&ur=in&da=n&logo=n&fmt=png&od=1&shading=hill&pp=23.84598,73.715935;dfp"
  },
  {
    "name": "Ashapura X-Ray & Diagnostic Center",
    "address": "Suthar Bhawan, 234, I, Nandli Sagora, Dungarpur, Rajasthan 314022",
    "phone": "Ashapura X-Ray & Diagnostic Center",
    "hours": null,
    "image_url": "https://www.bing.com/maps/geoplat/REST/v1/Imagery/Map/RoadVibrant?ms=92,112&key=AnTcaqBi2ypp0xI-OZNi4W_ik2KhjgpqioTAtXLC8GzkMBQRMlyxvxyTnd5b73im&c=en-US&ur=in&da=n&logo=n&fmt=png&od=1&shading=hill&pp=23.856997,73.720146;dfp"
  },
  {
    "name": "Medicentre Sonography and Clinical Lab Dungarpur",
    "address": "Bankers St, New Colony, Dungarpur, Rajasthan",
    "phone": "Medicentre Sonography and Clinical Lab Dungarpur",
    "hours": null,
    "image_url": null
  },
  {
    "name": "Kamal Medical hall - Best Medical Store, Surgical Item Dealer , Doctor Facility, Cosmetics Shop",
    "address": "State Highway-10, Dungarpur, Rajasthan 314001",
    "phone": "Kamal Medical hall - Best Medical Store, Surgical Item Dealer , Doctor Facility, Cosmetics Shop",
    "hours": null,
    "image_url": "https://www.bing.com/maps/geoplat/REST/v1/Imagery/Map/RoadVibrant?ms=92,112&key=AnTcaqBi2ypp0xI-OZNi4W_ik2KhjgpqioTAtXLC8GzkMBQRMlyxvxyTnd5b73im&c=en-US&ur=in&da=n&logo=n&fmt=png&od=1&shading=hill&pp=23.84646,73.710419;dfp"
  },
  {
    "name": "Medicentre Sonography & Clinical Lab",
    "address": "Hospital Road, Dungarpur, Rajasthan 314001",
    "phone": "Medicentre Sonography & Clinical Lab",
    "hours": null,
    "image_url": "https://www.bing.com/maps/geoplat/REST/v1/Imagery/Map/RoadVibrant?ms=92,112&key=AnTcaqBi2ypp0xI-OZNi4W_ik2KhjgpqioTAtXLC8GzkMBQRMlyxvxyTnd5b73im&c=en-US&ur=in&da=n&logo=n&fmt=png&od=1&shading=hill&pp=23.854116,73.717766;dfp"
  },
  {
    "name": "Bhavya Clinical Lab",
    "address": "11, Chikhli, Dungarpur, Rajasthan 314030",
    "phone": "Bhavya Clinical Lab",
    "hours": null,
    "image_url": "https://www.bing.com/maps/geoplat/REST/v1/Imagery/Map/RoadVibrant?ms=92,112&key=AnTcaqBi2ypp0xI-OZNi4W_ik2KhjgpqioTAtXLC8GzkMBQRMlyxvxyTnd5b73im&c=en-US&ur=in&da=n&logo=n&fmt=png&od=1&shading=hill&pp=23.833145,73.711723;dfp"
  },
  {
    "name": "Zeel Multispeciality Hospital",
    "address": "Zeel Hospital Rudraprayag, Sagwara, Rajasthan 314025",
    "phone": "Zeel Multispeciality Hospital",
    "hours": null,
    "image_url": null
  },
  {
    "name": "Dr. Yogesh Upadhyay",
    "address": "Bamswara, Dungarpur, Rajasthan",
    "phone": "Dr. Yogesh Upadhyay",
    "hours": "Closed· Opens 13:00",
    "image_url": "https://www.bing.com/maps/geoplat/REST/v1/Imagery/Map/RoadVibrant?ms=92,112&key=AnTcaqBi2ypp0xI-OZNi4W_ik2KhjgpqioTAtXLC8GzkMBQRMlyxvxyTnd5b73im&c=en-US&ur=in&da=n&logo=n&fmt=png&od=1&shading=hill&pp=23.839718,74.176605;dfp"
  }
]