[
  {
    "name": "Dr. Bhagat Ratnani- General Physician",
    "address": "Devika Nursing Home, Sindhi Colony, Station Road, Durg, Chhattisgarh 491001",
    "phone": "Dr. Bhagat Ratnani- General Physician",
    "hours": "Open· Closes 14:00",
    "image_url": "https://www.bing.com/maps/geoplat/REST/v1/Imagery/Map/RoadVibrant?ms=92,134&key=AnTcaqBi2ypp0xI-OZNi4W_ik2KhjgpqioTAtXLC8GzkMBQRMlyxvxyTnd5b73im&c=en-US&ur=in&da=n&logo=n&fmt=png&od=1&shading=hill&pp=21.193085,81.28447;dfp"
  },
  {
    "name": "Dr Vinod Tiwari",
    "address": "Sanjivani Hospital and Research Centre, Bilaspur, Chhattisgarh 495001",
    "phone": "Dr Vinod Tiwari",
    "hours": "Open· Closes 17:00",
    "image_url": "/th?id=OLC.HmrcUdAUWvOGdQ480x360&w=92&h=134&c=8&rs=1&qlt=80&cdv=1&pid=Local"
  },
  {
    "name": "Dr Atul Kumar Agrawal Clinic",
    "address": "Shop no D15 Om Parisar, Arya Nagar, Durg, Chhattisgarh",
    "phone": "Dr Atul Kumar Agrawal Clinic",
    "hours": null,
    "image_url": "https://www.bing.com/maps/geoplat/REST/v1/Imagery/Map/RoadVibrant?ms=92,112&key=AnTcaqBi2ypp0xI-OZNi4W_ik2KhjgpqioTAtXLC8GzkMBQRMlyxvxyTnd5b73im&c=en-US&ur=in&da=n&logo=n&fmt=png&od=1&shading=hill&pp=21.1833,81.283302;dfp"
  },
  {
    "name": "Dr Pooja Pandey",
    "address": "Balod Durg Road, Durg, Chhattisgarh 491001",
    "phone": "Dr Pooja Pandey",
    "hours": "Opens in 14 mins",
    "image_url": "https://www.bing.com/maps/geoplat/REST/v1/Imagery/Map/RoadVibrant?ms=92,134&key=AnTcaqBi2ypp0xI-OZNi4W_ik2KhjgpqioTAtXLC8GzkMBQRMlyxvxyTnd5b73im&c=en-US&ur=in&da=n&logo=n&fmt=png&od=1&shading=hill&pp=21.187828,81.282181;dfp"
  },
  {
    "name": "Dr. Jay Tiwari",
    "address": "Junwani Road, Smriti Nagar, Near Treasure Island Mall, Durg, Chhattisgarh, Apollo BSR Hospitals, Bhilai, Chhat…",
    "phone": "Dr. Jay Tiwari",
    "hours": "Open· Closes 18:00",
    "image_url": "https://www.bing.com/maps/geoplat/REST/v1/Imagery/Map/RoadVibrant?ms=92,134&key=AnTcaqBi2ypp0xI-OZNi4W_ik2KhjgpqioTAtXLC8GzkMBQRMlyxvxyTnd5b73im&c=en-US&ur=in&da=n&logo=n&fmt=png&od=1&shading=hill&pp=21.214119,81.315887;dfp"
  },
  {
    "name": "Dr. Karuna Kashyap",
    "address": "Indian Medical Association Building Chowk, Mohan Nagar, Durg, Chhattisgarh 491001",
    "phone": "Dr. Karuna Kashyap",
    "hours": null,
    "image_url": "https://www.bing.com/maps/geoplat/REST/v1/Imagery/Map/RoadVibrant?ms=92,112&key=AnTcaqBi2ypp0xI-OZNi4W_ik2KhjgpqioTAtXLC8GzkMBQRMlyxvxyTnd5b73im&c=en-US&ur=in&da=n&logo=n&fmt=png&od=1&shading=hill&pp=21.199766,81.287315;dfp"
  },
  {
    "name": "SHRI Dhanwantari Clinic",
    "address": "Potiya Kala Road, Durg, Chhattisgarh, Chhattisgarh 491001",
    "phone": "SHRI Dhanwantari Clinic",
    "hours": "Open· Closes 14:00",
    "image_url": "https://www.bing.com/maps/geoplat/REST/v1/Imagery/Map/RoadVibrant?ms=92,134&key=AnTcaqBi2ypp0xI-OZNi4W_ik2KhjgpqioTAtXLC8GzkMBQRMlyxvxyTnd5b73im&c=en-US&ur=in&da=n&logo=n&fmt=png&od=1&shading=hill&pp=21.168781,81.285248;dfp"
  },
  {
    "name": "Shree Gaytri Aarogyam Clinic",
    "address": "Durg Rd, Housing Board Colony, HIG 16, Sant Lahari Nagar, Dhamtari, Chhattisgarh",
    "phone": "Shree Gaytri Aarogyam Clinic",
    "hours": null,
    "image_url": null
  },
  {
    "name": "Nirmala Clinic",
    "address": "Near Kanchan Traders, C.G, Dhanora, Chhattisgarh",
    "phone": "Nirmala Clinic",
    "hours": null,
    "image_url": "https://www.bing.com/maps/geoplat/REST/v1/Imagery/Map/RoadVibrant?ms=92,112&key=AnTcaqBi2ypp0xI-OZNi4W_ik2KhjgpqioTAtXLC8GzkMBQRMlyxvxyTnd5b73im&c=en-US&ur=in&da=n&logo=n&fmt=png&od=1&shading=hill&pp=21.175068,81.292366;dfp"
  },
  {
    "name": "Akruti Clinic",
    "address": "Opposite Tehsil Office, Near Collectorate, Durg, Chhattisgarh 491001",
    "phone": "Akruti Clinic",
    "hours": "Open· Closes 21:00",
    "image_url": null
  },
  {
    "name": "Aarogyam Superspeciality Hospital & Research Center - Urologist, Nephrology, Laparoscopic",
    "address": "Nh 53, Opposite Toyota Showroom, Near D- Mart, Kadambari Nagar, Durg, Chhattisgarh, Chhattisgarh 49…",
    "phone": "Aarogyam Superspeciality Hospital & Research Center - Urologist, Nephrology, Laparoscopic",
    "hours": null,
    "image_url": null
  },
  {
    "name": "Dr.G.K.Arogya Clinic",
    "address": "Shiv Chowk, Kadambari Nagar, Durg, Chhattisgarh 491001",
    "phone": "Dr.G.K.Arogya Clinic",
    "hours": null,
    "image_url": "https://www.bing.com/maps/geoplat/REST/v1/Imagery/Map/RoadVibrant?ms=92,112&key=AnTcaqBi2ypp0xI-OZNi4W_ik2KhjgpqioTAtXLC8GzkMBQRMlyxvxyTnd5b73im&c=en-US&ur=in&da=n&logo=n&fmt=png&od=1&shading=hill&pp=21.21036,81.29509;dfp"
  },
  {
    "name": "Durga Clinic",
    "address": "Kuwaa Chowk, G E Road, Pachri Para, Durg, Chhattisgarh 491001",
    "phone": "Durga Clinic",
    "hours": null,
    "image_url": "https://www.bing.com/maps/geoplat/REST/v1/Imagery/Map/RoadVibrant?ms=92,112&key=AnTcaqBi2ypp0xI-OZNi4W_ik2KhjgpqioTAtXLC8GzkMBQRMlyxvxyTnd5b73im&c=en-US&ur=in&da=n&logo=n&fmt=png&od=1&shading=hill&pp=21.188795,81.282745;dfp"
  },
  {
    "name": "Sharda Clinic",
    "address": "Hotel Alka Palace, Gurudwara Road, Deepak Nagar, Durg, Chhattisgarh 491001",
    "phone": "Sharda Clinic",
    "hours": null,
    "image_url": "https://www.bing.com/maps/geoplat/REST/v1/Imagery/Map/RoadVibrant?ms=92,112&key=AnTcaqBi2ypp0xI-OZNi4W_ik2KhjgpqioTAtXLC8GzkMBQRMlyxvxyTnd5b73im&c=en-US&ur=in&da=n&logo=n&fmt=png&od=1&shading=hill&pp=21.197237,81.28833;dfp"
  },
  {
    "name": "Dr. Ratan Tiwari - Best Otolaryngologist",
    "address": "Junwani Road, Smriti Nagar, Near Treasure Island Mall, Durg, Chhattisgarh, Apollo BSR Hospitals, Bhilai, Chhat…",
    "phone": "Dr. Ratan Tiwari - Best Otolaryngologist",
    "hours": null,
    "image_url": "https://www.bing.com/maps/geoplat/REST/v1/Imagery/Map/RoadVibrant?ms=92,112&key=AnTcaqBi2ypp0xI-OZNi4W_ik2KhjgpqioTAtXLC8GzkMBQRMlyxvxyTnd5b73im&c=en-US&ur=in&da=n&logo=n&fmt=png&od=1&shading=hill&pp=21.212614,81.316498;dfp"
  },
  {
    "name": "Dr. Nimje's ADVANCED HOMEOPATHY",
    "address": "opp, Nachangaon Rd, Balaji Mandir Parisar, Pulgaon, Maharashtra",
    "phone": "Dr. Nimje's ADVANCED HOMEOPATHY",
    "hours": null,
    "image_url": "https://www.bing.com/maps/geoplat/REST/v1/Imagery/Map/RoadVibrant?ms=92,112&key=AnTcaqBi2ypp0xI-OZNi4W_ik2KhjgpqioTAtXLC8GzkMBQRMlyxvxyTnd5b73im&c=en-US&ur=in&da=n&logo=n&fmt=png&od=1&shading=hill&pp=21.199097,81.285538;dfp"
  },
  {
    "name": "Malhotra Homeopethic",
    "address": "Opposite Apsara Talkies Station Road Durg, Durg, Chhattisgarh, Chhattisgarh 491001",
    "phone": "Malhotra Homeopethic",
    "hours": "Open· Closes 14:00",
    "image_url": "https://www.bing.com/maps/geoplat/REST/v1/Imagery/Map/RoadVibrant?ms=92,134&key=AnTcaqBi2ypp0xI-OZNi4W_ik2KhjgpqioTAtXLC8GzkMBQRMlyxvxyTnd5b73im&c=en-US&ur=in&da=n&logo=n&fmt=png&od=1&shading=hill&pp=21.199232,81.285713;dfp"
  },
  {
    "name": "Dr. Manwani Homeo Care Clinic",
    "address": "Giriraj Complex, Station Road, Behind PNB Bank, Sindhi Colony, Durg, Chhattisgarh",
    "phone": "Dr. Manwani Homeo Care Clinic",
    "hours": null,
    "image_url": "https://www.bing.com/maps/geoplat/REST/v1/Imagery/Map/RoadVibrant?ms=92,112&key=AnTcaqBi2ypp0xI-OZNi4W_ik2KhjgpqioTAtXLC8GzkMBQRMlyxvxyTnd5b73im&c=en-US&ur=in&da=n&logo=n&fmt=png&od=1&shading=hill&pp=21.188425,81.278107;dfp"
  }
]