[
  {
    "name": "Dr. Kiran Vanama",
    "address": "Middle Street, Near Gokavaram bus Stand, Aryapuram, Madhya Pradesh 533101",
    "phone": "Dr. Kiran Vanama",
    "hours": null,
    "image_url": "/th?id=OLC.L5FCbmbs62n1kA480x360&w=92&h=112&c=8&rs=1&qlt=80&cdv=1&pid=Local"
  },
  {
    "name": "Best General Physician - Dr. Aditya Viswas, Treated 5K+ Patients | Fever & Diabetes Doctor | East Godavari",
    "address": "Delta Hospital, NH Highway, I'll, Ongc, Venkateswara Nagar, Rajamahendravaram, Andhra Pradesh",
    "phone": "Best General Physician - Dr. Aditya Viswas, Treated 5K+ Patients | Fever & Diabetes Doctor | East Godavari",
    "hours": null,
    "image_url": "https://www.bing.com/maps/geoplat/REST/v1/Imagery/Map/RoadVibrant?ms=92,112&key=AnTcaqBi2ypp0xI-OZNi4W_ik2KhjgpqioTAtXLC8GzkMBQRMlyxvxyTnd5b73im&c=en-US&ur=in&da=n&logo=n&fmt=png&od=1&shading=hill&pp=17.010857,81.808739;dfp"
  },
  {
    "name": "Dr. Satyasai Prasad- Plastic & Cosmetic Surgeon",
    "address": "K Satya Sai Prasad's Clinic, Rajahmundry Ho, Rajahmundry, Andhra Pradesh 533101",
    "phone": "Dr. Satyasai Prasad- Plastic & Cosmetic Surgeon",
    "hours": "Open· Closes 17:00",
    "image_url": "https://www.bing.com/maps/geoplat/REST/v1/Imagery/Map/RoadVibrant?ms=92,134&key=AnTcaqBi2ypp0xI-OZNi4W_ik2KhjgpqioTAtXLC8GzkMBQRMlyxvxyTnd5b73im&c=en-US&ur=in&da=n&logo=n&fmt=png&od=1&shading=hill&pp=17.002024,81.757225;dfp"
  },
  {
    "name": "Dr. Naveen Palla",
    "address": "Near, Kotipalli Busstop, Rajahmundry, Andhra Pradesh",
    "phone": "Dr. Naveen Palla",
    "hours": "Closed· Opens Sep 28 at 09:30",
    "image_url": "/th?id=OLC.A37LFpEyQ%2bMt%2bw480x360&w=92&h=112&c=8&rs=1&qlt=80&cdv=1&pid=Local"
  },
  {
    "name": "Dr.G.R.Chaitanya",
    "address": "Satya Kidney & Multispeciality Hospital, Thilak Road, GVS Apparao St, Rajahmundry, Andhra Pradesh",
    "phone": "Dr.G.R.Chaitanya",
    "hours": null,
    "image_url": "https://www.bing.com/maps/geoplat/REST/v1/Imagery/Map/RoadVibrant?ms=92,112&key=AnTcaqBi2ypp0xI-OZNi4W_ik2KhjgpqioTAtXLC8GzkMBQRMlyxvxyTnd5b73im&c=en-US&ur=in&da=n&logo=n&fmt=png&od=1&shading=hill&pp=17.005157,81.793839;dfp"
  },
  {
    "name": "Dr. Haranath palivela - Dermatologist",
    "address": "Bhavya Skin Clinic, Door No. 46-12-14, Near Sagar Children Hospital Road, Danavai Peta, Rajahmundry, A…",
    "phone": "Dr. Haranath palivela - Dermatologist",
    "hours": "Open· Closes 14:00",
    "image_url": "https://www.bing.com/maps/geoplat/REST/v1/Imagery/Map/RoadVibrant?ms=92,134&key=AnTcaqBi2ypp0xI-OZNi4W_ik2KhjgpqioTAtXLC8GzkMBQRMlyxvxyTnd5b73im&c=en-US&ur=in&da=n&logo=n&fmt=png&od=1&shading=hill&pp=17.006559,81.779259;dfp"
  },
  {
    "name": "Dr varaprasad gangumolu",
    "address": "Kims Hospital, Seelam Nookaraju Complex Rd, Katari Gardens, Gandhipuram, Rajahmundry, Andhra Pradesh",
    "phone": "Dr varaprasad gangumolu",
    "hours": null,
    "image_url": "https://www.bing.com/maps/geoplat/REST/v1/Imagery/Map/RoadVibrant?ms=92,112&key=AnTcaqBi2ypp0xI-OZNi4W_ik2KhjgpqioTAtXLC8GzkMBQRMlyxvxyTnd5b73im&c=en-US&ur=in&da=n&logo=n&fmt=png&od=1&shading=hill&pp=16.999422,81.784782;dfp"
  },
  {
    "name": "Dr. Parvataneni Nagabhushanam- Diabetologist",
    "address": "Usha Diabetic Centre, No.12, 142, Siva Ganuga St, Danavai Peta, Rajahmundry, Andhra Pradesh 533103",
    "phone": "Dr. Parvataneni Nagabhushanam- Diabetologist",
    "hours": "Open· Closes 19:30",
    "image_url": "https://www.bing.com/maps/geoplat/REST/v1/Imagery/Map/RoadVibrant?ms=92,112&key=AnTcaqBi2ypp0xI-OZNi4W_ik2KhjgpqioTAtXLC8GzkMBQRMlyxvxyTnd5b73im&c=en-US&ur=in&da=n&logo=n&fmt=png&od=1&shading=hill&pp=17.005568,81.78054;clcp"
  },
  {
    "name": "Dr Vijay Kumar Pallikonda-Neurosurgeon",
    "address": "Sai Hospital, Middle Street, Near Gokavaram Bus Stop, Aryapuram, Rajahmundry, Andhra Pradesh",
    "phone": "Dr Vijay Kumar Pallikonda-Neurosurgeon",
    "hours": null,
    "image_url": "https://www.bing.com/maps/geoplat/REST/v1/Imagery/Map/RoadVibrant?ms=92,112&key=AnTcaqBi2ypp0xI-OZNi4W_ik2KhjgpqioTAtXLC8GzkMBQRMlyxvxyTnd5b73im&c=en-US&ur=in&da=n&logo=n&fmt=png&od=1&shading=hill&pp=17.012777,81.771706;dfp"
  },
  {
    "name": "Kamalakar Hospital",
    "address": "75-7-20, Near, Prakash Nagar, East Godavari, Andhra Pradesh 533103",
    "phone": "Kamalakar Hospital",
    "hours": null,
    "image_url": null
  },
  {
    "name": "Drmadhuri's Women's Clinic",
    "address": "Floor Old Somalamma Temple Street, Rajahmundry, Andhra Pradesh 533103",
    "phone": "Drmadhuri's Women's Clinic",
    "hours": "Open· Closes 20:00",
    "image_url": "https://www.bing.com/maps/geoplat/REST/v1/Imagery/Map/RoadVibrant?ms=92,134&key=AnTcaqBi2ypp0xI-OZNi4W_ik2KhjgpqioTAtXLC8GzkMBQRMlyxvxyTnd5b73im&c=en-US&ur=in&da=n&logo=n&fmt=png&od=1&shading=hill&pp=17.002491,81.791016;dfp"
  },
  {
    "name": "Dr. Satyasai Prasad- Plastic & Cosmetic Surgeon In Rajahmundry",
    "address": "K Satya Sai Prasad's Clinic Rajahmundry Ho, Rajamahendravaram, Andhra Pradesh",
    "phone": "Dr. Satyasai Prasad- Plastic & Cosmetic Surgeon In Rajahmundry",
    "hours": null,
    "image_url": "https://www.bing.com/maps/geoplat/REST/v1/Imagery/Map/RoadVibrant?ms=92,112&key=AnTcaqBi2ypp0xI-OZNi4W_ik2KhjgpqioTAtXLC8GzkMBQRMlyxvxyTnd5b73im&c=en-US&ur=in&da=n&logo=n&fmt=png&od=1&shading=hill&pp=17.024021,81.776093;dfp"
  },
  {
    "name": "Dr.Swetha Sajja",
    "address": "Buddhudu Hospital, Lakshmivarapupeta, Seshayya Metta, Rajahmundry, Andhra Pradesh 533104",
    "phone": "Dr.Swetha Sajja",
    "hours": "Open 24 hours",
    "image_url": null
  },
  {
    "name": "Swasth Homoeo Clinic",
    "address": "D.No.76-8-1 2nd Street, Gorakshanapeta, Danavai Peta, Rajahmundry, Andhra Pradesh",
    "phone": "Swasth Homoeo Clinic",
    "hours": null,
    "image_url": null
  },
  {
    "name": "Dr. Suri Raghuram",
    "address": "2-38-7/2, Deva Vari Street, Rajahmundry, Andhra Pradesh",
    "phone": "Dr. Suri Raghuram",
    "hours": "Open· Closes 13:30",
    "image_url": null
  },
  {
    "name": "Dr. Satya Prasad Urologist Clinic",
    "address": "Satya Hospitals, Opposite Kante Durga Hospitals Beside Bsnl Office, Near Gokavaram Bustand, Rajahmundry, A…",
    "phone": "Dr. Satya Prasad Urologist Clinic",
    "hours": null,
    "image_url": "https://www.bing.com/maps/geoplat/REST/v1/Imagery/Map/RoadVibrant?ms=92,112&key=AnTcaqBi2ypp0xI-OZNi4W_ik2KhjgpqioTAtXLC8GzkMBQRMlyxvxyTnd5b73im&c=en-US&ur=in&da=n&logo=n&fmt=png&od=1&shading=hill&pp=17.002062,81.795387;dfp"
  },
  {
    "name": "Sudha Urology Hospital",
    "address": "10-5-8, Ramaraopetnegeswararao Street, Kiakinada, Kakinada, East Godavari, Andhra Pradesh 533004",
    "phone": "Sudha Urology Hospital",
    "hours": null,
    "image_url": "https://www.bing.com/maps/geoplat/REST/v1/Imagery/Map/RoadVibrant?ms=92,112&key=AnTcaqBi2ypp0xI-OZNi4W_ik2KhjgpqioTAtXLC8GzkMBQRMlyxvxyTnd5b73im&c=en-US&ur=in&da=n&logo=n&fmt=png&od=1&shading=hill&pp=16.963577,82.228699;dfp"
  },
  {
    "name": "Sri Chaitanya Homoeclinic",
    "address": "Visakhapatnam Ravulapalem Road, Palani Hospital, Diwancheruvu, Rajahmundry, Andhra Pradesh 533101",
    "phone": "Sri Chaitanya Homoeclinic",
    "hours": null,
    "image_url": "https://www.bing.com/maps/geoplat/REST/v1/Imagery/Map/RoadVibrant?ms=92,112&key=AnTcaqBi2ypp0xI-OZNi4W_ik2KhjgpqioTAtXLC8GzkMBQRMlyxvxyTnd5b73im&c=en-US&ur=in&da=n&logo=n&fmt=png&od=1&shading=hill&pp=17.04615,81.844604;dfp"
  }
]