[
  {
    "name": "Aarush Healthcare Clinic",
    "address": "378, Ramnagar Main Road, Near Shiv Mandir, Jaswadi Road, Khandwa, Khandwa, Madhya Pradesh, Madhya …",
    "phone": "Aarush Healthcare Clinic",
    "hours": null,
    "image_url": "/th?id=OLC.JLjBXW40Q96Urw480x360&w=92&h=112&c=8&rs=1&qlt=80&cdv=1&pid=Local"
  },
  {
    "name": "Dr. M. Jarrar",
    "address": "Imlipura Main Road, Khandwa, Madhya Pradesh",
    "phone": "Dr. M. Jarrar",
    "hours": "Open· Closes 14:00",
    "image_url": "https://www.bing.com/maps/geoplat/REST/v1/Imagery/Map/RoadVibrant?ms=92,112&key=AnTcaqBi2ypp0xI-OZNi4W_ik2KhjgpqioTAtXLC8GzkMBQRMlyxvxyTnd5b73im&c=en-US&ur=in&da=n&logo=n&fmt=png&od=1&shading=hill&pp=21.827726,76.347527;dfp"
  },
  {
    "name": "Dr Bhupendra Singh Chauhan Clinic",
    "address": "Civil Line, Sh26 Khandwa Chhegaon, Pandhana, Madhya Pradesh 450771",
    "phone": "Dr Bhupendra Singh Chauhan Clinic",
    "hours": null,
    "image_url": "https://www.bing.com/maps/geoplat/REST/v1/Imagery/Map/RoadVibrant?ms=92,112&key=AnTcaqBi2ypp0xI-OZNi4W_ik2KhjgpqioTAtXLC8GzkMBQRMlyxvxyTnd5b73im&c=en-US&ur=in&da=n&logo=n&fmt=png&od=1&shading=hill&pp=21.82497,76.342148;dfp"
  },
  {
    "name": "Dr Malikendra Patel",
    "address": "Pandhana Road, Khandwa, Madhya Pradesh 450001",
    "phone": "Dr Malikendra Patel",
    "hours": null,
    "image_url": "https://www.bing.com/maps/geoplat/REST/v1/Imagery/Map/RoadVibrant?ms=92,112&key=AnTcaqBi2ypp0xI-OZNi4W_ik2KhjgpqioTAtXLC8GzkMBQRMlyxvxyTnd5b73im&c=en-US&ur=in&da=n&logo=n&fmt=png&od=1&shading=hill&pp=21.817608,76.344002;dfp"
  },
  {
    "name": "Dr. Abhay Jain",
    "address": "Shubham Medical Near Lady Butler Hospital Padawa, Jeevan Jyoti Parisar, Khandwa, Madhya Pradesh",
    "phone": "Dr. Abhay Jain",
    "hours": "Open· Closes 11:00",
    "image_url": "https://www.bing.com/maps/geoplat/REST/v1/Imagery/Map/RoadVibrant?ms=92,112&key=AnTcaqBi2ypp0xI-OZNi4W_ik2KhjgpqioTAtXLC8GzkMBQRMlyxvxyTnd5b73im&c=en-US&ur=in&da=n&logo=n&fmt=png&od=1&shading=hill&pp=21.825733,76.35257;dfp"
  },
  {
    "name": "Dr. Ashwin Jain, Neuro-Psychiatrist, Sexologist, Indore CLINIC KHANDWA",
    "address": "Regal Tower, Dudhtali Marg, Khandwa Rd, Vidhyuth Nagar, Behind Bank of India, Khandwa, Madhya Pradesh",
    "phone": "Dr. Ashwin Jain, Neuro-Psychiatrist, Sexologist, Indore CLINIC KHANDWA",
    "hours": null,
    "image_url": "https://www.bing.com/maps/geoplat/REST/v1/Imagery/Map/RoadVibrant?ms=92,112&key=AnTcaqBi2ypp0xI-OZNi4W_ik2KhjgpqioTAtXLC8GzkMBQRMlyxvxyTnd5b73im&c=en-US&ur=in&da=n&logo=n&fmt=png&od=1&shading=hill&pp=21.820946,76.355103;dfp"
  },
  {
    "name": "Scopy Clinic",
    "address": "Shubham Hospital, Rameshwar Nagar, Khandwa, Madhya Pradesh",
    "phone": "Scopy Clinic",
    "hours": null,
    "image_url": "https://www.bing.com/maps/geoplat/REST/v1/Imagery/Map/RoadVibrant?ms=92,112&key=AnTcaqBi2ypp0xI-OZNi4W_ik2KhjgpqioTAtXLC8GzkMBQRMlyxvxyTnd5b73im&c=en-US&ur=in&da=n&logo=n&fmt=png&od=1&shading=hill&pp=21.832794,76.348015;dfp"
  },
  {
    "name": "Dr Sanjay Shrivastav",
    "address": "Rameshwar Road, Khandwa, Madhya Pradesh 450001",
    "phone": "Dr Sanjay Shrivastav",
    "hours": null,
    "image_url": "https://www.bing.com/maps/geoplat/REST/v1/Imagery/Map/RoadVibrant?ms=92,112&key=AnTcaqBi2ypp0xI-OZNi4W_ik2KhjgpqioTAtXLC8GzkMBQRMlyxvxyTnd5b73im&c=en-US&ur=in&da=n&logo=n&fmt=png&od=1&shading=hill&pp=21.828468,76.349831;dfp"
  },
  {
    "name": "Diabetes & Wellness Centre- Dr. Ashish Mandloi Consultant Physician",
    "address": "Near Bank of Baroda, Indore Road, Plot no.15, Ward no.31, Swami Vivekanand Ward, Khandwa, Madhya Pr…",
    "phone": "Diabetes & Wellness Centre- Dr. Ashish Mandloi Consultant Physician",
    "hours": "Open· Closes 19:30",
    "image_url": null
  },
  {
    "name": "New Shanti Clinic",
    "address": "Indore Road, Khandwa, Madhya Pradesh 450001",
    "phone": "New Shanti Clinic",
    "hours": null,
    "image_url": "https://www.bing.com/maps/geoplat/REST/v1/Imagery/Map/RoadVibrant?ms=92,112&key=AnTcaqBi2ypp0xI-OZNi4W_ik2KhjgpqioTAtXLC8GzkMBQRMlyxvxyTnd5b73im&c=en-US&ur=in&da=n&logo=n&fmt=png&od=1&shading=hill&pp=21.82509,76.340324;dfp"
  },
  {
    "name": "Shri Sai Health Clinic",
    "address": "MP SH 26, Baihar, Madhya Pradesh",
    "phone": "Shri Sai Health Clinic",
    "hours": null,
    "image_url": "https://www.bing.com/maps/geoplat/REST/v1/Imagery/Map/RoadVibrant?ms=92,112&key=AnTcaqBi2ypp0xI-OZNi4W_ik2KhjgpqioTAtXLC8GzkMBQRMlyxvxyTnd5b73im&c=en-US&ur=in&da=n&logo=n&fmt=png&od=1&shading=hill&pp=21.82436,76.344498;dfp"
  },
  {
    "name": "Dr Sinha Clinic",
    "address": "179, Ward 04, Chhriwel, Pandhana, Paliwal Mohalla, Khandwa, Madhya Pradesh 450001",
    "phone": "Dr Sinha Clinic",
    "hours": null,
    "image_url": "https://www.bing.com/maps/geoplat/REST/v1/Imagery/Map/RoadVibrant?ms=92,112&key=AnTcaqBi2ypp0xI-OZNi4W_ik2KhjgpqioTAtXLC8GzkMBQRMlyxvxyTnd5b73im&c=en-US&ur=in&da=n&logo=n&fmt=png&od=1&shading=hill&pp=21.822905,76.349976;dfp"
  },
  {
    "name": "Dr Brij Bishnoi Clinic",
    "address": "Harda Khirkiya Road, Near Railway Station, Khirkiya, Madhya Pradesh 461441",
    "phone": "Dr Brij Bishnoi Clinic",
    "hours": null,
    "image_url": "https://www.bing.com/maps/geoplat/REST/v1/Imagery/Map/RoadVibrant?ms=92,112&key=AnTcaqBi2ypp0xI-OZNi4W_ik2KhjgpqioTAtXLC8GzkMBQRMlyxvxyTnd5b73im&c=en-US&ur=in&da=n&logo=n&fmt=png&od=1&shading=hill&pp=22.167856,76.860199;dfp"
  },
  {
    "name": "Shri Vishwakarma Homeopathy Clinic",
    "address": "Jagandeep Colony, Sh50 Khandwa Road, Khandwa, Madhya Pradesh 450661",
    "phone": "Shri Vishwakarma Homeopathy Clinic",
    "hours": null,
    "image_url": null
  },
  {
    "name": "Shroff clinic- skin care",
    "address": "opp. Shubham Hospital, Anand Nagar, Khandwa, Madhya Pradesh",
    "phone": "Shroff clinic- skin care",
    "hours": null,
    "image_url": null
  },
  {
    "name": "Nimar Sonography Clinic",
    "address": "Indore Rd, Near Andhra Bank, Padawa, Vidhyuth Nagar, Khandwa, Madhya Pradesh",
    "phone": "Nimar Sonography Clinic",
    "hours": null,
    "image_url": null
  },
  {
    "name": "Dr Verma's Skin Clinic",
    "address": "M.P, A-96 LIG Colony, opp. Rameshwar Mahadeo Mandir, Khandwa, Wamanrao Deo Marg, Ramganj War…",
    "phone": "Dr Verma's Skin Clinic",
    "hours": null,
    "image_url": "https://www.bing.com/maps/geoplat/REST/v1/Imagery/Map/RoadVibrant?ms=92,112&key=AnTcaqBi2ypp0xI-OZNi4W_ik2KhjgpqioTAtXLC8GzkMBQRMlyxvxyTnd5b73im&c=en-US&ur=in&da=n&logo=n&fmt=png&od=1&shading=hill&pp=21.832794,76.348015;dfp"
  },
  {
    "name": "Dr. Prit's CosmoDent & Trichology centre, Amravati/ Nagpur.",
    "address": "Rajendra Colony, Shyam Nagar, Amravati, Maharashtra 444606",
    "phone": "Dr. Prit's CosmoDent & Trichology centre, Amravati/ Nagpur.",
    "hours": "Open· Closes 17:00",
    "image_url": "https://www.bing.com/maps/geoplat/REST/v1/Imagery/Map/RoadVibrant?ms=92,134&key=AnTcaqBi2ypp0xI-OZNi4W_ik2KhjgpqioTAtXLC8GzkMBQRMlyxvxyTnd5b73im&c=en-US&ur=in&da=n&logo=n&fmt=png&od=1&shading=hill&pp=21.762354,76.100502;dfp"
  }
]