[
  {
    "name": "Dr Mohonish N Chettri, MS.",
    "address": "Sichey School Rd, Sungava, Gangtok, Sikkim",
    "phone": "Dr Mohonish N Chettri, MS.",
    "hours": null,
    "image_url": "https://www.bing.com/maps/geoplat/REST/v1/Imagery/Map/RoadVibrant?ms=92,112&key=AnTcaqBi2ypp0xI-OZNi4W_ik2KhjgpqioTAtXLC8GzkMBQRMlyxvxyTnd5b73im&c=en-US&ur=in&da=n&logo=n&fmt=png&od=1&shading=hill&pp=27.335308,88.615738;dfp"
  },
  {
    "name": "Dr. Sharma's Wellness Clinic",
    "address": "31 A N.h.way, Gangtok, Sikkim, Sikkim 737101",
    "phone": "Dr. Sharma's Wellness Clinic",
    "hours": null,
    "image_url": "/th?id=OLC.xN1HtnUceJJepg480x360&w=92&h=112&c=8&rs=1&qlt=80&cdv=1&pid=Local"
  },
  {
    "name": "Dr Vk Clinic",
    "address": "Paljor Stadium Road, Gangtok, Sikkim 737101",
    "phone": "Dr Vk Clinic",
    "hours": null,
    "image_url": "https://www.bing.com/maps/geoplat/REST/v1/Imagery/Map/RoadVibrant?ms=92,112&key=AnTcaqBi2ypp0xI-OZNi4W_ik2KhjgpqioTAtXLC8GzkMBQRMlyxvxyTnd5b73im&c=en-US&ur=in&da=n&logo=n&fmt=png&od=1&shading=hill&pp=27.332476,88.614136;dfp"
  },
  {
    "name": "Care & Cure Polyclinic & Diagnostics",
    "address": "6th Mile Tadung Opposite Entel Motors, Gangtok, Sikkim, Sikkim 737102",
    "phone": "Care & Cure Polyclinic & Diagnostics",
    "hours": null,
    "image_url": "/th?id=OLC.DlC7F%2brnuuET%2fw480x360&w=92&h=112&c=8&rs=1&qlt=80&cdv=1&pid=Local"
  },
  {
    "name": "Dr Shiva Kumar Rai",
    "address": "Deorali Road, Gangtok, Sikkim 737101",
    "phone": "Dr Shiva Kumar Rai",
    "hours": "Open 24 hours",
    "image_url": "/th?id=OLC.2DDHv2Ds6sbJCg480x360&w=92&h=134&c=8&rs=1&qlt=80&cdv=1&pid=Local"
  },
  {
    "name": "Durga Healthcare & Diagnostic Centre",
    "address": "Ranipool Bazar, Gangtok, Sikkim 737135",
    "phone": "Durga Healthcare & Diagnostic Centre",
    "hours": "Open· Closes 19:00",
    "image_url": "/th?id=OLC.VHdA3hv%2bFSuSlQ480x360&w=92&h=134&c=8&rs=1&qlt=80&cdv=1&pid=Local"
  },
  {
    "name": "Homoeopathic Clinic - Dr V K Prasad",
    "address": "D.c Building Lal Bazar Gangtok, Gangtok, Sikkim 737101",
    "phone": "Homoeopathic Clinic - Dr V K Prasad",
    "hours": null,
    "image_url": null
  },
  {
    "name": "Dr Hanuman Marda Clinic",
    "address": "Tadong To Zero Point Road, Gangtok, Sikkim 737102",
    "phone": "Dr Hanuman Marda Clinic",
    "hours": null,
    "image_url": "https://www.bing.com/maps/geoplat/REST/v1/Imagery/Map/RoadVibrant?ms=92,112&key=AnTcaqBi2ypp0xI-OZNi4W_ik2KhjgpqioTAtXLC8GzkMBQRMlyxvxyTnd5b73im&c=en-US&ur=in&da=n&logo=n&fmt=png&od=1&shading=hill&pp=27.318241,88.606598;dfp"
  },
  {
    "name": "Anand Clinic",
    "address": "Nh31a, Gangtok, Sikkim 737102",
    "phone": "Anand Clinic",
    "hours": null,
    "image_url": "https://www.bing.com/maps/geoplat/REST/v1/Imagery/Map/RoadVibrant?ms=92,112&key=AnTcaqBi2ypp0xI-OZNi4W_ik2KhjgpqioTAtXLC8GzkMBQRMlyxvxyTnd5b73im&c=en-US&ur=in&da=n&logo=n&fmt=png&od=1&shading=hill&pp=27.314552,88.607117;dfp"
  },
  {
    "name": "Dr. Palden Wangchuk Bhutia | Best Cardiologist near me Sichey Gangtok",
    "address": "Dept. Of Cardiology, Stnm Hospital, Sichey, Gangtok, Sikkim",
    "phone": "Dr. Palden Wangchuk Bhutia | Best Cardiologist near me Sichey Gangtok",
    "hours": null,
    "image_url": "https://www.bing.com/maps/geoplat/REST/v1/Imagery/Map/RoadVibrant?ms=92,112&key=AnTcaqBi2ypp0xI-OZNi4W_ik2KhjgpqioTAtXLC8GzkMBQRMlyxvxyTnd5b73im&c=en-US&ur=in&da=n&logo=n&fmt=png&od=1&shading=hill&pp=27.329933,88.612999;dfp"
  },
  {
    "name": "Thea Aesthetic Clinic",
    "address": "National Highway 31A, Upper Tadong, Tadong, Gangtok, Sikkim",
    "phone": "Thea Aesthetic Clinic",
    "hours": "Closed· Opens 11:00",
    "image_url": null
  },
  {
    "name": "Ashirwad Clinic & Diagnostic Centre",
    "address": "NH - 10, Joredhara, Tadong, Gangtok, Sikkim",
    "phone": "Ashirwad Clinic & Diagnostic Centre",
    "hours": null,
    "image_url": "https://www.bing.com/maps/geoplat/REST/v1/Imagery/Map/RoadVibrant?ms=92,112&key=AnTcaqBi2ypp0xI-OZNi4W_ik2KhjgpqioTAtXLC8GzkMBQRMlyxvxyTnd5b73im&c=en-US&ur=in&da=n&logo=n&fmt=png&od=1&shading=hill&pp=27.309437,88.596367;dfp"
  },
  {
    "name": "Regional Ayurveda Research Institute",
    "address": "Nh31a, Gangtok, Sikkim 737102",
    "phone": "Regional Ayurveda Research Institute",
    "hours": null,
    "image_url": "https://www.bing.com/maps/geoplat/REST/v1/Imagery/Map/RoadVibrant?ms=92,112&key=AnTcaqBi2ypp0xI-OZNi4W_ik2KhjgpqioTAtXLC8GzkMBQRMlyxvxyTnd5b73im&c=en-US&ur=in&da=n&logo=n&fmt=png&od=1&shading=hill&pp=27.315109,88.601624;dfp"
  },
  {
    "name": "Dr Lal PathLabs - Patient Service Centre",
    "address": "Jigtsing Commercials, Indira Bypass Rd, Near D C Office, Upper Sichey, Sungava, Gangtok, Sikkim",
    "phone": "Dr Lal PathLabs - Patient Service Centre",
    "hours": null,
    "image_url": "https://www.bing.com/maps/geoplat/REST/v1/Imagery/Map/RoadVibrant?ms=92,112&key=AnTcaqBi2ypp0xI-OZNi4W_ik2KhjgpqioTAtXLC8GzkMBQRMlyxvxyTnd5b73im&c=en-US&ur=in&da=n&logo=n&fmt=png&od=1&shading=hill&pp=27.32255,88.611694;dfp"
  },
  {
    "name": "Dr. Md Nazar Imam | General Surgeon | Sikkim Manipal Institute of Medical sciences",
    "address": "Sikkim Manipal Institute of Medical Sciences, Gangtok, Sikkim, India, 737102, Gangtok, Madhya Pradesh 737102",
    "phone": "Dr. Md Nazar Imam | General Surgeon | Sikkim Manipal Institute of Medical sciences",
    "hours": "Open· Closes 17:00",
    "image_url": null
  },
  {
    "name": "Dr. Subarna Khatiwara | General Medicine | District Hospital",
    "address": "Golitar, Singtam, Sikkim 737134, Singtam, Madhya Pradesh 737134",
    "phone": "Dr. Subarna Khatiwara | General Medicine | District Hospital",
    "hours": "Open· Closes 15:00",
    "image_url": null
  },
  {
    "name": "Holistic Homoeo Wellness Clinic",
    "address": "Jopa, Main Road, Kalimpong Near Airtel Office, Kalimpong, Madhya Pradesh 734301",
    "phone": "Holistic Homoeo Wellness Clinic",
    "hours": "Open· Closes 18:15",
    "image_url": null
  },
  {
    "name": "Dr Indira Bharti. Holistic Homoeo Health Clinic",
    "address": "Baghdhara Road, Kalimpong Khasmahal, Kalimpong, Madhya Pradesh 734301",
    "phone": "Dr Indira Bharti. Holistic Homoeo Health Clinic",
    "hours": "Closed· Opens 14:00",
    "image_url": null
  }
]