[
  {
    "name": "Dr. Satyaki Ghosh, General Physician",
    "address": "R K Pharmacy, Jalchak, Near Jalchak Nateswari Netaji Vidyayatan, Midnapur, West Bengal 721155",
    "phone": "Dr. Satyaki Ghosh, General Physician",
    "hours": "Closed· Opens Thu 11:00",
    "image_url": "https://www.bing.com/maps/geoplat/REST/v1/Imagery/Map/RoadVibrant?ms=92,134&key=AnTcaqBi2ypp0xI-OZNi4W_ik2KhjgpqioTAtXLC8GzkMBQRMlyxvxyTnd5b73im&c=en-US&ur=in&da=n&logo=n&fmt=png&od=1&shading=hill&pp=22.241264,87.672462;dfp"
  },
  {
    "name": "Dr. Soumya Mukherjee | Haematologist | Narayana Health",
    "address": "Medinova Tamluk, Maniktala to, Hospital Road, Tamluk, West Bengal 721636",
    "phone": "Dr. Soumya Mukherjee | Haematologist | Narayana Health",
    "hours": "Open· Closes 17:00",
    "image_url": "https://www.bing.com/maps/geoplat/REST/v1/Imagery/Map/RoadVibrant?ms=92,134&key=AnTcaqBi2ypp0xI-OZNi4W_ik2KhjgpqioTAtXLC8GzkMBQRMlyxvxyTnd5b73im&c=en-US&ur=in&da=n&logo=n&fmt=png&od=1&shading=hill&pp=21.995892,87.738693;dfp"
  },
  {
    "name": "Dr Shibsankar Maity Clinic",
    "address": "Math Chandipur, Tamluk, West Bengal 721659",
    "phone": "Dr Shibsankar Maity Clinic",
    "hours": null,
    "image_url": "https://www.bing.com/maps/geoplat/REST/v1/Imagery/Map/RoadVibrant?ms=92,112&key=AnTcaqBi2ypp0xI-OZNi4W_ik2KhjgpqioTAtXLC8GzkMBQRMlyxvxyTnd5b73im&c=en-US&ur=in&da=n&logo=n&fmt=png&od=1&shading=hill&pp=22.090227,87.857841;dfp"
  },
  {
    "name": "Dr. Soumya Patra",
    "address": "Udayan Road, East Medinipur, West Bengal",
    "phone": "Dr. Soumya Patra",
    "hours": "Closed· Opens Sep 29 at 12:30",
    "image_url": "https://www.bing.com/maps/geoplat/REST/v1/Imagery/Map/RoadVibrant?ms=92,112&key=AnTcaqBi2ypp0xI-OZNi4W_ik2KhjgpqioTAtXLC8GzkMBQRMlyxvxyTnd5b73im&c=en-US&ur=in&da=n&logo=n&fmt=png&od=1&shading=hill&pp=21.779362,87.74157;dfp"
  },
  {
    "name": "Dr Santanu Bera Clinic",
    "address": "Nandakumar, Tamluk, West Bengal 721648",
    "phone": "Dr Santanu Bera Clinic",
    "hours": null,
    "image_url": "https://www.bing.com/maps/geoplat/REST/v1/Imagery/Map/RoadVibrant?ms=92,112&key=AnTcaqBi2ypp0xI-OZNi4W_ik2KhjgpqioTAtXLC8GzkMBQRMlyxvxyTnd5b73im&c=en-US&ur=in&da=n&logo=n&fmt=png&od=1&shading=hill&pp=22.200939,87.924049;dfp"
  },
  {
    "name": "Kolkata Doctor Clinic",
    "address": "Kanaidighi, Kanthi, West Bengal 721444",
    "phone": "Kolkata Doctor Clinic",
    "hours": null,
    "image_url": "https://www.bing.com/maps/geoplat/REST/v1/Imagery/Map/RoadVibrant?ms=92,112&key=AnTcaqBi2ypp0xI-OZNi4W_ik2KhjgpqioTAtXLC8GzkMBQRMlyxvxyTnd5b73im&c=en-US&ur=in&da=n&logo=n&fmt=png&od=1&shading=hill&pp=21.912405,87.785217;dfp"
  },
  {
    "name": "Dr. Amit Kumar Pradhan's Clinic",
    "address": "Kapaseria-Mahishadal Rd, Garh Kamalpur, West Bengal",
    "phone": "Dr. Amit Kumar Pradhan's Clinic",
    "hours": null,
    "image_url": "https://www.bing.com/maps/geoplat/REST/v1/Imagery/Map/RoadVibrant?ms=92,112&key=AnTcaqBi2ypp0xI-OZNi4W_ik2KhjgpqioTAtXLC8GzkMBQRMlyxvxyTnd5b73im&c=en-US&ur=in&da=n&logo=n&fmt=png&od=1&shading=hill&pp=22.186804,87.984413;dfp"
  },
  {
    "name": "Dr Sujit Kumar Pal Clinic",
    "address": "Contai Swaraswati Tola Road, Contai Chourangee, Kanthi, West Bengal 721401",
    "phone": "Dr Sujit Kumar Pal Clinic",
    "hours": null,
    "image_url": "https://www.bing.com/maps/geoplat/REST/v1/Imagery/Map/RoadVibrant?ms=92,112&key=AnTcaqBi2ypp0xI-OZNi4W_ik2KhjgpqioTAtXLC8GzkMBQRMlyxvxyTnd5b73im&c=en-US&ur=in&da=n&logo=n&fmt=png&od=1&shading=hill&pp=21.778372,87.751442;dfp"
  },
  {
    "name": "Dr Bidyut Bhnia Clinic",
    "address": "Kumarpur Road, Kanthi, West Bengal 721401",
    "phone": "Dr Bidyut Bhnia Clinic",
    "hours": null,
    "image_url": "https://www.bing.com/maps/geoplat/REST/v1/Imagery/Map/RoadVibrant?ms=92,112&key=AnTcaqBi2ypp0xI-OZNi4W_ik2KhjgpqioTAtXLC8GzkMBQRMlyxvxyTnd5b73im&c=en-US&ur=in&da=n&logo=n&fmt=png&od=1&shading=hill&pp=21.775822,87.746681;dfp"
  },
  {
    "name": "Dr M G Mandal Clinic",
    "address": "Egra Ramnagar Road, Paniparul, Kanthi, West Bengal 721448",
    "phone": "Dr M G Mandal Clinic",
    "hours": null,
    "image_url": "https://www.bing.com/maps/geoplat/REST/v1/Imagery/Map/RoadVibrant?ms=92,112&key=AnTcaqBi2ypp0xI-OZNi4W_ik2KhjgpqioTAtXLC8GzkMBQRMlyxvxyTnd5b73im&c=en-US&ur=in&da=n&logo=n&fmt=png&od=1&shading=hill&pp=21.753302,87.534821;dfp"
  },
  {
    "name": "Dr N.C Dhibar Clinic",
    "address": "Contai-Haldia Road, Contai Chourangee, Kanthi, West Bengal 721401",
    "phone": "Dr N.C Dhibar Clinic",
    "hours": null,
    "image_url": "https://www.bing.com/maps/geoplat/REST/v1/Imagery/Map/RoadVibrant?ms=92,112&key=AnTcaqBi2ypp0xI-OZNi4W_ik2KhjgpqioTAtXLC8GzkMBQRMlyxvxyTnd5b73im&c=en-US&ur=in&da=n&logo=n&fmt=png&od=1&shading=hill&pp=21.777884,87.7519;dfp"
  },
  {
    "name": "Dr Biraj Mohan Nayar Clinic",
    "address": "Mechada Haldia Road, Sutahata, Tamluk, West Bengal 721635",
    "phone": "Dr Biraj Mohan Nayar Clinic",
    "hours": null,
    "image_url": "https://www.bing.com/maps/geoplat/REST/v1/Imagery/Map/RoadVibrant?ms=92,112&key=AnTcaqBi2ypp0xI-OZNi4W_ik2KhjgpqioTAtXLC8GzkMBQRMlyxvxyTnd5b73im&c=en-US&ur=in&da=n&logo=n&fmt=png&od=1&shading=hill&pp=22.119953,88.111588;dfp"
  },
  {
    "name": "Dr Partha's Homoeo Clinic",
    "address": "Sutahata, Haldia Sutahata, Kukrahati - Sutahata Rd, Near Amlat Abhijan Club AND Gita Homeo Pharmacy, Haldia…",
    "phone": "Dr Partha's Homoeo Clinic",
    "hours": null,
    "image_url": "https://www.bing.com/maps/geoplat/REST/v1/Imagery/Map/RoadVibrant?ms=92,112&key=AnTcaqBi2ypp0xI-OZNi4W_ik2KhjgpqioTAtXLC8GzkMBQRMlyxvxyTnd5b73im&c=en-US&ur=in&da=n&logo=n&fmt=png&od=1&shading=hill&pp=22.066795,88.072517;dfp"
  },
  {
    "name": "Bishwadhara Clinic",
    "address": "Egra Ramnagar Road, Shikarbar, Kanthi, West Bengal 721453",
    "phone": "Bishwadhara Clinic",
    "hours": null,
    "image_url": "https://www.bing.com/maps/geoplat/REST/v1/Imagery/Map/RoadVibrant?ms=92,112&key=AnTcaqBi2ypp0xI-OZNi4W_ik2KhjgpqioTAtXLC8GzkMBQRMlyxvxyTnd5b73im&c=en-US&ur=in&da=n&logo=n&fmt=png&od=1&shading=hill&pp=21.720016,87.55632;dfp"
  },
  {
    "name": "Dr. Bappaditya Mishra Face, Mouth, Jaw Surgeon",
    "address": "School Bazar, Puratan Bari, Contai, West Bengal 721401",
    "phone": "Dr. Bappaditya Mishra Face, Mouth, Jaw Surgeon",
    "hours": null,
    "image_url": "https://www.bing.com/maps/geoplat/REST/v1/Imagery/Map/RoadVibrant?ms=92,112&key=AnTcaqBi2ypp0xI-OZNi4W_ik2KhjgpqioTAtXLC8GzkMBQRMlyxvxyTnd5b73im&c=en-US&ur=in&da=n&logo=n&fmt=png&od=1&shading=hill&pp=21.778248,87.754265;dfp"
  },
  {
    "name": "Pakistan Homeopathic Clinic (Shop #1)",
    "address": "Ameer Chowk, 13 Railway Road, College Road, Township Gawalmandi, Lahore, Punjab 61241, Pakista…",
    "phone": "Pakistan Homeopathic Clinic (Shop #1)",
    "hours": null,
    "image_url": "https://www.bing.com/maps/geoplat/REST/v1/Imagery/Map/RoadVibrant?ms=92,112&key=AnTcaqBi2ypp0xI-OZNi4W_ik2KhjgpqioTAtXLC8GzkMBQRMlyxvxyTnd5b73im&c=en-US&ur=in&da=n&logo=n&fmt=png&od=1&shading=hill&pp=22.049381,88.067604;dfp"
  },
  {
    "name": "Shree Durga Medical Stores Doctors Chamber",
    "address": "Hpl Link Road, Haldia, West Bengal 721602",
    "phone": "Shree Durga Medical Stores Doctors Chamber",
    "hours": null,
    "image_url": "https://www.bing.com/maps/geoplat/REST/v1/Imagery/Map/RoadVibrant?ms=92,112&key=AnTcaqBi2ypp0xI-OZNi4W_ik2KhjgpqioTAtXLC8GzkMBQRMlyxvxyTnd5b73im&c=en-US&ur=in&da=n&logo=n&fmt=png&od=1&shading=hill&pp=22.080561,88.140152;dfp"
  },
  {
    "name": "New Shree Krishna X-Ray Clinic",
    "address": "SH-4, Contai, West Bengal 721401",
    "phone": "New Shree Krishna X-Ray Clinic",
    "hours": "Open· Closes 19:00",
    "image_url": null
  }
]