[
  {
    "name": "Dr. Afzal Mohammad Qureshi- General Physician",
    "address": "Patanjali Chikitsalaya, Tulsiram Jalam Road, Tinsukia, Assam 786125",
    "phone": "Dr. Afzal Mohammad Qureshi- General Physician",
    "hours": "Open· Closes 14:00",
    "image_url": "/th?id=OLC.QXiiTsLl%2bzjTzw480x360&w=92&h=134&c=8&rs=1&qlt=80&cdv=1&pid=Local"
  },
  {
    "name": "Dr. Rahul bagaria | Swastik Hospital",
    "address": "Swastik Hospital Near Naupukhuri, Tinsukia, Assam, India, 786125, Tinsukia, Madhya Pradesh 786125",
    "phone": "Dr. Rahul bagaria | Swastik Hospital",
    "hours": "Closed· Opens 11:00",
    "image_url": "/th?id=OLC.HreRWCswB2Q77A480x360&w=92&h=134&c=8&rs=1&qlt=80&cdv=1&pid=Local"
  },
  {
    "name": "Dr. ARNAB PAUL | Best Cardiologist near me Udyog Nagar Tinsukia",
    "address": "R.C Agarwal Memorial Hospital & Research Centre, Makum Road, Near Thermal Gate, Udyog Nagar, Tinsu…",
    "phone": "Dr. ARNAB PAUL | Best Cardiologist near me Udyog Nagar Tinsukia",
    "hours": null,
    "image_url": "https://www.bing.com/maps/geoplat/REST/v1/Imagery/Map/RoadVibrant?ms=92,112&key=AnTcaqBi2ypp0xI-OZNi4W_ik2KhjgpqioTAtXLC8GzkMBQRMlyxvxyTnd5b73im&c=en-US&ur=in&da=n&logo=n&fmt=png&od=1&shading=hill&pp=27.487509,95.3592;dfp"
  },
  {
    "name": "Dr. Aritra Pradhan",
    "address": "Srishti Fertility Centre, Srishti Hospital, Dibrugarh East, Assam 786005",
    "phone": "Dr. Aritra Pradhan",
    "hours": "Open· Closes 17:00",
    "image_url": "/th?id=OLC.3hBDsqTxPNeNfA480x360&w=92&h=134&c=8&rs=1&qlt=80&cdv=1&pid=Local"
  },
  {
    "name": "Dr Konwars Homeopathic Clinic",
    "address": "Parbatia Road, Tinsukia, Assam 786154",
    "phone": "Dr Konwars Homeopathic Clinic",
    "hours": null,
    "image_url": "https://www.bing.com/maps/geoplat/REST/v1/Imagery/Map/RoadVibrant?ms=92,112&key=AnTcaqBi2ypp0xI-OZNi4W_ik2KhjgpqioTAtXLC8GzkMBQRMlyxvxyTnd5b73im&c=en-US&ur=in&da=n&logo=n&fmt=png&od=1&shading=hill&pp=27.493851,95.368797;dfp"
  },
  {
    "name": "Apollo Clinic , Tinsukia",
    "address": "Nilima Apartment, Rangagora Road, Tinsukia, Assam 786125",
    "phone": "Apollo Clinic , Tinsukia",
    "hours": "Open· Closes 19:30",
    "image_url": "https://www.bing.com/maps/geoplat/REST/v1/Imagery/Map/RoadVibrant?ms=92,134&key=AnTcaqBi2ypp0xI-OZNi4W_ik2KhjgpqioTAtXLC8GzkMBQRMlyxvxyTnd5b73im&c=en-US&ur=in&da=n&logo=n&fmt=png&od=1&shading=hill&pp=27.493401,95.349289;dfp"
  },
  {
    "name": "Dr. Bora's Nursing & Maternity Home",
    "address": "AT Rd, Rupai Siding, Assam",
    "phone": "Dr. Bora's Nursing & Maternity Home",
    "hours": null,
    "image_url": "https://www.bing.com/maps/geoplat/REST/v1/Imagery/Map/RoadVibrant?ms=92,112&key=AnTcaqBi2ypp0xI-OZNi4W_ik2KhjgpqioTAtXLC8GzkMBQRMlyxvxyTnd5b73im&c=en-US&ur=in&da=n&logo=n&fmt=png&od=1&shading=hill&pp=27.601797,95.557228;dfp"
  },
  {
    "name": "Drug House(poddar's Doctors' Clinic & Pharmacy)",
    "address": "A.t. Road, Morigaon Syndicate, Khutikatia, Haibargaon, Assam 782002",
    "phone": "Drug House(poddar's Doctors' Clinic & Pharmacy)",
    "hours": null,
    "image_url": "https://www.bing.com/maps/geoplat/REST/v1/Imagery/Map/RoadVibrant?ms=92,112&key=AnTcaqBi2ypp0xI-OZNi4W_ik2KhjgpqioTAtXLC8GzkMBQRMlyxvxyTnd5b73im&c=en-US&ur=in&da=n&logo=n&fmt=png&od=1&shading=hill&pp=27.486576,95.356377;dfp"
  },
  {
    "name": "Dr Ronjon Bhattacharyya Skin and Laser Clinic",
    "address": "Ss Market, Thana Chariali, Rangagora Road, Near Usha Jewellery, Tinsukia, Assam, Assam 786125",
    "phone": "Dr Ronjon Bhattacharyya Skin and Laser Clinic",
    "hours": null,
    "image_url": null
  },
  {
    "name": "Divjoni Medicare & Diagnostic Centre",
    "address": "Ruksin, East Siang, Arunachal Pradesh 791102",
    "phone": "Divjoni Medicare & Diagnostic Centre",
    "hours": null,
    "image_url": "https://www.bing.com/maps/geoplat/REST/v1/Imagery/Map/RoadVibrant?ms=92,112&key=AnTcaqBi2ypp0xI-OZNi4W_ik2KhjgpqioTAtXLC8GzkMBQRMlyxvxyTnd5b73im&c=en-US&ur=in&da=n&logo=n&fmt=png&od=1&shading=hill&pp=27.842619,95.221451;dfp"
  },
  {
    "name": "Dr. Nitin Bhartia",
    "address": "Naharkatia, Dibrugarh, Landmark: Opposite Post Office, Dibrugarh 786001",
    "phone": "Dr. Nitin Bhartia",
    "hours": "Open· Closes 13:00",
    "image_url": null
  },
  {
    "name": "Dr Vikash Sharma Eye Clinic",
    "address": "Dr Vikash Sharma Eye Clinic Near Ultralab, Rangagora Road, Tinsukia, Assam, Assam 786125",
    "phone": "Dr Vikash Sharma Eye Clinic",
    "hours": "Closed· Opens 13:30",
    "image_url": null
  },
  {
    "name": "Janata Homoeo Clinic",
    "address": "Red Cross Rd, Graham Bazar, Dibrugarh, Assam",
    "phone": "Janata Homoeo Clinic",
    "hours": null,
    "image_url": null
  },
  {
    "name": "Dr. Dipok Kumar Neog",
    "address": "Brahmaputra Diagnostics Hospital Ltd., Jyoti Nagar, Dibrugarh, Assam 786001",
    "phone": "Dr. Dipok Kumar Neog",
    "hours": "Open· Closes 18:00",
    "image_url": null
  },
  {
    "name": "Dr Reeta Nath",
    "address": "AMC Road, Paltan Bazar, Opposite Jyotsna Cinema Hall, Jalan Nagar Colony, Dibrugarh, Assam",
    "phone": "Dr Reeta Nath",
    "hours": null,
    "image_url": "https://www.bing.com/maps/geoplat/REST/v1/Imagery/Map/RoadVibrant?ms=92,112&key=AnTcaqBi2ypp0xI-OZNi4W_ik2KhjgpqioTAtXLC8GzkMBQRMlyxvxyTnd5b73im&c=en-US&ur=in&da=n&logo=n&fmt=png&od=1&shading=hill&pp=27.490736,94.924484;dfp"
  },
  {
    "name": "Apollo Dialysis Clinics",
    "address": "Tinsukia Civil Hospital, Tinsukia, Assam 786125",
    "phone": "Apollo Dialysis Clinics",
    "hours": "Open· Closes 21:00",
    "image_url": "https://www.bing.com/maps/geoplat/REST/v1/Imagery/Map/RoadVibrant?ms=92,134&key=AnTcaqBi2ypp0xI-OZNi4W_ik2KhjgpqioTAtXLC8GzkMBQRMlyxvxyTnd5b73im&c=en-US&ur=in&da=n&logo=n&fmt=png&od=1&shading=hill&pp=27.498894,95.358742;dfp"
  },
  {
    "name": "Dr Sourabh Mukharjee Cancer Care Centre",
    "address": "Apeksha Hospital, Medical Road, Dibrugarh, Assam",
    "phone": "Dr Sourabh Mukharjee Cancer Care Centre",
    "hours": null,
    "image_url": "https://www.bing.com/maps/geoplat/REST/v1/Imagery/Map/RoadVibrant?ms=92,112&key=AnTcaqBi2ypp0xI-OZNi4W_ik2KhjgpqioTAtXLC8GzkMBQRMlyxvxyTnd5b73im&c=en-US&ur=in&da=n&logo=n&fmt=png&od=1&shading=hill&pp=27.490187,94.923088;dfp"
  },
  {
    "name": "Apollo Clinic",
    "address": "A T Road, Graham Bazar, Near Puja Nursing Home, Dibrugarh, Dibrugarh 786001",
    "phone": "Apollo Clinic",
    "hours": null,
    "image_url": null
  }
]