[
  {
    "name": "Dr. Daljit Singh Sethi",
    "address": "Pine Mount Ridge, Barik, East Khasi Hills, Meghalaya",
    "phone": "Dr. Daljit Singh Sethi",
    "hours": "Open· Closes 17:00",
    "image_url": "/th?id=OLC.RiQDECz4u8BqpA480x360&w=92&h=112&c=8&rs=1&qlt=80&cdv=1&pid=Local"
  },
  {
    "name": "Dr. Jagjeet Sethi",
    "address": "Pine Mount Ridge, Barik, East Khasi Hills, Meghalaya",
    "phone": "Dr. Jagjeet Sethi",
    "hours": "Open· Closes 13:00",
    "image_url": "https://www.bing.com/maps/geoplat/REST/v1/Imagery/Map/RoadVibrant?ms=92,112&key=AnTcaqBi2ypp0xI-OZNi4W_ik2KhjgpqioTAtXLC8GzkMBQRMlyxvxyTnd5b73im&c=en-US&ur=in&da=n&logo=n&fmt=png&od=1&shading=hill&pp=25.56354,91.880653;dfp"
  },
  {
    "name": "Memorial Clinic",
    "address": "Wahlang House, 3 Pines Colony, Laban, East Khasi Hills, Meghalaya 793004",
    "phone": "Memorial Clinic",
    "hours": null,
    "image_url": "/th?id=OLC.dxbtrJmqDpjLww480x360&w=92&h=112&c=8&rs=1&qlt=80&cdv=1&pid=Local"
  },
  {
    "name": "Dr. Pakha Tesia",
    "address": "1st Floor, Marketview Complex, Near SBI Laitumkhrah Branch, Laitumkhrah, Shillong, East Khasi Hills, Meghal…",
    "phone": "Dr. Pakha Tesia",
    "hours": "Closed· Opens 16:00",
    "image_url": "/th?id=OLC.2iiEomhlk48%2bgA480x360&w=92&h=112&c=8&rs=1&qlt=80&cdv=1&pid=Local"
  },
  {
    "name": "Dr. Merrily Nongsiej",
    "address": "3rd Floor, OPD Building, Dhanketi Shillong, East Khasi Hills, Meghalaya",
    "phone": "Dr. Merrily Nongsiej",
    "hours": "Open· Closes 18:00",
    "image_url": "/th?id=OLC.hIN83LZBdDW5Dw480x360&w=92&h=112&c=8&rs=1&qlt=80&cdv=1&pid=Local"
  },
  {
    "name": "Dr. Manoj Kumar Sharma | Mbbs, Md Pathology",
    "address": "Lower Lachumiere Malki Point, Shillong, Meghalaya, India, 793001, Shillong, Madhya Pradesh 793001",
    "phone": "Dr. Manoj Kumar Sharma | Mbbs, Md Pathology",
    "hours": "Open· Closes 18:00",
    "image_url": "/th?id=OLC.AKX%2bUzsbZ9vyVQ480x360&w=92&h=134&c=8&rs=1&qlt=80&cdv=1&pid=Local"
  },
  {
    "name": "Dr. Lurstep Wanshnong",
    "address": "East Khasi Hills, Jaiaw, Shillong, Near Bura Bazaar, East Khasi Hills, Meghalaya",
    "phone": "Dr. Lurstep Wanshnong",
    "hours": "Open· Closes 16:00",
    "image_url": null
  },
  {
    "name": "Civil Hospital Shillong",
    "address": "Nh44, Lower Lachumeire, Shillong, Meghalaya 793001",
    "phone": "Civil Hospital Shillong",
    "hours": null,
    "image_url": null
  },
  {
    "name": "Nazareth Hospital",
    "address": "Arbuthnot Road, New Colony, Shillong, Meghalaya 793001",
    "phone": "Nazareth Hospital",
    "hours": null,
    "image_url": null
  },
  {
    "name": "Dr. Pallab Dewan",
    "address": "Shillong Opticals, Police Bazarar, Thana Road, East Khasi Hills, Meghalaya",
    "phone": "Dr. Pallab Dewan",
    "hours": "Closed· Opens 11:00",
    "image_url": "https://www.bing.com/maps/geoplat/REST/v1/Imagery/Map/RoadVibrant?ms=92,112&key=AnTcaqBi2ypp0xI-OZNi4W_ik2KhjgpqioTAtXLC8GzkMBQRMlyxvxyTnd5b73im&c=en-US&ur=in&da=n&logo=n&fmt=png&od=1&shading=hill&pp=25.577406,91.88131;dfp"
  },
  {
    "name": "Dr. Alok Deb",
    "address": "Malki, Shillong, Meghalaya 793003",
    "phone": "Dr. Alok Deb",
    "hours": null,
    "image_url": "https://www.bing.com/maps/geoplat/REST/v1/Imagery/Map/RoadVibrant?ms=92,112&key=AnTcaqBi2ypp0xI-OZNi4W_ik2KhjgpqioTAtXLC8GzkMBQRMlyxvxyTnd5b73im&c=en-US&ur=in&da=n&logo=n&fmt=png&od=1&shading=hill&pp=25.564608,91.886322;dfp"
  },
  {
    "name": "Dr. Nabaneeta Sen choudury | Hope Clinic",
    "address": "Barik, Shillong, Meghalaya, India, 793001, Shillong, Madhya Pradesh 793001",
    "phone": "Dr. Nabaneeta Sen choudury | Hope Clinic",
    "hours": "Closed· Opens 15:00",
    "image_url": null
  },
  {
    "name": "Manda Clinic",
    "address": "Fire Brigade, Laitumkhrah, Shillong, Meghalaya 793003, India, Shillong, Meghalaya 793003",
    "phone": "Manda Clinic",
    "hours": null,
    "image_url": "https://www.bing.com/maps/geoplat/REST/v1/Imagery/Map/RoadVibrant?ms=92,112&key=AnTcaqBi2ypp0xI-OZNi4W_ik2KhjgpqioTAtXLC8GzkMBQRMlyxvxyTnd5b73im&c=en-US&ur=in&da=n&logo=n&fmt=png&od=1&shading=hill&pp=25.571484,91.899048;dfp"
  },
  {
    "name": "Dr. Richa Shaha",
    "address": "Umsohsun Main Road, East Khasi Hills, Meghalaya",
    "phone": "Dr. Richa Shaha",
    "hours": "Open· Closes 19:00",
    "image_url": null
  },
  {
    "name": "Dermasential Clinic (Dr.Clarify Syrti) MBBS, MD (Dermatology, Venereology&Leprosy)",
    "address": "Salonsar Mansion, Police Bazar, Shillong, East Khasi Hills Districts, Shillong, Meghalaya",
    "phone": "Dermasential Clinic (Dr.Clarify Syrti) MBBS, MD (Dermatology, Venereology&Leprosy)",
    "hours": null,
    "image_url": null
  },
  {
    "name": "Chyrmang's Clinic",
    "address": "Bareh Complex, East Khasi Hills, Laitumkhrah, Shillong, Meghalaya 793003",
    "phone": "Chyrmang's Clinic",
    "hours": null,
    "image_url": "https://www.bing.com/maps/geoplat/REST/v1/Imagery/Map/RoadVibrant?ms=92,112&key=AnTcaqBi2ypp0xI-OZNi4W_ik2KhjgpqioTAtXLC8GzkMBQRMlyxvxyTnd5b73im&c=en-US&ur=in&da=n&logo=n&fmt=png&od=1&shading=hill&pp=25.570621,91.897034;dfp"
  },
  {
    "name": "Metropolis Healthcare Diagnostic Centre",
    "address": "Ground Floor, Umkdait Nongmynsong Near William Carey University, East Khasi Hills, Meghalaya 793006",
    "phone": "Metropolis Healthcare Diagnostic Centre",
    "hours": "Open· Closes 20:00",
    "image_url": "https://www.bing.com/maps/geoplat/REST/v1/Imagery/Map/RoadVibrant?ms=92,134&key=AnTcaqBi2ypp0xI-OZNi4W_ik2KhjgpqioTAtXLC8GzkMBQRMlyxvxyTnd5b73im&c=en-US&ur=in&da=n&logo=n&fmt=png&od=1&shading=hill&pp=25.586803,91.908707;dfp"
  },
  {
    "name": "NEIGRIHMS",
    "address": "Mawdiangdiang, Shillong, Meghalaya",
    "phone": "NEIGRIHMS",
    "hours": "Open· Closes 16:00",
    "image_url": null
  }
]