[
  {
    "name": "Dr. Prashank Goel",
    "address": "113/2B Friends Colony, Swaroop Nagar, Uttar Pradesh",
    "phone": "Dr. Prashank Goel",
    "hours": null,
    "image_url": "/th?id=OLC.utWxz4TtAVmhGw480x360&w=92&h=112&c=8&rs=1&qlt=80&cdv=1&pid=Local"
  },
  {
    "name": "Sri Narayan Chikitsalaya And Panchkarma Center Dr. Utkarsh Verma",
    "address": "Purbia Tola, Etawah, Madhya Pradesh 206001",
    "phone": "Sri Narayan Chikitsalaya And Panchkarma Center Dr. Utkarsh Verma",
    "hours": "Open· Closes 13:00",
    "image_url": "/th?id=OLC.HShGHHGQllWHVg480x360&w=92&h=134&c=8&rs=1&qlt=80&cdv=1&pid=Local"
  },
  {
    "name": "Dr Nishchal Gupta",
    "address": "B-53, Basement Ramprastha Colony",
    "phone": "Dr Nishchal Gupta",
    "hours": null,
    "image_url": "/th?id=OLC.dsgmNITT1pbhUA480x360&w=92&h=112&c=8&rs=1&qlt=80&cdv=1&pid=Local"
  },
  {
    "name": "Dr. Dinesh Kumar",
    "address": "Ramganj Chauraha, Katra Sewa Kali, Etawah, Uttar Pradesh",
    "phone": "Dr. Dinesh Kumar",
    "hours": "Closed· Opens Sep 29 at 09:30",
    "image_url": "https://www.bing.com/maps/geoplat/REST/v1/Imagery/Map/RoadVibrant?ms=92,112&key=AnTcaqBi2ypp0xI-OZNi4W_ik2KhjgpqioTAtXLC8GzkMBQRMlyxvxyTnd5b73im&c=en-US&ur=in&da=n&logo=n&fmt=png&od=1&shading=hill&pp=26.775204,79.025764;dfp"
  },
  {
    "name": "Dr Pradeep Kumar Gupta Clinic",
    "address": "New Hind Cinema, Station Road, Naya Shahar, Etawah, Uttar Pradesh 206001",
    "phone": "Dr Pradeep Kumar Gupta Clinic",
    "hours": null,
    "image_url": "https://www.bing.com/maps/geoplat/REST/v1/Imagery/Map/RoadVibrant?ms=92,112&key=AnTcaqBi2ypp0xI-OZNi4W_ik2KhjgpqioTAtXLC8GzkMBQRMlyxvxyTnd5b73im&c=en-US&ur=in&da=n&logo=n&fmt=png&od=1&shading=hill&pp=26.773495,79.021278;dfp"
  },
  {
    "name": "Dr. S. S. Parihar",
    "address": "186-A Dreamland Colony. Station Road, Etawah, Uttar Pradesh",
    "phone": "Dr. S. S. Parihar",
    "hours": "Open· Closes 14:00",
    "image_url": "https://www.bing.com/maps/geoplat/REST/v1/Imagery/Map/RoadVibrant?ms=92,112&key=AnTcaqBi2ypp0xI-OZNi4W_ik2KhjgpqioTAtXLC8GzkMBQRMlyxvxyTnd5b73im&c=en-US&ur=in&da=n&logo=n&fmt=png&od=1&shading=hill&pp=26.785316,79.020905;dfp"
  },
  {
    "name": "Dr A.K.Yadav ENT Clinic",
    "address": "In Front of Kunal Hotel(Prakash Talkies, Naurangabad Rd, Chaugurji, Etawah, Uttar Pradesh",
    "phone": "Dr A.K.Yadav ENT Clinic",
    "hours": null,
    "image_url": null
  },
  {
    "name": "Abhi Clinic & Health Care",
    "address": "30, Shuklaganj, Bharathana, Etawah, Uttar Pradesh 206242",
    "phone": "Abhi Clinic & Health Care",
    "hours": null,
    "image_url": "https://www.bing.com/maps/geoplat/REST/v1/Imagery/Map/RoadVibrant?ms=92,112&key=AnTcaqBi2ypp0xI-OZNi4W_ik2KhjgpqioTAtXLC8GzkMBQRMlyxvxyTnd5b73im&c=en-US&ur=in&da=n&logo=n&fmt=png&od=1&shading=hill&pp=26.792959,79.021828;dfp"
  },
  {
    "name": "Singh Clinic",
    "address": "Station Road, Shastri Chauraha, Etawah City, Etawah, Uttar Pradesh 206001",
    "phone": "Singh Clinic",
    "hours": null,
    "image_url": "https://www.bing.com/maps/geoplat/REST/v1/Imagery/Map/RoadVibrant?ms=92,112&key=AnTcaqBi2ypp0xI-OZNi4W_ik2KhjgpqioTAtXLC8GzkMBQRMlyxvxyTnd5b73im&c=en-US&ur=in&da=n&logo=n&fmt=png&od=1&shading=hill&pp=26.785545,79.021461;dfp"
  },
  {
    "name": "Porwal Clinic",
    "address": "Maal Godam Road, Etawah, Uttar Pradesh 206001",
    "phone": "Porwal Clinic",
    "hours": null,
    "image_url": "https://www.bing.com/maps/geoplat/REST/v1/Imagery/Map/RoadVibrant?ms=92,112&key=AnTcaqBi2ypp0xI-OZNi4W_ik2KhjgpqioTAtXLC8GzkMBQRMlyxvxyTnd5b73im&c=en-US&ur=in&da=n&logo=n&fmt=png&od=1&shading=hill&pp=26.784039,79.023849;dfp"
  },
  {
    "name": "Kushwaha Clinic",
    "address": "Panchawali Road, Etawah, Uttar Pradesh 206001",
    "phone": "Kushwaha Clinic",
    "hours": null,
    "image_url": "https://www.bing.com/maps/geoplat/REST/v1/Imagery/Map/RoadVibrant?ms=92,112&key=AnTcaqBi2ypp0xI-OZNi4W_ik2KhjgpqioTAtXLC8GzkMBQRMlyxvxyTnd5b73im&c=en-US&ur=in&da=n&logo=n&fmt=png&od=1&shading=hill&pp=26.79019,79.019936;dfp"
  },
  {
    "name": "Paliwal Clinic",
    "address": "Agra Road, Etawah, Uttar Pradesh 206001",
    "phone": "Paliwal Clinic",
    "hours": null,
    "image_url": "https://www.bing.com/maps/geoplat/REST/v1/Imagery/Map/RoadVibrant?ms=92,112&key=AnTcaqBi2ypp0xI-OZNi4W_ik2KhjgpqioTAtXLC8GzkMBQRMlyxvxyTnd5b73im&c=en-US&ur=in&da=n&logo=n&fmt=png&od=1&shading=hill&pp=26.784555,79.017586;dfp"
  },
  {
    "name": "Agarwal Homeo Hospital",
    "address": "58 Katara Sewa Kali, Etawah, Uttar Pradesh 206001",
    "phone": "Agarwal Homeo Hospital",
    "hours": null,
    "image_url": null
  },
  {
    "name": "Dr Shiv Nath Memorial Eye Centre",
    "address": "219, Civil Lines H, Etawah, Uttar Pradesh 206001",
    "phone": "Dr Shiv Nath Memorial Eye Centre",
    "hours": "Open· Closes 19:00",
    "image_url": null
  },
  {
    "name": "Manam Behavioural Medicine Clinic",
    "address": "48 Gandhi Nagar Road, Etawah, Uttar Pradesh 206001",
    "phone": "Manam Behavioural Medicine Clinic",
    "hours": "Open· Closes 21:00",
    "image_url": "https://www.bing.com/maps/geoplat/REST/v1/Imagery/Map/RoadVibrant?ms=92,134&key=AnTcaqBi2ypp0xI-OZNi4W_ik2KhjgpqioTAtXLC8GzkMBQRMlyxvxyTnd5b73im&c=en-US&ur=in&da=n&logo=n&fmt=png&od=1&shading=hill&pp=26.786659,79.032593;dfp"
  },
  {
    "name": "Dr Lal PathLabs PUP Centre (Aastha Pathology)",
    "address": "Chauraha City, Near, Sabitganj New City, Ramganj, Etawah, Uttar Pradesh",
    "phone": "Dr Lal PathLabs PUP Centre (Aastha Pathology)",
    "hours": null,
    "image_url": "https://www.bing.com/maps/geoplat/REST/v1/Imagery/Map/RoadVibrant?ms=92,112&key=AnTcaqBi2ypp0xI-OZNi4W_ik2KhjgpqioTAtXLC8GzkMBQRMlyxvxyTnd5b73im&c=en-US&ur=in&da=n&logo=n&fmt=png&od=1&shading=hill&pp=26.77614,79.025047;dfp"
  },
  {
    "name": "Jerath Path Labs & Allergy Testing Centre",
    "address": "Friends Colony, Road, Near Shakya Hospital, Ram Nagar, Etawah, Uttar Pradesh",
    "phone": "Jerath Path Labs & Allergy Testing Centre",
    "hours": null,
    "image_url": null
  },
  {
    "name": "Anushka Pathology Lab Padrauna Service",
    "address": "6/A Civil Lines Road, Etawah, Uttar Pradesh 206001",
    "phone": "Anushka Pathology Lab Padrauna Service",
    "hours": null,
    "image_url": "https://www.bing.com/maps/geoplat/REST/v1/Imagery/Map/RoadVibrant?ms=92,112&key=AnTcaqBi2ypp0xI-OZNi4W_ik2KhjgpqioTAtXLC8GzkMBQRMlyxvxyTnd5b73im&c=en-US&ur=in&da=n&logo=n&fmt=png&od=1&shading=hill&pp=26.781231,79.015739;dfp"
  }
]