[
  {
    "name": "Dr. Shamim Ahmad General Physician in Ayodhya Dist Faizabad",
    "address": "Hepa Medical Cetre Ayodhya, Faizabad, Uttar Pradesh 224137",
    "phone": "Dr. Shamim Ahmad General Physician in Ayodhya Dist Faizabad",
    "hours": "Open· Closes 12:00",
    "image_url": "https://www.bing.com/maps/geoplat/REST/v1/Imagery/Map/RoadVibrant?ms=92,134&key=AnTcaqBi2ypp0xI-OZNi4W_ik2KhjgpqioTAtXLC8GzkMBQRMlyxvxyTnd5b73im&c=en-US&ur=in&da=n&logo=n&fmt=png&od=1&shading=hill&pp=26.79215,82.199905;dfp"
  },
  {
    "name": "Dr KS Mishra Mbbs, md",
    "address": "Beniganj Road, Faizabad, Uttar Pradesh 224001",
    "phone": "Dr KS Mishra Mbbs, md",
    "hours": null,
    "image_url": "/th?id=OLC.jYgDgMmSf8miPA480x360&w=92&h=112&c=8&rs=1&qlt=80&cdv=1&pid=Local"
  },
  {
    "name": "Dr. M.K. Ansari",
    "address": "Fatehganj Niyawan Road, Ghanta Ghar Chowk, Rikab Ganj, Faizabad, Uttar Pradesh 224001",
    "phone": "Dr. M.K. Ansari",
    "hours": "Open· Closes 20:00",
    "image_url": "/th?id=OLC.5iFfkz1gAHHEfQ480x360&w=92&h=112&c=8&rs=1&qlt=80&cdv=1&pid=Local"
  },
  {
    "name": "Dr D N Dwivedi Physician",
    "address": "2/5/251 F Shastri Nagar, Arya Kanya Rd, Niyawan, Faizabad, Uttar Pradesh",
    "phone": "Dr D N Dwivedi Physician",
    "hours": null,
    "image_url": "/th?id=OLC.sdpI7QSyMeRPeg480x360&w=92&h=112&c=8&rs=1&qlt=80&cdv=1&pid=Local"
  },
  {
    "name": "Dr V K Gupta Clinic",
    "address": "Civil Line Road, Rakab Ganj, Faizabad, Uttar Pradesh 224001",
    "phone": "Dr V K Gupta Clinic",
    "hours": null,
    "image_url": "https://www.bing.com/maps/geoplat/REST/v1/Imagery/Map/RoadVibrant?ms=92,112&key=AnTcaqBi2ypp0xI-OZNi4W_ik2KhjgpqioTAtXLC8GzkMBQRMlyxvxyTnd5b73im&c=en-US&ur=in&da=n&logo=n&fmt=png&od=1&shading=hill&pp=26.778357,82.13884;dfp"
  },
  {
    "name": "Shuddhi Clinic Faizabad",
    "address": "867 Khawaspura, Ayodhya, Near Punjab National Bank, Faizabad, Uttar Pradesh 224001",
    "phone": "Shuddhi Clinic Faizabad",
    "hours": "Open· Closes 18:00",
    "image_url": "/th?id=OLC.iiAYSnNOIajuFA480x360&w=92&h=134&c=8&rs=1&qlt=80&cdv=1&pid=Local"
  },
  {
    "name": "Dr. P D Tripathi- General Physician",
    "address": "Tribhuvan Ganga Niwas, Deonagar Colony Raibareli Road, Faizabad, Uttar Pradesh 224001",
    "phone": "Dr. P D Tripathi- General Physician",
    "hours": "Closed· Opens 11:00",
    "image_url": "https://www.bing.com/maps/geoplat/REST/v1/Imagery/Map/RoadVibrant?ms=92,134&key=AnTcaqBi2ypp0xI-OZNi4W_ik2KhjgpqioTAtXLC8GzkMBQRMlyxvxyTnd5b73im&c=en-US&ur=in&da=n&logo=n&fmt=png&od=1&shading=hill&pp=26.743927,82.137665;dfp"
  },
  {
    "name": "Bioveda Clinic & Panchakarma Centre",
    "address": "Infront Of Ram Nagar Police Station Parikrama Marg Khojanpur Faizabad, Faizabad, Uttar Pradesh, Uttar Pr…",
    "phone": "Bioveda Clinic & Panchakarma Centre",
    "hours": null,
    "image_url": null
  },
  {
    "name": "Dr Virendra Singh",
    "address": "Akbarpur Road, Faizabad, Uttar Pradesh 224001",
    "phone": "Dr Virendra Singh",
    "hours": null,
    "image_url": "https://www.bing.com/maps/geoplat/REST/v1/Imagery/Map/RoadVibrant?ms=92,112&key=AnTcaqBi2ypp0xI-OZNi4W_ik2KhjgpqioTAtXLC8GzkMBQRMlyxvxyTnd5b73im&c=en-US&ur=in&da=n&logo=n&fmt=png&od=1&shading=hill&pp=26.771059,82.158897;dfp"
  },
  {
    "name": "Cardio & diabetes care-Best Physician/Chest/Piles/Heart Disease/cardiology/Gastro/Liver Doctor in Ayodhya/Fai…",
    "address": "H. No. 3, Satyam Medical Store, 2/21, Mukeri Tola, Rikabganj, Faizabad, Uttar Pradesh",
    "phone": "Cardio & diabetes care-Best Physician/Chest/Piles/Heart Disease/cardiology/Gastro/Liver Doctor in Ayodhya/Fai…",
    "hours": null,
    "image_url": "https://www.bing.com/maps/geoplat/REST/v1/Imagery/Map/RoadVibrant?ms=92,112&key=AnTcaqBi2ypp0xI-OZNi4W_ik2KhjgpqioTAtXLC8GzkMBQRMlyxvxyTnd5b73im&c=en-US&ur=in&da=n&logo=n&fmt=png&od=1&shading=hill&pp=26.78006,82.139961;dfp"
  },
  {
    "name": "Dr Batra's Homeopathy",
    "address": "House No 139, Ground Floor, Niyawan Chauraha Road, Rikabganj, Faizabad, Uttar Pradesh 224001",
    "phone": "Dr Batra's Homeopathy",
    "hours": "Closed· Opens 11:00",
    "image_url": null
  },
  {
    "name": "Shivani Clinic",
    "address": "Janoura Pkaa Talab Praikrama Marg, Faizabad, Uttar Pradesh",
    "phone": "Shivani Clinic",
    "hours": null,
    "image_url": "https://www.bing.com/maps/geoplat/REST/v1/Imagery/Map/RoadVibrant?ms=92,112&key=AnTcaqBi2ypp0xI-OZNi4W_ik2KhjgpqioTAtXLC8GzkMBQRMlyxvxyTnd5b73im&c=en-US&ur=in&da=n&logo=n&fmt=png&od=1&shading=hill&pp=26.765171,82.141167;dfp"
  },
  {
    "name": "Dr. Anurag Bajpayee",
    "address": "Wellmed Hospital, Pandit Deendayal Nagar, Saket Complex, Devkali Bypass, Below State Bank of India, F…",
    "phone": "Dr. Anurag Bajpayee",
    "hours": "Opens in 13 mins",
    "image_url": null
  },
  {
    "name": "PATEL HOMOEOPATHIC CLINIC (Dr.Ashutosh Chaudhary)",
    "address": "Unnamed Road, Shakti Nagar Colony, Faizabad, Uttar Pradesh",
    "phone": "PATEL HOMOEOPATHIC CLINIC (Dr.Ashutosh Chaudhary)",
    "hours": null,
    "image_url": "https://www.bing.com/maps/geoplat/REST/v1/Imagery/Map/RoadVibrant?ms=92,112&key=AnTcaqBi2ypp0xI-OZNi4W_ik2KhjgpqioTAtXLC8GzkMBQRMlyxvxyTnd5b73im&c=en-US&ur=in&da=n&logo=n&fmt=png&od=1&shading=hill&pp=26.760273,82.137115;dfp"
  },
  {
    "name": "Sanjeev homoeopathic clinic- best homepathic doctor/best classical homeopaths/best vitiligo/thyroid pr…",
    "address": "Param Vila1/14/5, Hausila Nagar Colony, Civil Line, Faizabad, Uttar Pradesh",
    "phone": "Sanjeev homoeopathic clinic- best homepathic doctor/best classical homeopaths/best vitiligo/thyroid pr…",
    "hours": null,
    "image_url": "https://www.bing.com/maps/geoplat/REST/v1/Imagery/Map/RoadVibrant?ms=92,112&key=AnTcaqBi2ypp0xI-OZNi4W_ik2KhjgpqioTAtXLC8GzkMBQRMlyxvxyTnd5b73im&c=en-US&ur=in&da=n&logo=n&fmt=png&od=1&shading=hill&pp=26.770203,82.127823;dfp"
  },
  {
    "name": "Ayodhya ENT Superspeciality Clinic",
    "address": "Vaibhav Medical Store, Opposite Manucha Gali, Near Alka Tower, Niyawa Road, Rekabganj, Faizabad, Uttar …",
    "phone": "Ayodhya ENT Superspeciality Clinic",
    "hours": "Closed· Opens Sep 29 at 10:00",
    "image_url": "https://www.bing.com/maps/geoplat/REST/v1/Imagery/Map/RoadVibrant?ms=92,134&key=AnTcaqBi2ypp0xI-OZNi4W_ik2KhjgpqioTAtXLC8GzkMBQRMlyxvxyTnd5b73im&c=en-US&ur=in&da=n&logo=n&fmt=png&od=1&shading=hill&pp=26.779928,82.141739;dfp"
  },
  {
    "name": "Yash clinic ayurvedic online consultation available",
    "address": "Faizabad - Sultanpur Rd, Near Awadh University Petrol Pump के सामने, Naka Bypass, Faizabad, Uttar Prad…",
    "phone": "Yash clinic ayurvedic online consultation available",
    "hours": null,
    "image_url": null
  },
  {
    "name": "Dr. Anurag Bajpayee",
    "address": "Near Mukut Complex Naman Medicals, Faizabad, Uttar Pradesh",
    "phone": "Dr. Anurag Bajpayee",
    "hours": "Opens in 13 mins",
    "image_url": "https://www.bing.com/maps/geoplat/REST/v1/Imagery/Map/RoadVibrant?ms=92,112&key=AnTcaqBi2ypp0xI-OZNi4W_ik2KhjgpqioTAtXLC8GzkMBQRMlyxvxyTnd5b73im&c=en-US&ur=in&da=n&logo=n&fmt=png&od=1&shading=hill&pp=26.778625,82.138763;dfp"
  }
]