[
  {
    "name": "Dr. Maheshwar Chawla",
    "address": "301, BT - 4, Summit Tower, Omaxe Heights, Faridabad, Haryana",
    "phone": "Dr. Maheshwar Chawla",
    "hours": "Closed· Opens 20:00",
    "image_url": "/th?id=OLC.ycTZG33YgoxwGA480x360&w=92&h=112&c=8&rs=1&qlt=80&cdv=1&pid=Local"
  },
  {
    "name": "Dr. Jalaj Ranjan",
    "address": "A-1563, Faridabad, Haryana 121010",
    "phone": "Dr. Jalaj Ranjan",
    "hours": "Closed· Opens 13:00",
    "image_url": "/th?id=OLC.diJ5u%2fpkd%2fKMsw480x360&w=92&h=134&c=8&rs=1&qlt=80&cdv=1&pid=Local"
  },
  {
    "name": "Dr. Sanjay Bansal",
    "address": "Shop No. 3 Sector 86 Greater Faridabad, Faridabad, Haryana 121002",
    "phone": "Dr. Sanjay Bansal",
    "hours": "Closed· Opens 18:00",
    "image_url": "/th?id=OLC.iRmyjPreIl6QfQ480x360&w=92&h=134&c=8&rs=1&qlt=80&cdv=1&pid=Local"
  },
  {
    "name": "Dr. Ved Prakash",
    "address": "258 Sector-21 C Faridabad, Haryana a“ 121003, Faridabad 121003",
    "phone": "Dr. Ved Prakash",
    "hours": "Open· Closes 17:00",
    "image_url": "/th?id=OLC.jUguw2aNjZ8Afg480x360&w=92&h=134&c=8&rs=1&qlt=80&cdv=1&pid=Local"
  },
  {
    "name": "Dr. Batra's Clinic",
    "address": "Main Bazar Road, 2, Old Subzi Mandi Rd, Old Near Committee, Bahadurgarh, Haryana",
    "phone": "Dr. Batra's Clinic",
    "hours": null,
    "image_url": "/th?id=OLC.j%2fHBiKFiqhPBeQ480x360&w=92&h=112&c=8&rs=1&qlt=80&cdv=1&pid=Local"
  },
  {
    "name": "Dr Divya Aggarwal",
    "address": "Huda Staff Colony, Sector 16, Faridabad, Haryana",
    "phone": "Dr Divya Aggarwal",
    "hours": "Closed· Opens 15:15",
    "image_url": "https://www.bing.com/maps/geoplat/REST/v1/Imagery/Map/RoadVibrant?ms=92,112&key=AnTcaqBi2ypp0xI-OZNi4W_ik2KhjgpqioTAtXLC8GzkMBQRMlyxvxyTnd5b73im&c=en-US&ur=in&da=n&logo=n&fmt=png&od=1&shading=hill&pp=28.402037,77.316391;dfp"
  },
  {
    "name": "Dr. B.K. Upadhyay",
    "address": "Badkal Flyover Road, Faridabad City, Faridabad, Haryana",
    "phone": "Dr. B.K. Upadhyay",
    "hours": null,
    "image_url": null
  },
  {
    "name": "Dr. Rishi Gupta",
    "address": "Badkal Flyover Road, Sector 21 A, Faridabad, Faridabad 121001",
    "phone": "Dr. Rishi Gupta",
    "hours": "Closed· Opens tomorrow 09:00",
    "image_url": "https://www.bing.com/maps/geoplat/REST/v1/Imagery/Map/RoadVibrant?ms=92,134&key=AnTcaqBi2ypp0xI-OZNi4W_ik2KhjgpqioTAtXLC8GzkMBQRMlyxvxyTnd5b73im&c=en-US&ur=in&da=n&logo=n&fmt=png&od=1&shading=hill&pp=28.425713,77.300232;dfp"
  },
  {
    "name": "Dr. Anup Gulati",
    "address": "Metro Heart Institute With Multispeciality Sector 16 A, Faridabad (NCR), Faridabad, Haryana",
    "phone": "Dr. Anup Gulati",
    "hours": "Closed· Opens 13:00",
    "image_url": null
  },
  {
    "name": "Malhotra Clinic",
    "address": "Malhotra Clinic 1/134 Shashtri Colony Sec.-19, Faridabad, Haryana 121002",
    "phone": "Malhotra Clinic",
    "hours": null,
    "image_url": null
  },
  {
    "name": "Dr. Sanjay Kumar DIRECTOR CARDIOLOGY | Fortis Faridabad",
    "address": "Cabin No: 34 Neelam Bata Rd, AC Nagar, New Industrial Township, Faridabad, Haryana 121001",
    "phone": "Dr. Sanjay Kumar DIRECTOR CARDIOLOGY | Fortis Faridabad",
    "hours": "Open· Closes 12:00",
    "image_url": null
  },
  {
    "name": "Dr. Narendranath Sarkar",
    "address": "1503, Tower T9, RPS Savana, Faridabad, Haryana",
    "phone": "Dr. Narendranath Sarkar",
    "hours": "Closed· Opens 15:00",
    "image_url": "https://www.bing.com/maps/geoplat/REST/v1/Imagery/Map/RoadVibrant?ms=92,112&key=AnTcaqBi2ypp0xI-OZNi4W_ik2KhjgpqioTAtXLC8GzkMBQRMlyxvxyTnd5b73im&c=en-US&ur=in&da=n&logo=n&fmt=png&od=1&shading=hill&pp=28.419437,77.32885;dfp"
  },
  {
    "name": "Dr. Amit Clinic",
    "address": "Sector 17 Main Road, Near Park Apna, Huda Staff Colony, Sector 16, Faridabad, Haryana 121002",
    "phone": "Dr. Amit Clinic",
    "hours": null,
    "image_url": null
  },
  {
    "name": "Dr. Gurmeet Singh Chabbra",
    "address": "Qrg Healthcity, Huda Staff Colony, Sector 16, Faridabad, Faridabad, Haryana, Haryana 121002",
    "phone": "Dr. Gurmeet Singh Chabbra",
    "hours": "Open· Closes 17:00",
    "image_url": null
  },
  {
    "name": "Dr. D.K. Kesar",
    "address": "Badkal Flyover Road, Sector 21a, Faridabad, Haryana, Faridabad 121001",
    "phone": "Dr. D.K. Kesar",
    "hours": "Open· Closes 14:00",
    "image_url": "https://www.bing.com/maps/geoplat/REST/v1/Imagery/Map/RoadVibrant?ms=92,112&key=AnTcaqBi2ypp0xI-OZNi4W_ik2KhjgpqioTAtXLC8GzkMBQRMlyxvxyTnd5b73im&c=en-US&ur=in&da=n&logo=n&fmt=png&od=1&shading=hill&pp=28.425713,77.300232;dfp"
  },
  {
    "name": "Amar Clinic",
    "address": "Railway Road, Near Singla Enterprises, Sector 20A, Faridabad, Haryana 121001",
    "phone": "Amar Clinic",
    "hours": null,
    "image_url": null
  },
  {
    "name": "Dr. Ashok Kumar Punjabi",
    "address": "House Number 61, Faridabad, Haryana",
    "phone": "Dr. Ashok Kumar Punjabi",
    "hours": "Open· Closes 13:00",
    "image_url": "https://www.bing.com/maps/geoplat/REST/v1/Imagery/Map/RoadVibrant?ms=92,112&key=AnTcaqBi2ypp0xI-OZNi4W_ik2KhjgpqioTAtXLC8GzkMBQRMlyxvxyTnd5b73im&c=en-US&ur=in&da=n&logo=n&fmt=png&od=1&shading=hill&pp=28.425097,77.322845;dfp"
  },
  {
    "name": "Dr. Divya Agarwal",
    "address": "5E/54 BP, 2nd Floor, B.K Chowk, Faridabad, Haryana",
    "phone": "Dr. Divya Agarwal",
    "hours": null,
    "image_url": "https://www.bing.com/maps/geoplat/REST/v1/Imagery/Map/RoadVibrant?ms=92,112&key=AnTcaqBi2ypp0xI-OZNi4W_ik2KhjgpqioTAtXLC8GzkMBQRMlyxvxyTnd5b73im&c=en-US&ur=in&da=n&logo=n&fmt=png&od=1&shading=hill&pp=28.380085,77.307159;dfp"
  }
]