[
  {
    "name": "Bilalli Care & Cure Medical Centre Shikarpur",
    "address": "Station Road, Shikarpur",
    "phone": "Bilalli Care & Cure Medical Centre Shikarpur",
    "hours": null,
    "image_url": "/th?id=OLC.kX6YYLwELGpKXQ480x360&w=92&h=112&c=8&rs=1&qlt=80&cdv=1&pid=Local"
  },
  {
    "name": "Dr.pramod Kumar Mishra",
    "address": "4/34 Bajariya Harlal, Farrukhabad, Uttar Pradesh, Uttar Pradesh 209625",
    "phone": "Dr.pramod Kumar Mishra",
    "hours": "Open· Closes 21:00",
    "image_url": "/th?id=OLC.AuheH0IoA6FWFQ480x360&w=92&h=134&c=8&rs=1&qlt=80&cdv=1&pid=Local"
  },
  {
    "name": "Dr. Ravi Kant Gupta- Ayush",
    "address": "Dr. Ravi Kant Gupta, Mau Darwaja, Near Police Staion, Farrukhabad, Uttar Pradesh 209625",
    "phone": "Dr. Ravi Kant Gupta- Ayush",
    "hours": "Open· Closes 20:00",
    "image_url": "https://www.bing.com/maps/geoplat/REST/v1/Imagery/Map/RoadVibrant?ms=92,134&key=AnTcaqBi2ypp0xI-OZNi4W_ik2KhjgpqioTAtXLC8GzkMBQRMlyxvxyTnd5b73im&c=en-US&ur=in&da=n&logo=n&fmt=png&od=1&shading=hill&pp=27.395245,79.566925;dfp"
  },
  {
    "name": "Dr Jagdish Chandra Rajpoot Bams",
    "address": "Thandi Sadak, Farrukhabad, Uttar Pradesh 209625",
    "phone": "Dr Jagdish Chandra Rajpoot Bams",
    "hours": null,
    "image_url": "https://www.bing.com/maps/geoplat/REST/v1/Imagery/Map/RoadVibrant?ms=92,112&key=AnTcaqBi2ypp0xI-OZNi4W_ik2KhjgpqioTAtXLC8GzkMBQRMlyxvxyTnd5b73im&c=en-US&ur=in&da=n&logo=n&fmt=png&od=1&shading=hill&pp=27.383411,79.584465;dfp"
  },
  {
    "name": "Dr. N.s. Rajput",
    "address": "Bypass Road, Maa Laxmi Hospital, Kharbandi Kuiyanboot, Farrukhabad, Uttar Pradesh 209625",
    "phone": "Dr. N.s. Rajput",
    "hours": null,
    "image_url": "https://www.bing.com/maps/geoplat/REST/v1/Imagery/Map/RoadVibrant?ms=92,112&key=AnTcaqBi2ypp0xI-OZNi4W_ik2KhjgpqioTAtXLC8GzkMBQRMlyxvxyTnd5b73im&c=en-US&ur=in&da=n&logo=n&fmt=png&od=1&shading=hill&pp=27.378939,79.566101;dfp"
  },
  {
    "name": "Dr. Navneet Gupta- General Physician",
    "address": "Sri Navjyoti Clinic And Eye Care Centre, Thandi Sadak, Lal Gate, Farrukhabad, Uttar Pradesh 209625",
    "phone": "Dr. Navneet Gupta- General Physician",
    "hours": "Open· Closes 20:00",
    "image_url": "https://www.bing.com/maps/geoplat/REST/v1/Imagery/Map/RoadVibrant?ms=92,134&key=AnTcaqBi2ypp0xI-OZNi4W_ik2KhjgpqioTAtXLC8GzkMBQRMlyxvxyTnd5b73im&c=en-US&ur=in&da=n&logo=n&fmt=png&od=1&shading=hill&pp=27.364021,79.573906;dfp"
  },
  {
    "name": "Dr. Anand Bajpai- Ayush in Farrukhabad",
    "address": "Major SD Singh PG Ayurvedic Medical College & Hospital, Bewar Rd, Fatehgarh, Uttar Pradesh",
    "phone": "Dr. Anand Bajpai- Ayush in Farrukhabad",
    "hours": null,
    "image_url": "https://www.bing.com/maps/geoplat/REST/v1/Imagery/Map/RoadVibrant?ms=92,112&key=AnTcaqBi2ypp0xI-OZNi4W_ik2KhjgpqioTAtXLC8GzkMBQRMlyxvxyTnd5b73im&c=en-US&ur=in&da=n&logo=n&fmt=png&od=1&shading=hill&pp=27.354671,79.564362;dfp"
  },
  {
    "name": "Vatsal Clinic",
    "address": "Sabji Mandi Near Kotwali, Farrukhabad, Uttar Pradesh 209602",
    "phone": "Vatsal Clinic",
    "hours": null,
    "image_url": null
  },
  {
    "name": "Dr Anar Singh Ayurvedic Medical College & hospital",
    "address": "Bewar Road Fatehgarh, Farrukhabad, Uttar Pradesh 209625, India, Farrukhabad, Uttar Pradesh 209625",
    "phone": "Dr Anar Singh Ayurvedic Medical College & hospital",
    "hours": null,
    "image_url": null
  },
  {
    "name": "Dr. Y P Gautam | Orthopedic | Gautam Hospital Shahjahanpur",
    "address": "Gautam Hospital, Canal Road, Mohalla Chau Bhurji, Shahjahanpur, Uttar Pradesh 242001",
    "phone": "Dr. Y P Gautam | Orthopedic | Gautam Hospital Shahjahanpur",
    "hours": null,
    "image_url": "https://www.bing.com/maps/geoplat/REST/v1/Imagery/Map/RoadVibrant?ms=92,112&key=AnTcaqBi2ypp0xI-OZNi4W_ik2KhjgpqioTAtXLC8GzkMBQRMlyxvxyTnd5b73im&c=en-US&ur=in&da=n&logo=n&fmt=png&od=1&shading=hill&pp=27.383053,79.578133;dfp"
  },
  {
    "name": "Dr. Devangshu Mukherjee Homoeopathic Clinic",
    "address": "Railway Station Road, Farrukhabad, Uttar Pradesh 209625",
    "phone": "Dr. Devangshu Mukherjee Homoeopathic Clinic",
    "hours": null,
    "image_url": "https://www.bing.com/maps/geoplat/REST/v1/Imagery/Map/RoadVibrant?ms=92,112&key=AnTcaqBi2ypp0xI-OZNi4W_ik2KhjgpqioTAtXLC8GzkMBQRMlyxvxyTnd5b73im&c=en-US&ur=in&da=n&logo=n&fmt=png&od=1&shading=hill&pp=27.3922,79.577499;dfp"
  },
  {
    "name": "Ananya Clinic",
    "address": "Putri Road, Farrukhabad Railway Station, Kharbandi Kuiyanboot, Farrukhabad, Uttar Pradesh 209625",
    "phone": "Ananya Clinic",
    "hours": null,
    "image_url": "https://www.bing.com/maps/geoplat/REST/v1/Imagery/Map/RoadVibrant?ms=92,112&key=AnTcaqBi2ypp0xI-OZNi4W_ik2KhjgpqioTAtXLC8GzkMBQRMlyxvxyTnd5b73im&c=en-US&ur=in&da=n&logo=n&fmt=png&od=1&shading=hill&pp=27.383364,79.566109;dfp"
  },
  {
    "name": "Dr. Bharat Shukla",
    "address": "2B/101, Avas Vikas, Farrukhabad, Uttar Pradesh",
    "phone": "Dr. Bharat Shukla",
    "hours": "Open· Closes 13:00",
    "image_url": "https://www.bing.com/maps/geoplat/REST/v1/Imagery/Map/RoadVibrant?ms=92,112&key=AnTcaqBi2ypp0xI-OZNi4W_ik2KhjgpqioTAtXLC8GzkMBQRMlyxvxyTnd5b73im&c=en-US&ur=in&da=n&logo=n&fmt=png&od=1&shading=hill&pp=27.382187,79.60218;dfp"
  },
  {
    "name": "Maheshwari Chidrens Clinic",
    "address": "4\\3, Palra Jatwra, Barhpur, Railway Road, Farrukhabad, Uttar Pradesh 209625",
    "phone": "Maheshwari Chidrens Clinic",
    "hours": null,
    "image_url": "https://www.bing.com/maps/geoplat/REST/v1/Imagery/Map/RoadVibrant?ms=92,112&key=AnTcaqBi2ypp0xI-OZNi4W_ik2KhjgpqioTAtXLC8GzkMBQRMlyxvxyTnd5b73im&c=en-US&ur=in&da=n&logo=n&fmt=png&od=1&shading=hill&pp=27.391548,79.574646;dfp"
  },
  {
    "name": "Surya Hospital",
    "address": "Meshni Road, Manohar Lohia Rajkiya Sanyukt Chikitsalaya, Nekpur Kalan, Farrukhabad-Fatehgarh, Ut…",
    "phone": "Surya Hospital",
    "hours": null,
    "image_url": "https://www.bing.com/maps/geoplat/REST/v1/Imagery/Map/RoadVibrant?ms=92,112&key=AnTcaqBi2ypp0xI-OZNi4W_ik2KhjgpqioTAtXLC8GzkMBQRMlyxvxyTnd5b73im&c=en-US&ur=in&da=n&logo=n&fmt=png&od=1&shading=hill&pp=27.38376,79.607567;dfp"
  },
  {
    "name": "Dr.KATIYAR's Dental-Hair-Skin Clinic",
    "address": "Sabji Mandi Kamalganj, Railway Road Gursahaiganj, Farrukhabad, Uttar Pradesh, Uttar Pradesh 209625",
    "phone": "Dr.KATIYAR's Dental-Hair-Skin Clinic",
    "hours": null,
    "image_url": "https://www.bing.com/maps/geoplat/REST/v1/Imagery/Map/RoadVibrant?ms=92,112&key=AnTcaqBi2ypp0xI-OZNi4W_ik2KhjgpqioTAtXLC8GzkMBQRMlyxvxyTnd5b73im&c=en-US&ur=in&da=n&logo=n&fmt=png&od=1&shading=hill&pp=27.38637,79.57444;dfp"
  },
  {
    "name": "Dr Lal PathLabs – Patient Service Centre",
    "address": "Diamond Palace Hotel, 2B/106 Globus Complex Near, Aryavrat Gramin Bank Bhawan Awas Vikas, Farrukhab…",
    "phone": "Dr Lal PathLabs – Patient Service Centre",
    "hours": null,
    "image_url": "https://www.bing.com/maps/geoplat/REST/v1/Imagery/Map/RoadVibrant?ms=92,112&key=AnTcaqBi2ypp0xI-OZNi4W_ik2KhjgpqioTAtXLC8GzkMBQRMlyxvxyTnd5b73im&c=en-US&ur=in&da=n&logo=n&fmt=png&od=1&shading=hill&pp=27.388702,79.582802;dfp"
  },
  {
    "name": "Dr Lal Path Labs",
    "address": "Cp 105, Awas Vikas Colony, Near Bank Of Maharashtra, Lic Road, Farrukhabad, Uttar Pradesh 209625",
    "phone": "Dr Lal Path Labs",
    "hours": null,
    "image_url": "https://www.bing.com/maps/geoplat/REST/v1/Imagery/Map/RoadVibrant?ms=92,112&key=AnTcaqBi2ypp0xI-OZNi4W_ik2KhjgpqioTAtXLC8GzkMBQRMlyxvxyTnd5b73im&c=en-US&ur=in&da=n&logo=n&fmt=png&od=1&shading=hill&pp=27.392239,79.580437;dfp"
  }
]