[
  {
    "name": "Dr. Sakshi mishra",
    "address": "Shivakyps Hospital Patel Nagar, Nahar Colony Fatehpur up, Fatehpur, Madhya Pradesh 212601",
    "phone": "Dr. Sakshi mishra",
    "hours": "Open· Closes 18:00",
    "image_url": "/th?id=OLC.qhXBT3eYsYLORA480x360&w=92&h=134&c=8&rs=1&qlt=80&cdv=1&pid=Local"
  },
  {
    "name": "Dr Bheemrao Ambedkar Janhitkari Shiksha Samiti",
    "address": "Hn 508 Awas Vikas Colony, Fatehpur, Uttar Pradesh 212601",
    "phone": "Dr Bheemrao Ambedkar Janhitkari Shiksha Samiti",
    "hours": null,
    "image_url": "https://www.bing.com/maps/geoplat/REST/v1/Imagery/Map/RoadVibrant?ms=92,112&key=AnTcaqBi2ypp0xI-OZNi4W_ik2KhjgpqioTAtXLC8GzkMBQRMlyxvxyTnd5b73im&c=en-US&ur=in&da=n&logo=n&fmt=png&od=1&shading=hill&pp=25.927813,80.805275;dfp"
  },
  {
    "name": "Dr Pankaj Singh",
    "address": "428, Civil Lines Supply Office Road, Fatehpur, Uttar Pradesh 212601",
    "phone": "Dr Pankaj Singh",
    "hours": null,
    "image_url": "/th?id=OLC.rhWTKEyNygCNuA480x360&w=92&h=112&c=8&rs=1&qlt=80&cdv=1&pid=Local"
  },
  {
    "name": "DR ASHISH KUMAR SINGH VimPal Clinic",
    "address": "Civil Line, Near Pipal Chauraha, Balrampur, Uttar Pradesh",
    "phone": "DR ASHISH KUMAR SINGH VimPal Clinic",
    "hours": null,
    "image_url": "https://www.bing.com/maps/geoplat/REST/v1/Imagery/Map/RoadVibrant?ms=92,112&key=AnTcaqBi2ypp0xI-OZNi4W_ik2KhjgpqioTAtXLC8GzkMBQRMlyxvxyTnd5b73im&c=en-US&ur=in&da=n&logo=n&fmt=png&od=1&shading=hill&pp=25.92524,80.804436;dfp"
  },
  {
    "name": "Dr. Anurag Bajpai",
    "address": "9-C, Imamganj, Fatehpur HO, GT Road, Fatehpur, Bihar",
    "phone": "Dr. Anurag Bajpai",
    "hours": "Closed· Opens Thu 18:00",
    "image_url": "/th?id=OLC.CEsb0m%2bSlVGJAg480x360&w=92&h=112&c=8&rs=1&qlt=80&cdv=1&pid=Local"
  },
  {
    "name": "Warsi Clinic -Dr. Shahid Husain",
    "address": "Hari Masjid Chauraha, Shahi, Uttar Pradesh",
    "phone": "Warsi Clinic -Dr. Shahid Husain",
    "hours": null,
    "image_url": "https://www.bing.com/maps/geoplat/REST/v1/Imagery/Map/RoadVibrant?ms=92,112&key=AnTcaqBi2ypp0xI-OZNi4W_ik2KhjgpqioTAtXLC8GzkMBQRMlyxvxyTnd5b73im&c=en-US&ur=in&da=n&logo=n&fmt=png&od=1&shading=hill&pp=25.932177,80.815331;dfp"
  },
  {
    "name": "Bajpai Polyclinic",
    "address": "Nai Basti, Abu Nagar, Fatehpur, Uttar Pradesh",
    "phone": "Bajpai Polyclinic",
    "hours": null,
    "image_url": "https://www.bing.com/maps/geoplat/REST/v1/Imagery/Map/RoadVibrant?ms=92,112&key=AnTcaqBi2ypp0xI-OZNi4W_ik2KhjgpqioTAtXLC8GzkMBQRMlyxvxyTnd5b73im&c=en-US&ur=in&da=n&logo=n&fmt=png&od=1&shading=hill&pp=25.936703,80.811256;dfp"
  },
  {
    "name": "Dr Bhim Rao Ambedkar Shiksha Samiti",
    "address": "50 No Gate Jayram Nagar, Fatehpur, Uttar Pradesh 210202",
    "phone": "Dr Bhim Rao Ambedkar Shiksha Samiti",
    "hours": null,
    "image_url": "https://www.bing.com/maps/geoplat/REST/v1/Imagery/Map/RoadVibrant?ms=92,112&key=AnTcaqBi2ypp0xI-OZNi4W_ik2KhjgpqioTAtXLC8GzkMBQRMlyxvxyTnd5b73im&c=en-US&ur=in&da=n&logo=n&fmt=png&od=1&shading=hill&pp=25.918634,80.794022;dfp"
  },
  {
    "name": "Dr. Narendra Pratap Singh",
    "address": "Fatehpur, Uttar Pradesh, India, 212601, Fatehpur, Madhya Pradesh 212601",
    "phone": "Dr. Narendra Pratap Singh",
    "hours": "Open· Closes 18:00",
    "image_url": null
  },
  {
    "name": "Dr. Mohd Khurshid | General physician and paediatric",
    "address": "Ramganj Pakka Talab Fatehpur, Fatehpur, Uttar Pradesh, India, 212601, Fatehpur, Madhya Pradesh 212601",
    "phone": "Dr. Mohd Khurshid | General physician and paediatric",
    "hours": "Open· Closes 18:00",
    "image_url": null
  },
  {
    "name": "Dr. Deepak Dixit",
    "address": "ITI Road, Fatehpur, Uttar Pradesh",
    "phone": "Dr. Deepak Dixit",
    "hours": "Open· Closes 14:00",
    "image_url": null
  },
  {
    "name": "Jivan Sparsh Ayurveda Hospital",
    "address": "Fatehpur Salasar Mandir Road Near Do Jati Temple, Fatehpur, Rajasthan 201301",
    "phone": "Jivan Sparsh Ayurveda Hospital",
    "hours": null,
    "image_url": "https://www.bing.com/maps/geoplat/REST/v1/Imagery/Map/RoadVibrant?ms=92,112&key=AnTcaqBi2ypp0xI-OZNi4W_ik2KhjgpqioTAtXLC8GzkMBQRMlyxvxyTnd5b73im&c=en-US&ur=in&da=n&logo=n&fmt=png&od=1&shading=hill&pp=24.61277,73.68663;dfp"
  },
  {
    "name": "Anurag Homoeopathic Clinic",
    "address": "Fatehpur, Kotwali Road, Fatehpur, Uttar Pradesh 212601",
    "phone": "Anurag Homoeopathic Clinic",
    "hours": null,
    "image_url": null
  },
  {
    "name": "Smt. Kalawati Memorial Homoeopathic Clinic",
    "address": "Near of Uday Electronics, Verma Chauraha, Fatehpur, Uttar Pradesh",
    "phone": "Smt. Kalawati Memorial Homoeopathic Clinic",
    "hours": null,
    "image_url": null
  },
  {
    "name": "Kazmi Homoeopathic Clinic",
    "address": "Jwalaganj, Fatehpur, Uttar Pradesh 212601",
    "phone": "Kazmi Homoeopathic Clinic",
    "hours": "Open· Closes 17:00",
    "image_url": null
  },
  {
    "name": "Fatehpur Scan Private Limited - A unit of Dr Lal PathLabs",
    "address": "Paliwal Diagnostics Pvt Ltd, 306/627, Near Patharkata Chauraha, Pattharkata Chauraha, Civil Lines, Fatehpur…",
    "phone": "Fatehpur Scan Private Limited - A unit of Dr Lal PathLabs",
    "hours": null,
    "image_url": "https://www.bing.com/maps/geoplat/REST/v1/Imagery/Map/RoadVibrant?ms=92,112&key=AnTcaqBi2ypp0xI-OZNi4W_ik2KhjgpqioTAtXLC8GzkMBQRMlyxvxyTnd5b73im&c=en-US&ur=in&da=n&logo=n&fmt=png&od=1&shading=hill&pp=25.918507,80.79425;dfp"
  },
  {
    "name": "Dr. Yuthika Sharma Bajpai",
    "address": "9-C, Imamganj, Fatehpur HO, GT Road, Fatehpur, Bihar",
    "phone": "Dr. Yuthika Sharma Bajpai",
    "hours": "Closed· Opens Sep 29 at 09:00",
    "image_url": null
  }
]