[
  {
    "name": "Rana Hospital",
    "address": "Rana Hospital Road, Sirhind 140406",
    "phone": "Rana Hospital",
    "hours": null,
    "image_url": "/th?id=OLC.aCCvrrQK2Jq0wQ480x360&w=92&h=112&c=8&rs=1&qlt=80&cdv=1&pid=Local"
  },
  {
    "name": "Dr Sandeep Memorial Multi Speciality Hospital",
    "address": "Sh12a, Amba Wala Dera, Sirhind Fategarh, Sirhind, Punjab 140406",
    "phone": "Dr Sandeep Memorial Multi Speciality Hospital",
    "hours": null,
    "image_url": "/th?id=OLC.e1PopesHZslXXw480x360&w=92&h=112&c=8&rs=1&qlt=80&cdv=1&pid=Local"
  },
  {
    "name": "Bhandari Homoeopathic Clinic. Sirhind.",
    "address": "Bhandari Homoeopathic Clinic, Sirhind 140406",
    "phone": "Bhandari Homoeopathic Clinic. Sirhind.",
    "hours": null,
    "image_url": "/th?id=OLC.SQ7w55CKxO6X%2fQ480x360&w=92&h=112&c=8&rs=1&qlt=80&cdv=1&pid=Local"
  },
  {
    "name": "Dr.sachin Clinic And Nursing Home",
    "address": "nai Abadi..Gurdwara Street..Back Side mc Office...Sirhind, Sirhind 140406",
    "phone": "Dr.sachin Clinic And Nursing Home",
    "hours": null,
    "image_url": "/th?id=OLC.%2b9oFRozquGNAmQ480x360&w=92&h=112&c=8&rs=1&qlt=80&cdv=1&pid=Local"
  },
  {
    "name": "Good Health Clinic",
    "address": "City Road Bazar, Brahman Majra, Sirhind Fategarh, Sirhind, Punjab 140406",
    "phone": "Good Health Clinic",
    "hours": null,
    "image_url": "/th?id=OLC.tMzmAnxgva3rbQ480x360&w=92&h=112&c=8&rs=1&qlt=80&cdv=1&pid=Local"
  },
  {
    "name": "Chhabra Clinic",
    "address": "Near Maharishi Dayanand School, Main Bazar, Sirhind, Punjab Region 140406",
    "phone": "Chhabra Clinic",
    "hours": "Open· Closes 19:00",
    "image_url": "https://www.bing.com/maps/geoplat/REST/v1/Imagery/Map/RoadVibrant?ms=92,134&key=AnTcaqBi2ypp0xI-OZNi4W_ik2KhjgpqioTAtXLC8GzkMBQRMlyxvxyTnd5b73im&c=en-US&ur=in&da=n&logo=n&fmt=png&od=1&shading=hill&pp=30.649401,76.375389;dfp"
  },
  {
    "name": "Afecto Homeopathic Clinic | Best Homeopathic Doctor",
    "address": "Afecto Homeopathy City Road, Near Bhola Sweets, Sirhind, Punjab 140406",
    "phone": "Afecto Homeopathic Clinic | Best Homeopathic Doctor",
    "hours": "Open· Closes 19:00",
    "image_url": null
  },
  {
    "name": "True Health Clinic",
    "address": "Jyoti Sarup Chowk, Prop. Amandeep Singh, Sirhind, OPP. Bzsfs SR. SEC. School, Fathegarh Sahib, Fatehg…",
    "phone": "True Health Clinic",
    "hours": null,
    "image_url": "https://www.bing.com/maps/geoplat/REST/v1/Imagery/Map/RoadVibrant?ms=92,112&key=AnTcaqBi2ypp0xI-OZNi4W_ik2KhjgpqioTAtXLC8GzkMBQRMlyxvxyTnd5b73im&c=en-US&ur=in&da=n&logo=n&fmt=png&od=1&shading=hill&pp=30.629541,76.39035;dfp"
  },
  {
    "name": "Dr Bhupinders Homeopathic Clinic",
    "address": "Sh8, Shamsher Nagar, Sirhind, Punjab 140406",
    "phone": "Dr Bhupinders Homeopathic Clinic",
    "hours": null,
    "image_url": "https://www.bing.com/maps/geoplat/REST/v1/Imagery/Map/RoadVibrant?ms=92,112&key=AnTcaqBi2ypp0xI-OZNi4W_ik2KhjgpqioTAtXLC8GzkMBQRMlyxvxyTnd5b73im&c=en-US&ur=in&da=n&logo=n&fmt=png&od=1&shading=hill&pp=30.632444,76.390808;dfp"
  },
  {
    "name": "Shuddhi Clinic By Guru Manish Ji - Best Ayurveda Doctor & Ayurvedic Treatment",
    "address": "Subash Singla Complex, Opp. Union Bank of India, Defence Bandh Road, Sirhind, Fatehgarh Sahib, Punja…",
    "phone": "Shuddhi Clinic By Guru Manish Ji - Best Ayurveda Doctor & Ayurvedic Treatment",
    "hours": "Open· Closes 18:00",
    "image_url": null
  },
  {
    "name": "Dr Sandhu skin, laser & hair transplant.",
    "address": "DR. Sandhu Skin Laser AND Hair Transplant Centre, BYE Pass Road Sirhind, Fatehgarh Sahib, Punjab 1404…",
    "phone": "Dr Sandhu skin, laser & hair transplant.",
    "hours": null,
    "image_url": null
  },
  {
    "name": "Bharat Diagnostic centre",
    "address": "Hiymunpur Railway Road, Sirhind 140406",
    "phone": "Bharat Diagnostic centre",
    "hours": null,
    "image_url": "https://www.bing.com/maps/geoplat/REST/v1/Imagery/Map/RoadVibrant?ms=92,112&key=AnTcaqBi2ypp0xI-OZNi4W_ik2KhjgpqioTAtXLC8GzkMBQRMlyxvxyTnd5b73im&c=en-US&ur=in&da=n&logo=n&fmt=png&od=1&shading=hill&pp=30.647511,76.393242;dfp"
  },
  {
    "name": "Ved Clinic",
    "address": "Near Aggarwal Dhar 0 Bassi Pathana, Patiala, Punjab 140412",
    "phone": "Ved Clinic",
    "hours": null,
    "image_url": "https://www.bing.com/maps/geoplat/REST/v1/Imagery/Map/RoadVibrant?ms=92,112&key=AnTcaqBi2ypp0xI-OZNi4W_ik2KhjgpqioTAtXLC8GzkMBQRMlyxvxyTnd5b73im&c=en-US&ur=in&da=n&logo=n&fmt=png&od=1&shading=hill&pp=30.68276,76.404564;dfp"
  },
  {
    "name": "Dr. Vishal Takyar",
    "address": "Post Office Road, Fatehgarh Sahib, Punjab",
    "phone": "Dr. Vishal Takyar",
    "hours": "Open· Closes 17:00",
    "image_url": "https://www.bing.com/maps/geoplat/REST/v1/Imagery/Map/RoadVibrant?ms=92,112&key=AnTcaqBi2ypp0xI-OZNi4W_ik2KhjgpqioTAtXLC8GzkMBQRMlyxvxyTnd5b73im&c=en-US&ur=in&da=n&logo=n&fmt=png&od=1&shading=hill&pp=30.618484,76.365013;dfp"
  },
  {
    "name": "Guru Hargobind Sahib Clinic Lab",
    "address": "Old Tehsil Road, Dashnami Akhara, Sirhind Fatehgarh Sahib, Punjab 140407",
    "phone": "Guru Hargobind Sahib Clinic Lab",
    "hours": null,
    "image_url": "https://www.bing.com/maps/geoplat/REST/v1/Imagery/Map/RoadVibrant?ms=92,112&key=AnTcaqBi2ypp0xI-OZNi4W_ik2KhjgpqioTAtXLC8GzkMBQRMlyxvxyTnd5b73im&c=en-US&ur=in&da=n&logo=n&fmt=png&od=1&shading=hill&pp=30.646067,76.390793;dfp"
  },
  {
    "name": "Saksham Health Clinic",
    "address": "G.t Road, Bus Stand, Sirhind, India - 140406, Sirhind, Sirhind 140406",
    "phone": "Saksham Health Clinic",
    "hours": null,
    "image_url": null
  },
  {
    "name": "Life Care Diagnostic Centre",
    "address": "Sirhind City Road, Nawi Basti, Sirhind, Punjab 140406",
    "phone": "Life Care Diagnostic Centre",
    "hours": null,
    "image_url": "https://www.bing.com/maps/geoplat/REST/v1/Imagery/Map/RoadVibrant?ms=92,112&key=AnTcaqBi2ypp0xI-OZNi4W_ik2KhjgpqioTAtXLC8GzkMBQRMlyxvxyTnd5b73im&c=en-US&ur=in&da=n&logo=n&fmt=png&od=1&shading=hill&pp=30.629015,76.384033;dfp"
  },
  {
    "name": "Chandigarh Diagnostic Centre",
    "address": "Sh8, Bassi Pathana, Punjab 140412",
    "phone": "Chandigarh Diagnostic Centre",
    "hours": null,
    "image_url": null
  }
]