[
  {
    "name": "Dr. P. Dayal- General Physician",
    "address": "Sukhmeet Bawaseer Hospital, Ratia Road, Near By Ratia Chungi, Fatehabad, Haryana 125050",
    "phone": "Dr. P. Dayal- General Physician",
    "hours": "Open路 Closes 17:00",
    "image_url": "https://www.bing.com/maps/geoplat/REST/v1/Imagery/Map/RoadVibrant?ms=92,134&key=AnTcaqBi2ypp0xI-OZNi4W_ik2KhjgpqioTAtXLC8GzkMBQRMlyxvxyTnd5b73im&c=en-US&ur=in&da=n&logo=n&fmt=png&od=1&shading=hill&pp=29.52334,75.445061;dfp"
  },
  {
    "name": "Dr Aatm Prakash Mehta Clinic",
    "address": "Sajjan Market, Thana Road Super Bajar, Narang Hospital, Fatehbad, Fatehabad, Haryana 125050",
    "phone": "Dr Aatm Prakash Mehta Clinic",
    "hours": null,
    "image_url": "https://www.bing.com/maps/geoplat/REST/v1/Imagery/Map/RoadVibrant?ms=92,112&key=AnTcaqBi2ypp0xI-OZNi4W_ik2KhjgpqioTAtXLC8GzkMBQRMlyxvxyTnd5b73im&c=en-US&ur=in&da=n&logo=n&fmt=png&od=1&shading=hill&pp=29.514202,75.454765;dfp"
  },
  {
    "name": "Taj Mohammad Clinic",
    "address": "Arorvansh Dharamshala, Arorvansh Dharamshala Road, Chandshi Hospital, Fatehabad, Haryana 125050",
    "phone": "Taj Mohammad Clinic",
    "hours": null,
    "image_url": "https://www.bing.com/maps/geoplat/REST/v1/Imagery/Map/RoadVibrant?ms=92,112&key=AnTcaqBi2ypp0xI-OZNi4W_ik2KhjgpqioTAtXLC8GzkMBQRMlyxvxyTnd5b73im&c=en-US&ur=in&da=n&logo=n&fmt=png&od=1&shading=hill&pp=29.517876,75.454147;dfp"
  },
  {
    "name": "Batra Hospital - Skin, Laser & ENT Specialist Fatehabad",
    "address": "Hisar Rd, Bhima Basti, Fatehabad, Haryana 125050, India, Fatehabad, Haryana, Haryana 125050",
    "phone": "Batra Hospital - Skin, Laser & ENT Specialist Fatehabad",
    "hours": null,
    "image_url": "https://www.bing.com/maps/geoplat/REST/v1/Imagery/Map/RoadVibrant?ms=92,112&key=AnTcaqBi2ypp0xI-OZNi4W_ik2KhjgpqioTAtXLC8GzkMBQRMlyxvxyTnd5b73im&c=en-US&ur=in&da=n&logo=n&fmt=png&od=1&shading=hill&pp=29.51675,75.445213;dfp"
  },
  {
    "name": "Sahota Clinic",
    "address": "Bahamanwala, Ratia, Fatehabad, Haryana 125050",
    "phone": "Sahota Clinic",
    "hours": null,
    "image_url": "https://www.bing.com/maps/geoplat/REST/v1/Imagery/Map/RoadVibrant?ms=92,112&key=AnTcaqBi2ypp0xI-OZNi4W_ik2KhjgpqioTAtXLC8GzkMBQRMlyxvxyTnd5b73im&c=en-US&ur=in&da=n&logo=n&fmt=png&od=1&shading=hill&pp=29.525351,75.45871;dfp"
  },
  {
    "name": "Dr. Karan Mehta",
    "address": "Behind New Bus Stand...Model Town. Fatehabad, Fatehabad, Haryana",
    "phone": "Dr. Karan Mehta",
    "hours": "Opens in 13 mins",
    "image_url": "/th?id=OLC.joKUY7kLvIkYqA480x360&w=92&h=112&c=8&rs=1&qlt=80&cdv=1&pid=Local"
  },
  {
    "name": "Dr. Priyal Taneja",
    "address": "Balaji Physiotherapy Hospital, DSP Rd, opp. Bunty Printing Press, Bhima Basti, Fatehabad, Haryana 125050",
    "phone": "Dr. Priyal Taneja",
    "hours": "Open路 Closes 20:00",
    "image_url": null
  },
  {
    "name": "Dr Asha Memorial Munjal Multispecialty Hospital",
    "address": "Near Union Bank, GT Road, Fatehabad, Haryana 125050",
    "phone": "Dr Asha Memorial Munjal Multispecialty Hospital",
    "hours": null,
    "image_url": "https://www.bing.com/maps/geoplat/REST/v1/Imagery/Map/RoadVibrant?ms=92,112&key=AnTcaqBi2ypp0xI-OZNi4W_ik2KhjgpqioTAtXLC8GzkMBQRMlyxvxyTnd5b73im&c=en-US&ur=in&da=n&logo=n&fmt=png&od=1&shading=hill&pp=29.508289,75.455299;dfp"
  },
  {
    "name": "Shri Ram Medical Hall",
    "address": "M\\S Shri Ram Medical Hall, Main Bus Stand, Samain, Fatehabad, Haryana 125120",
    "phone": "Shri Ram Medical Hall",
    "hours": null,
    "image_url": "https://www.bing.com/maps/geoplat/REST/v1/Imagery/Map/RoadVibrant?ms=92,112&key=AnTcaqBi2ypp0xI-OZNi4W_ik2KhjgpqioTAtXLC8GzkMBQRMlyxvxyTnd5b73im&c=en-US&ur=in&da=n&logo=n&fmt=png&od=1&shading=hill&pp=29.514048,75.452576;dfp"
  },
  {
    "name": "Tuteja Medical Hall",
    "address": "Thakur Basti Road, Fatehbad, Fatehabad, Haryana 125050",
    "phone": "Tuteja Medical Hall",
    "hours": null,
    "image_url": null
  },
  {
    "name": "Dr.Bajaj's Dental Care & Implant Centre",
    "address": "30-P, R.C.C Area, Model Town, Behind Bus Stand, Fatehabad, Haryana 125050",
    "phone": "Dr.Bajaj's Dental Care & Implant Centre",
    "hours": "Open路 Closes 14:00",
    "image_url": null
  },
  {
    "name": "Dr Paramjeet Bishnoi Farm House",
    "address": "Farm House, 3rd Km Stone Bhuna to. Ratia Road, Bhuna, Bahuna, Haryana",
    "phone": "Dr Paramjeet Bishnoi Farm House",
    "hours": null,
    "image_url": null
  },
  {
    "name": "Umesh Ultrasound and Imazing Center",
    "address": "Near Civil Hospital, Fatehabad, Haryana, Haryana 125050",
    "phone": "Umesh Ultrasound and Imazing Center",
    "hours": null,
    "image_url": null
  },
  {
    "name": "Shri Ram Dental Hospital",
    "address": "50/1, NH Bhighar Chowk, Hisar Road, Fatehabad, Haryana 125050",
    "phone": "Shri Ram Dental Hospital",
    "hours": "Open路 Closes 19:30",
    "image_url": null
  },
  {
    "name": "Jerath Path Labs & Allergy Testing Centre",
    "address": "Shri Bala JI LAB Kabir, Dharamshala Rd, Near Civil Hospital, Old Fatehabad, Fatehabad, Haryana",
    "phone": "Jerath Path Labs & Allergy Testing Centre",
    "hours": null,
    "image_url": null
  },
  {
    "name": "Satyam Ultrasound Centre",
    "address": "Model Town Fatehabad, Satyam Ultrasound, Model Town, Fatehabad, Haryana 125050",
    "phone": "Satyam Ultrasound Centre",
    "hours": null,
    "image_url": "https://www.bing.com/maps/geoplat/REST/v1/Imagery/Map/RoadVibrant?ms=92,112&key=AnTcaqBi2ypp0xI-OZNi4W_ik2KhjgpqioTAtXLC8GzkMBQRMlyxvxyTnd5b73im&c=en-US&ur=in&da=n&logo=n&fmt=png&od=1&shading=hill&pp=29.516533,75.449059;dfp"
  },
  {
    "name": "Shri Bala Ji Pathology Lab",
    "address": "Civil Hospital Road, Fatehabad, Haryana 125050",
    "phone": "Shri Bala Ji Pathology Lab",
    "hours": null,
    "image_url": null
  },
  {
    "name": "Mahadev Diagnostic Centre",
    "address": "3, Near Chauhan Children Hospital, Fatehabad, Model Town, Fatehabad, Haryana 125050",
    "phone": "Mahadev Diagnostic Centre",
    "hours": null,
    "image_url": "https://www.bing.com/maps/geoplat/REST/v1/Imagery/Map/RoadVibrant?ms=92,112&key=AnTcaqBi2ypp0xI-OZNi4W_ik2KhjgpqioTAtXLC8GzkMBQRMlyxvxyTnd5b73im&c=en-US&ur=in&da=n&logo=n&fmt=png&od=1&shading=hill&pp=29.512699,75.451103;dfp"
  }
]