[
  {
    "name": "Dr. Gaurav Agarwal",
    "address": "S N Road, Near Bajrang Dharmkanta, Nai Basti, Firozabad, Uttar Pradesh 283203",
    "phone": "Dr. Gaurav Agarwal",
    "hours": "Open· Closes 18:00",
    "image_url": "/th?id=OLC.E%2bIfuOT2q3XGpQ480x360&w=92&h=134&c=8&rs=1&qlt=80&cdv=1&pid=Local"
  },
  {
    "name": "Dr Ashok Sharma",
    "address": "S N M Hospital, Nh2, Labour Colony, Firozabad, Uttar Pradesh 283203",
    "phone": "Dr Ashok Sharma",
    "hours": null,
    "image_url": "/th?id=OLC.JW4WPvYOP6384A480x360&w=92&h=112&c=8&rs=1&qlt=80&cdv=1&pid=Local"
  },
  {
    "name": "Dr Ram Kumar Gupta Clinic",
    "address": "Shiv Temple, Jaleshar Road, Labour Colony, Firozabad, Uttar Pradesh 283203",
    "phone": "Dr Ram Kumar Gupta Clinic",
    "hours": null,
    "image_url": "https://www.bing.com/maps/geoplat/REST/v1/Imagery/Map/RoadVibrant?ms=92,112&key=AnTcaqBi2ypp0xI-OZNi4W_ik2KhjgpqioTAtXLC8GzkMBQRMlyxvxyTnd5b73im&c=en-US&ur=in&da=n&logo=n&fmt=png&od=1&shading=hill&pp=27.157572,78.390442;dfp"
  },
  {
    "name": "Dr R L Saraswat Clinic",
    "address": "Nisha Hair Cutting, Nh 2, Labour Colony, Firozabad, Uttar Pradesh 283203",
    "phone": "Dr R L Saraswat Clinic",
    "hours": null,
    "image_url": "https://www.bing.com/maps/geoplat/REST/v1/Imagery/Map/RoadVibrant?ms=92,112&key=AnTcaqBi2ypp0xI-OZNi4W_ik2KhjgpqioTAtXLC8GzkMBQRMlyxvxyTnd5b73im&c=en-US&ur=in&da=n&logo=n&fmt=png&od=1&shading=hill&pp=27.15715,78.389297;dfp"
  },
  {
    "name": "Dr. Manoj Chaturvedi",
    "address": "Company Bagh Chauraha, Firozabad, Uttar Pradesh 283203",
    "phone": "Dr. Manoj Chaturvedi",
    "hours": null,
    "image_url": "https://www.bing.com/maps/geoplat/REST/v1/Imagery/Map/RoadVibrant?ms=92,112&key=AnTcaqBi2ypp0xI-OZNi4W_ik2KhjgpqioTAtXLC8GzkMBQRMlyxvxyTnd5b73im&c=en-US&ur=in&da=n&logo=n&fmt=png&od=1&shading=hill&pp=27.155432,78.391777;dfp"
  },
  {
    "name": "Dr. A.k. Bhatnagar Clinic",
    "address": "Shop No. 22, Bypass Road, nh-2, Firozabad, Uttar Pradesh 283203",
    "phone": "Dr. A.k. Bhatnagar Clinic",
    "hours": null,
    "image_url": "https://www.bing.com/maps/geoplat/REST/v1/Imagery/Map/RoadVibrant?ms=92,112&key=AnTcaqBi2ypp0xI-OZNi4W_ik2KhjgpqioTAtXLC8GzkMBQRMlyxvxyTnd5b73im&c=en-US&ur=in&da=n&logo=n&fmt=png&od=1&shading=hill&pp=27.157242,78.389824;dfp"
  },
  {
    "name": "Dr Harshvardhan Khurana MBBS",
    "address": "Shri Radha Raman Ji Maharaj Temple, Nh2, Labour Colony, Firozabad, Uttar Pradesh 283203",
    "phone": "Dr Harshvardhan Khurana MBBS",
    "hours": null,
    "image_url": null
  },
  {
    "name": "Dr. Ram Niwas Gupta Clinic",
    "address": "593p+qg4, Karbala Rd, Opposite Budh Bihar, Telephone Colony",
    "phone": "Dr. Ram Niwas Gupta Clinic",
    "hours": null,
    "image_url": "https://www.bing.com/maps/geoplat/REST/v1/Imagery/Map/RoadVibrant?ms=92,112&key=AnTcaqBi2ypp0xI-OZNi4W_ik2KhjgpqioTAtXLC8GzkMBQRMlyxvxyTnd5b73im&c=en-US&ur=in&da=n&logo=n&fmt=png&od=1&shading=hill&pp=27.154337,78.38636;dfp"
  },
  {
    "name": "Dr Navneet Jain Clinic",
    "address": "District Hospital, Sadar Bazaar Road, Ghalib Nagar Arya Nagar, Firozabad, Uttar Pradesh 283203",
    "phone": "Dr Navneet Jain Clinic",
    "hours": null,
    "image_url": "https://www.bing.com/maps/geoplat/REST/v1/Imagery/Map/RoadVibrant?ms=92,112&key=AnTcaqBi2ypp0xI-OZNi4W_ik2KhjgpqioTAtXLC8GzkMBQRMlyxvxyTnd5b73im&c=en-US&ur=in&da=n&logo=n&fmt=png&od=1&shading=hill&pp=27.156122,78.390427;dfp"
  },
  {
    "name": "Rahul Clinic, Dr Khushhal Yadav",
    "address": "Karbala Ki Pulia, Firozabad, Uttar Pradesh 283203",
    "phone": "Rahul Clinic, Dr Khushhal Yadav",
    "hours": null,
    "image_url": "https://www.bing.com/maps/geoplat/REST/v1/Imagery/Map/RoadVibrant?ms=92,112&key=AnTcaqBi2ypp0xI-OZNi4W_ik2KhjgpqioTAtXLC8GzkMBQRMlyxvxyTnd5b73im&c=en-US&ur=in&da=n&logo=n&fmt=png&od=1&shading=hill&pp=27.152,78.388916;dfp"
  },
  {
    "name": "Dr Sanjeev Jain Clinic",
    "address": "Icici Bank Vardhaman, Nh2, Labour Colony, Firozabad, Uttar Pradesh 283203",
    "phone": "Dr Sanjeev Jain Clinic",
    "hours": null,
    "image_url": "https://www.bing.com/maps/geoplat/REST/v1/Imagery/Map/RoadVibrant?ms=92,112&key=AnTcaqBi2ypp0xI-OZNi4W_ik2KhjgpqioTAtXLC8GzkMBQRMlyxvxyTnd5b73im&c=en-US&ur=in&da=n&logo=n&fmt=png&od=1&shading=hill&pp=27.153463,78.393021;dfp"
  },
  {
    "name": "Dr Pannalal Latdhari Clinic",
    "address": "Gurudwara Road, Labour Colony, Firozabad, Uttar Pradesh 283203",
    "phone": "Dr Pannalal Latdhari Clinic",
    "hours": null,
    "image_url": "https://www.bing.com/maps/geoplat/REST/v1/Imagery/Map/RoadVibrant?ms=92,112&key=AnTcaqBi2ypp0xI-OZNi4W_ik2KhjgpqioTAtXLC8GzkMBQRMlyxvxyTnd5b73im&c=en-US&ur=in&da=n&logo=n&fmt=png&od=1&shading=hill&pp=27.154564,78.387177;dfp"
  },
  {
    "name": "Dr Abhishek Chauhan Clinic",
    "address": "Union Bank, Nh2, Labour Colony, Firozabad, Uttar Pradesh 283203",
    "phone": "Dr Abhishek Chauhan Clinic",
    "hours": null,
    "image_url": "https://www.bing.com/maps/geoplat/REST/v1/Imagery/Map/RoadVibrant?ms=92,112&key=AnTcaqBi2ypp0xI-OZNi4W_ik2KhjgpqioTAtXLC8GzkMBQRMlyxvxyTnd5b73im&c=en-US&ur=in&da=n&logo=n&fmt=png&od=1&shading=hill&pp=27.153612,78.392921;dfp"
  },
  {
    "name": "Dr. S.p Gupta",
    "address": "Mohdkotla Rajaba Katra Suranan Road Yadav Market Arya Nagar, Firozabad, Uttar Pradesh 283203",
    "phone": "Dr. S.p Gupta",
    "hours": null,
    "image_url": "https://www.bing.com/maps/geoplat/REST/v1/Imagery/Map/RoadVibrant?ms=92,112&key=AnTcaqBi2ypp0xI-OZNi4W_ik2KhjgpqioTAtXLC8GzkMBQRMlyxvxyTnd5b73im&c=en-US&ur=in&da=n&logo=n&fmt=png&od=1&shading=hill&pp=27.149546,78.393387;dfp"
  },
  {
    "name": "Dr Vivek Jain Clinic",
    "address": "Chandra Collection, Nh2, Labour Colony, Firozabad, Uttar Pradesh 283203",
    "phone": "Dr Vivek Jain Clinic",
    "hours": null,
    "image_url": "https://www.bing.com/maps/geoplat/REST/v1/Imagery/Map/RoadVibrant?ms=92,112&key=AnTcaqBi2ypp0xI-OZNi4W_ik2KhjgpqioTAtXLC8GzkMBQRMlyxvxyTnd5b73im&c=en-US&ur=in&da=n&logo=n&fmt=png&od=1&shading=hill&pp=27.160498,78.383537;dfp"
  },
  {
    "name": "Dr ANURAG GUPTA",
    "address": "108 Bypass Road, Firozabad, Uttar Pradesh 283203",
    "phone": "Dr ANURAG GUPTA",
    "hours": "Open· Closes 14:00",
    "image_url": "https://www.bing.com/maps/geoplat/REST/v1/Imagery/Map/RoadVibrant?ms=92,134&key=AnTcaqBi2ypp0xI-OZNi4W_ik2KhjgpqioTAtXLC8GzkMBQRMlyxvxyTnd5b73im&c=en-US&ur=in&da=n&logo=n&fmt=png&od=1&shading=hill&pp=27.157867,78.40461;dfp"
  },
  {
    "name": "Dr Dinesh Chandra Gupta Clinic",
    "address": "South Kotwali, Nh 2, Labour Colony, Firozabad, Uttar Pradesh 283203",
    "phone": "Dr Dinesh Chandra Gupta Clinic",
    "hours": null,
    "image_url": "https://www.bing.com/maps/geoplat/REST/v1/Imagery/Map/RoadVibrant?ms=92,112&key=AnTcaqBi2ypp0xI-OZNi4W_ik2KhjgpqioTAtXLC8GzkMBQRMlyxvxyTnd5b73im&c=en-US&ur=in&da=n&logo=n&fmt=png&od=1&shading=hill&pp=27.147375,78.397293;dfp"
  },
  {
    "name": "Dr. Avinash Agor",
    "address": "Bypass Road Nagar Palika Market, Arya Nagar, Firozabad, Uttar Pradesh",
    "phone": "Dr. Avinash Agor",
    "hours": null,
    "image_url": "https://www.bing.com/maps/geoplat/REST/v1/Imagery/Map/RoadVibrant?ms=92,112&key=AnTcaqBi2ypp0xI-OZNi4W_ik2KhjgpqioTAtXLC8GzkMBQRMlyxvxyTnd5b73im&c=en-US&ur=in&da=n&logo=n&fmt=png&od=1&shading=hill&pp=27.178942,78.394394;dfp"
  }
]