[
  {
    "name": "Dr P Duryodhana Clinic",
    "address": "Church Street, Sompeta, Andhra Pradesh 532284",
    "phone": "Dr P Duryodhana Clinic",
    "hours": null,
    "image_url": "https://www.bing.com/maps/geoplat/REST/v1/Imagery/Map/RoadVibrant?ms=92,112&key=AnTcaqBi2ypp0xI-OZNi4W_ik2KhjgpqioTAtXLC8GzkMBQRMlyxvxyTnd5b73im&c=en-US&ur=in&da=n&logo=n&fmt=png&od=1&shading=hill&pp=18.946527,84.585342;dfp"
  },
  {
    "name": "Dr. Murali Mohan Voona- Paediatrics",
    "address": "Dasaradha Polyclinic & Hospital, Kt Road, Tharlakota Road, Srikakulam, Shivaji Nagar, Kasibugga, Andhra P…",
    "phone": "Dr. Murali Mohan Voona- Paediatrics",
    "hours": "Open· Closes 21:00",
    "image_url": "https://www.bing.com/maps/geoplat/REST/v1/Imagery/Map/RoadVibrant?ms=92,134&key=AnTcaqBi2ypp0xI-OZNi4W_ik2KhjgpqioTAtXLC8GzkMBQRMlyxvxyTnd5b73im&c=en-US&ur=in&da=n&logo=n&fmt=png&od=1&shading=hill&pp=18.766621,84.416115;dfp"
  },
  {
    "name": "Lasya Priya Clinic",
    "address": "K.T Road, Kashibugga, Palasa Kasibugga, Andhra Pradesh 532222",
    "phone": "Lasya Priya Clinic",
    "hours": null,
    "image_url": "https://www.bing.com/maps/geoplat/REST/v1/Imagery/Map/RoadVibrant?ms=92,112&key=AnTcaqBi2ypp0xI-OZNi4W_ik2KhjgpqioTAtXLC8GzkMBQRMlyxvxyTnd5b73im&c=en-US&ur=in&da=n&logo=n&fmt=png&od=1&shading=hill&pp=18.764017,84.419373;dfp"
  },
  {
    "name": "Srinivasa Healthcare, Poly Clinic & Diagnostics",
    "address": "Sivajogi Pet, Brahmanatarla, Andhra Pradesh 532220, India, Andhra Pradesh 532220",
    "phone": "Srinivasa Healthcare, Poly Clinic & Diagnostics",
    "hours": null,
    "image_url": "https://www.bing.com/maps/geoplat/REST/v1/Imagery/Map/RoadVibrant?ms=92,112&key=AnTcaqBi2ypp0xI-OZNi4W_ik2KhjgpqioTAtXLC8GzkMBQRMlyxvxyTnd5b73im&c=en-US&ur=in&da=n&logo=n&fmt=png&od=1&shading=hill&pp=15.845886,80.384834;dfp"
  },
  {
    "name": "Apollo Dialysis Clinic, Haripuram",
    "address": "Community Health Center, Haripuram, Govt Hospital, Srikakulam District, Andhra Pradesh 532213",
    "phone": "Apollo Dialysis Clinic, Haripuram",
    "hours": "Closed· Opens tomorrow 06:00",
    "image_url": "https://www.bing.com/maps/geoplat/REST/v1/Imagery/Map/RoadVibrant?ms=92,134&key=AnTcaqBi2ypp0xI-OZNi4W_ik2KhjgpqioTAtXLC8GzkMBQRMlyxvxyTnd5b73im&c=en-US&ur=in&da=n&logo=n&fmt=png&od=1&shading=hill&pp=18.745569,84.08474;dfp"
  },
  {
    "name": "Haritam Ayurveda Hospital",
    "address": "51/12-12-4 Opposite to Current Office, Behind Union Bank, Near New Bus Stand, Tilak Nagar, Kurnool, And…",
    "phone": "Haritam Ayurveda Hospital",
    "hours": null,
    "image_url": "https://www.bing.com/maps/geoplat/REST/v1/Imagery/Map/RoadVibrant?ms=92,112&key=AnTcaqBi2ypp0xI-OZNi4W_ik2KhjgpqioTAtXLC8GzkMBQRMlyxvxyTnd5b73im&c=en-US&ur=in&da=n&logo=n&fmt=png&od=1&shading=hill&pp=18.760893,84.418098;dfp"
  },
  {
    "name": "Dr BK Pandit Clinic",
    "address": "Big Bazar Road, Brahmapur, Odisha 742101",
    "phone": "Dr BK Pandit Clinic",
    "hours": null,
    "image_url": null
  },
  {
    "name": "Dr S Padmaja Clinic",
    "address": "Gopinath Pandit, Gandhi Nagar, Berhampur, Brahmapur, Odisha 760002",
    "phone": "Dr S Padmaja Clinic",
    "hours": null,
    "image_url": "https://www.bing.com/maps/geoplat/REST/v1/Imagery/Map/RoadVibrant?ms=92,112&key=AnTcaqBi2ypp0xI-OZNi4W_ik2KhjgpqioTAtXLC8GzkMBQRMlyxvxyTnd5b73im&c=en-US&ur=in&da=n&logo=n&fmt=png&od=1&shading=hill&pp=19.309519,84.781609;dfp"
  },
  {
    "name": "Dr. Vijayakumar Children's Hospital",
    "address": "Qc6g+rxm, Akkupalli Rd, Kasibugga, Andhra Pradesh 532222, India, Andhra Pradesh 532222",
    "phone": "Dr. Vijayakumar Children's Hospital",
    "hours": null,
    "image_url": "https://www.bing.com/maps/geoplat/REST/v1/Imagery/Map/RoadVibrant?ms=92,112&key=AnTcaqBi2ypp0xI-OZNi4W_ik2KhjgpqioTAtXLC8GzkMBQRMlyxvxyTnd5b73im&c=en-US&ur=in&da=n&logo=n&fmt=png&od=1&shading=hill&pp=18.762638,84.42762;dfp"
  },
  {
    "name": "Raju Clinic",
    "address": "Khaspa Street, Brahmapur, Odisha 760002",
    "phone": "Raju Clinic",
    "hours": null,
    "image_url": "https://www.bing.com/maps/geoplat/REST/v1/Imagery/Map/RoadVibrant?ms=92,112&key=AnTcaqBi2ypp0xI-OZNi4W_ik2KhjgpqioTAtXLC8GzkMBQRMlyxvxyTnd5b73im&c=en-US&ur=in&da=n&logo=n&fmt=png&od=1&shading=hill&pp=19.315388,84.776375;dfp"
  },
  {
    "name": "Dr. Pranati Mishra- Gynaecologist In Berhampur",
    "address": "Mishra Clinic, Doctor`s Lane, 1St Lane, Aurobindo Nagar, Near Kali Mandir, Berhampur 760001",
    "phone": "Dr. Pranati Mishra- Gynaecologist In Berhampur",
    "hours": "Closed· Opens 17:00",
    "image_url": "https://www.bing.com/maps/geoplat/REST/v1/Imagery/Map/RoadVibrant?ms=92,134&key=AnTcaqBi2ypp0xI-OZNi4W_ik2KhjgpqioTAtXLC8GzkMBQRMlyxvxyTnd5b73im&c=en-US&ur=in&da=n&logo=n&fmt=png&od=1&shading=hill&pp=19.312719,84.798691;dfp"
  },
  {
    "name": "Janardhan homoeo clinic",
    "address": "Janaki Nivas Pakalavari Street, Brahmapur, Odisha 760002",
    "phone": "Janardhan homoeo clinic",
    "hours": "Open· Closes 13:00",
    "image_url": "https://www.bing.com/maps/geoplat/REST/v1/Imagery/Map/RoadVibrant?ms=92,134&key=AnTcaqBi2ypp0xI-OZNi4W_ik2KhjgpqioTAtXLC8GzkMBQRMlyxvxyTnd5b73im&c=en-US&ur=in&da=n&logo=n&fmt=png&od=1&shading=hill&pp=19.31509,84.779823;dfp"
  },
  {
    "name": "Bharat Clinic",
    "address": "Goilundi Rd, Near Radha Soami Nursing Home, Bhaba Nagar, Brahmapur, Odisha 760004",
    "phone": "Bharat Clinic",
    "hours": null,
    "image_url": "https://www.bing.com/maps/geoplat/REST/v1/Imagery/Map/RoadVibrant?ms=92,112&key=AnTcaqBi2ypp0xI-OZNi4W_ik2KhjgpqioTAtXLC8GzkMBQRMlyxvxyTnd5b73im&c=en-US&ur=in&da=n&logo=n&fmt=png&od=1&shading=hill&pp=19.307552,84.807579;clcp"
  },
  {
    "name": "Government Ayush Dispensary Marathiguda",
    "address": "Banasadhara Kasibugga Road, गुनुपुर, Odisha 765022",
    "phone": "Government Ayush Dispensary Marathiguda",
    "hours": null,
    "image_url": "https://www.bing.com/maps/geoplat/REST/v1/Imagery/Map/RoadVibrant?ms=92,112&key=AnTcaqBi2ypp0xI-OZNi4W_ik2KhjgpqioTAtXLC8GzkMBQRMlyxvxyTnd5b73im&c=en-US&ur=in&da=n&logo=n&fmt=png&od=1&shading=hill&pp=19.066401,83.818398;dfp"
  },
  {
    "name": "Dr Vikas Gupta Ayurvedic Treatment And Panchkarma Research Centre",
    "address": "Bikram Chowk, Tawi - Jammu, Jammu and Kashmir 180001",
    "phone": "Dr Vikas Gupta Ayurvedic Treatment And Panchkarma Research Centre",
    "hours": "Open· Closes 20:00",
    "image_url": null
  },
  {
    "name": "SaiRamPathology Clinic",
    "address": "in Front of Bhupati Hotel, Baidiya Nath Pur, Brahmapur, Odisha",
    "phone": "SaiRamPathology Clinic",
    "hours": null,
    "image_url": "https://www.bing.com/maps/geoplat/REST/v1/Imagery/Map/RoadVibrant?ms=92,112&key=AnTcaqBi2ypp0xI-OZNi4W_ik2KhjgpqioTAtXLC8GzkMBQRMlyxvxyTnd5b73im&c=en-US&ur=in&da=n&logo=n&fmt=png&od=1&shading=hill&pp=19.315231,84.774612;dfp"
  },
  {
    "name": "Dr. Aditya Das",
    "address": "Old Post Office Street, Orissa",
    "phone": "Dr. Aditya Das",
    "hours": "Closed· Opens Wed 10:00",
    "image_url": "https://www.bing.com/maps/geoplat/REST/v1/Imagery/Map/RoadVibrant?ms=92,112&key=AnTcaqBi2ypp0xI-OZNi4W_ik2KhjgpqioTAtXLC8GzkMBQRMlyxvxyTnd5b73im&c=en-US&ur=in&da=n&logo=n&fmt=png&od=1&shading=hill&pp=19.357355,84.985893;dfp"
  },
  {
    "name": "Dr. Telli Venkata Pradeep Kumar- General Physician",
    "address": "Telli Venkata Pradeep Kumar's Clinic, Ars Clinic, Dni Railway Junction, Srikakulam, Andhra Pradesh 532001",
    "phone": "Dr. Telli Venkata Pradeep Kumar- General Physician",
    "hours": "Open· Closes 12:00",
    "image_url": "https://www.bing.com/maps/geoplat/REST/v1/Imagery/Map/RoadVibrant?ms=92,134&key=AnTcaqBi2ypp0xI-OZNi4W_ik2KhjgpqioTAtXLC8GzkMBQRMlyxvxyTnd5b73im&c=en-US&ur=in&da=n&logo=n&fmt=png&od=1&shading=hill&pp=18.289038,83.905457;dfp"
  }
]