[
  {
    "name": "Dr. Patanjali Keshri- General Physician",
    "address": "R P Medical Center, Main Bazaar, Garhwa, Jharkhand 822114",
    "phone": "Dr. Patanjali Keshri- General Physician",
    "hours": "Open· Closes 15:00",
    "image_url": "https://www.bing.com/maps/geoplat/REST/v1/Imagery/Map/RoadVibrant?ms=92,134&key=AnTcaqBi2ypp0xI-OZNi4W_ik2KhjgpqioTAtXLC8GzkMBQRMlyxvxyTnd5b73im&c=en-US&ur=in&da=n&logo=n&fmt=png&od=1&shading=hill&pp=24.165434,83.810631;dfp"
  },
  {
    "name": "Dr. Kuldeo Chaudhary | General Physician | CHAUDHARY GENERAL HOSPITAL",
    "address": "Chaudhary General Hospital, Garhwa, Jharkhand, India, 822114, Garhwa, Madhya Pradesh 822114",
    "phone": "Dr. Kuldeo Chaudhary | General Physician | CHAUDHARY GENERAL HOSPITAL",
    "hours": "Open· Closes 21:00",
    "image_url": "/th?id=OLC.92f89d1%2bx2cV2g480x360&w=92&h=134&c=8&rs=1&qlt=80&cdv=1&pid=Local"
  },
  {
    "name": "Primary Health Center",
    "address": "Garhwa Manjhion, Garhwa, Jharkhand - 822114, Garhwa 822114",
    "phone": "Primary Health Center",
    "hours": null,
    "image_url": "https://www.bing.com/maps/geoplat/REST/v1/Imagery/Map/RoadVibrant?ms=92,112&key=AnTcaqBi2ypp0xI-OZNi4W_ik2KhjgpqioTAtXLC8GzkMBQRMlyxvxyTnd5b73im&c=en-US&ur=in&da=n&logo=n&fmt=png&od=1&shading=hill&pp=24.160803,83.807541;dfp"
  },
  {
    "name": "Dr Arun Kumar",
    "address": "Nh39, Garhwa District Court, Garhwa, Jharkhand 822114",
    "phone": "Dr Arun Kumar",
    "hours": null,
    "image_url": "https://www.bing.com/maps/geoplat/REST/v1/Imagery/Map/RoadVibrant?ms=92,112&key=AnTcaqBi2ypp0xI-OZNi4W_ik2KhjgpqioTAtXLC8GzkMBQRMlyxvxyTnd5b73im&c=en-US&ur=in&da=n&logo=n&fmt=png&od=1&shading=hill&pp=24.158939,83.800278;dfp"
  },
  {
    "name": "Sharda Health Clinic",
    "address": "66, NH 75 Near Laljinath Pathak Advocate, Sahijana, Garhwa, Jharkhand 822114",
    "phone": "Sharda Health Clinic",
    "hours": null,
    "image_url": "https://www.bing.com/maps/geoplat/REST/v1/Imagery/Map/RoadVibrant?ms=92,112&key=AnTcaqBi2ypp0xI-OZNi4W_ik2KhjgpqioTAtXLC8GzkMBQRMlyxvxyTnd5b73im&c=en-US&ur=in&da=n&logo=n&fmt=png&od=1&shading=hill&pp=24.160854,83.811249;dfp"
  },
  {
    "name": "Tauba Clinic",
    "address": "Garhwa Road, Near H P Public School, Pachpadwa, Garhwa, Jharkhand 822114",
    "phone": "Tauba Clinic",
    "hours": null,
    "image_url": "https://www.bing.com/maps/geoplat/REST/v1/Imagery/Map/RoadVibrant?ms=92,112&key=AnTcaqBi2ypp0xI-OZNi4W_ik2KhjgpqioTAtXLC8GzkMBQRMlyxvxyTnd5b73im&c=en-US&ur=in&da=n&logo=n&fmt=png&od=1&shading=hill&pp=24.121433,83.823601;dfp"
  },
  {
    "name": "Sure Cure Homoeopathic Clinic",
    "address": "Sonapurwa Chauk, NH75, Garhwa, Jharkhand",
    "phone": "Sure Cure Homoeopathic Clinic",
    "hours": null,
    "image_url": "https://www.bing.com/maps/geoplat/REST/v1/Imagery/Map/RoadVibrant?ms=92,112&key=AnTcaqBi2ypp0xI-OZNi4W_ik2KhjgpqioTAtXLC8GzkMBQRMlyxvxyTnd5b73im&c=en-US&ur=in&da=n&logo=n&fmt=png&od=1&shading=hill&pp=24.165098,83.809898;dfp"
  },
  {
    "name": "Yashoda Clinic",
    "address": "Tarhe, Manjhiaon, Garhwa, Jharkhand 822114",
    "phone": "Yashoda Clinic",
    "hours": null,
    "image_url": "https://www.bing.com/maps/geoplat/REST/v1/Imagery/Map/RoadVibrant?ms=92,112&key=AnTcaqBi2ypp0xI-OZNi4W_ik2KhjgpqioTAtXLC8GzkMBQRMlyxvxyTnd5b73im&c=en-US&ur=in&da=n&logo=n&fmt=png&od=1&shading=hill&pp=24.151329,83.795502;dfp"
  },
  {
    "name": "Ahmad Dental Clinic Dr wasim akhtar",
    "address": "822114, Garhwa, Jharkhand 822114",
    "phone": "Ahmad Dental Clinic Dr wasim akhtar",
    "hours": "Open· Closes 19:00",
    "image_url": null
  },
  {
    "name": "Eskag Sanjeevani Dialysis Center GARHWA at SADAR HOSPITAL GARHWA",
    "address": "Nearby Town Hall, Bishunpur, Garhwa, Jharkhand",
    "phone": "Eskag Sanjeevani Dialysis Center GARHWA at SADAR HOSPITAL GARHWA",
    "hours": null,
    "image_url": "https://www.bing.com/maps/geoplat/REST/v1/Imagery/Map/RoadVibrant?ms=92,112&key=AnTcaqBi2ypp0xI-OZNi4W_ik2KhjgpqioTAtXLC8GzkMBQRMlyxvxyTnd5b73im&c=en-US&ur=in&da=n&logo=n&fmt=png&od=1&shading=hill&pp=24.15609,83.764214;dfp"
  },
  {
    "name": "Praphool Dawakhana",
    "address": "Praphool Clinic, Kutchehry Road Garhwa, Near Blo, Garhwa, Jharkhand 822114",
    "phone": "Praphool Dawakhana",
    "hours": null,
    "image_url": "https://www.bing.com/maps/geoplat/REST/v1/Imagery/Map/RoadVibrant?ms=92,112&key=AnTcaqBi2ypp0xI-OZNi4W_ik2KhjgpqioTAtXLC8GzkMBQRMlyxvxyTnd5b73im&c=en-US&ur=in&da=n&logo=n&fmt=png&od=1&shading=hill&pp=24.158163,83.803406;dfp"
  },
  {
    "name": "Dr. Uday Narain Baranwal- Dentist",
    "address": "Uday Narain Baranwal's Clinic, At- Garhwa Station, Near Main Road, Garhwa, Jharkhand 822114",
    "phone": "Dr. Uday Narain Baranwal- Dentist",
    "hours": "Open· Closes 12:00",
    "image_url": "https://www.bing.com/maps/geoplat/REST/v1/Imagery/Map/RoadVibrant?ms=92,134&key=AnTcaqBi2ypp0xI-OZNi4W_ik2KhjgpqioTAtXLC8GzkMBQRMlyxvxyTnd5b73im&c=en-US&ur=in&da=n&logo=n&fmt=png&od=1&shading=hill&pp=24.175583,83.811226;dfp"
  },
  {
    "name": "Dr Lal PathLabs",
    "address": "Main Road, Beside Petrol Pump, Eriquee Mohalla, Garhwa, Jharkhand",
    "phone": "Dr Lal PathLabs",
    "hours": "Open· Closes 20:00",
    "image_url": "https://www.bing.com/maps/geoplat/REST/v1/Imagery/Map/RoadVibrant?ms=92,134&key=AnTcaqBi2ypp0xI-OZNi4W_ik2KhjgpqioTAtXLC8GzkMBQRMlyxvxyTnd5b73im&c=en-US&ur=in&da=n&logo=n&fmt=png&od=1&shading=hill&pp=24.158449,83.816513;dfp"
  },
  {
    "name": "Maa Bhagwati Clinic",
    "address": "Dipuwa, Ward NO 09, Kachhari Road, Garhwa, Jharkhand 822114",
    "phone": "Maa Bhagwati Clinic",
    "hours": null,
    "image_url": "https://www.bing.com/maps/geoplat/REST/v1/Imagery/Map/RoadVibrant?ms=92,112&key=AnTcaqBi2ypp0xI-OZNi4W_ik2KhjgpqioTAtXLC8GzkMBQRMlyxvxyTnd5b73im&c=en-US&ur=in&da=n&logo=n&fmt=png&od=1&shading=hill&pp=24.038876,84.068115;dfp"
  },
  {
    "name": "Nirmala Pathology",
    "address": "Nh39, Garhwa District Court, Garhwa, Jharkhand 822114",
    "phone": "Nirmala Pathology",
    "hours": null,
    "image_url": "https://www.bing.com/maps/geoplat/REST/v1/Imagery/Map/RoadVibrant?ms=92,112&key=AnTcaqBi2ypp0xI-OZNi4W_ik2KhjgpqioTAtXLC8GzkMBQRMlyxvxyTnd5b73im&c=en-US&ur=in&da=n&logo=n&fmt=png&od=1&shading=hill&pp=24.157698,83.793571;dfp"
  }
]