[
  {
    "name": "Gautam Clinic",
    "address": "H.No 211, Vill Kasana, Post Kasana, Dadri, Kasana, Greater Noida, Gautam Budh Nagar, Uttar Pradesh 201…",
    "phone": "Gautam Clinic",
    "hours": null,
    "image_url": "https://www.bing.com/maps/geoplat/REST/v1/Imagery/Map/RoadVibrant?ms=92,112&key=AnTcaqBi2ypp0xI-OZNi4W_ik2KhjgpqioTAtXLC8GzkMBQRMlyxvxyTnd5b73im&c=en-US&ur=in&da=n&logo=n&fmt=png&od=1&shading=hill&pp=28.450739,77.555656;dfp"
  },
  {
    "name": "Dr Amrit Goel",
    "address": "D-101 Gnepip Amit Goel Noida D 0 Greater Noida, Gautam Budh Nagar, Uttar Pradesh 201310",
    "phone": "Dr Amrit Goel",
    "hours": "Open· Closes 14:00",
    "image_url": "/th?id=OLC.OYcF1360yYQt6A480x360&w=92&h=134&c=8&rs=1&qlt=80&cdv=1&pid=Local"
  },
  {
    "name": "Dr. Manju Singh",
    "address": "I-10, Alpha-2 Nd Greater Noida, Pin, Gautam Buddha Nagar, Uttar Pradesh 201308",
    "phone": "Dr. Manju Singh",
    "hours": "Open· Closes 13:30",
    "image_url": "/th?id=OLC.wRY3yerSzK2AjQ480x360&w=92&h=134&c=8&rs=1&qlt=80&cdv=1&pid=Local"
  },
  {
    "name": "Dr Samta Gupta",
    "address": "ATS Greens Paradiso, Sector Chi 1, Chi IV, Greater Noida, Uttar Pradesh",
    "phone": "Dr Samta Gupta",
    "hours": null,
    "image_url": "https://www.bing.com/maps/geoplat/REST/v1/Imagery/Map/RoadVibrant?ms=92,112&key=AnTcaqBi2ypp0xI-OZNi4W_ik2KhjgpqioTAtXLC8GzkMBQRMlyxvxyTnd5b73im&c=en-US&ur=in&da=n&logo=n&fmt=png&od=1&shading=hill&pp=28.431019,77.517303;dfp"
  },
  {
    "name": "Atmavan Clinic",
    "address": "Shop.NO.K-3, 1ST Floor, Galaxy Plaza, Gaur City -1, Greater Noida",
    "phone": "Atmavan Clinic",
    "hours": null,
    "image_url": "https://www.bing.com/maps/geoplat/REST/v1/Imagery/Map/RoadVibrant?ms=92,112&key=AnTcaqBi2ypp0xI-OZNi4W_ik2KhjgpqioTAtXLC8GzkMBQRMlyxvxyTnd5b73im&c=en-US&ur=in&da=n&logo=n&fmt=png&od=1&shading=hill&pp=28.46414,77.507866;dfp"
  },
  {
    "name": "Dr. Simple Mohan Manari",
    "address": "Main Road, Greater Noida, Uttar Pradesh",
    "phone": "Dr. Simple Mohan Manari",
    "hours": "Opens in 8 mins",
    "image_url": "https://www.bing.com/maps/geoplat/REST/v1/Imagery/Map/RoadVibrant?ms=92,112&key=AnTcaqBi2ypp0xI-OZNi4W_ik2KhjgpqioTAtXLC8GzkMBQRMlyxvxyTnd5b73im&c=en-US&ur=in&da=n&logo=n&fmt=png&od=1&shading=hill&pp=28.436831,77.542801;dfp"
  },
  {
    "name": "Dr Rakhi Gupta, Obstetrics and Gynaecology, Fortis Greater Noida",
    "address": "Block D, Industrial Area, Surajpur Site 4, Greater Noida, Uttar Pradesh –, 201310, Surajpur Site 4, Greater Noid…",
    "phone": "Dr Rakhi Gupta, Obstetrics and Gynaecology, Fortis Greater Noida",
    "hours": "Open· Closes 13:00",
    "image_url": "https://www.bing.com/maps/geoplat/REST/v1/Imagery/Map/RoadVibrant?ms=92,134&key=AnTcaqBi2ypp0xI-OZNi4W_ik2KhjgpqioTAtXLC8GzkMBQRMlyxvxyTnd5b73im&c=en-US&ur=in&da=n&logo=n&fmt=png&od=1&shading=hill&pp=28.449774,77.530594;dfp"
  },
  {
    "name": "Bangali Clinic",
    "address": "Kasna Village Road, Kasna Village, Greater Noida, Uttar Pradesh 201310",
    "phone": "Bangali Clinic",
    "hours": null,
    "image_url": "https://www.bing.com/maps/geoplat/REST/v1/Imagery/Map/RoadVibrant?ms=92,112&key=AnTcaqBi2ypp0xI-OZNi4W_ik2KhjgpqioTAtXLC8GzkMBQRMlyxvxyTnd5b73im&c=en-US&ur=in&da=n&logo=n&fmt=png&od=1&shading=hill&pp=28.436716,77.538139;dfp"
  },
  {
    "name": "Dr Manju Whig Singh - Mammography and 3D 4D Ultrasound Center",
    "address": "I – 10, Gate Number 8, Block I, Sector Alpha II, Greater Noida, Uttar Pradesh",
    "phone": "Dr Manju Whig Singh - Mammography and 3D 4D Ultrasound Center",
    "hours": null,
    "image_url": null
  },
  {
    "name": "Dr. Ujjwal Jain - Homeopathic clinic Noida",
    "address": "Gaur Atulyam, Shop no. G-25, Ground Floor, Sector, Omicron I, Greater Noida, Uttar Pradesh",
    "phone": "Dr. Ujjwal Jain - Homeopathic clinic Noida",
    "hours": null,
    "image_url": "https://www.bing.com/maps/geoplat/REST/v1/Imagery/Map/RoadVibrant?ms=92,112&key=AnTcaqBi2ypp0xI-OZNi4W_ik2KhjgpqioTAtXLC8GzkMBQRMlyxvxyTnd5b73im&c=en-US&ur=in&da=n&logo=n&fmt=png&od=1&shading=hill&pp=28.464184,77.55658;dfp"
  },
  {
    "name": "Seema Fracture Clinic and Xray Centre",
    "address": "Pyawali, Mitali Market, Ntpc, Gautam Buddh Nagar, Gautam Budh Nagar, Uttar Pradesh 201304",
    "phone": "Seema Fracture Clinic and Xray Centre",
    "hours": null,
    "image_url": "https://www.bing.com/maps/geoplat/REST/v1/Imagery/Map/RoadVibrant?ms=92,112&key=AnTcaqBi2ypp0xI-OZNi4W_ik2KhjgpqioTAtXLC8GzkMBQRMlyxvxyTnd5b73im&c=en-US&ur=in&da=n&logo=n&fmt=png&od=1&shading=hill&pp=28.445047,77.464745;dfp"
  },
  {
    "name": "Dr G R Raghav",
    "address": "C-27, Sector, Omicron 1A, Greater Noida, Uttar Pradesh",
    "phone": "Dr G R Raghav",
    "hours": null,
    "image_url": "https://www.bing.com/maps/geoplat/REST/v1/Imagery/Map/RoadVibrant?ms=92,112&key=AnTcaqBi2ypp0xI-OZNi4W_ik2KhjgpqioTAtXLC8GzkMBQRMlyxvxyTnd5b73im&c=en-US&ur=in&da=n&logo=n&fmt=png&od=1&shading=hill&pp=28.469893,77.563782;dfp"
  },
  {
    "name": "Dhanvantri Chikitsalaya",
    "address": "D\\198, Eta \\1, Block \\D, Greator Noida, Gautam Budh Nagar, Uttar Pradesh 201310",
    "phone": "Dhanvantri Chikitsalaya",
    "hours": null,
    "image_url": "https://www.bing.com/maps/geoplat/REST/v1/Imagery/Map/RoadVibrant?ms=92,112&key=AnTcaqBi2ypp0xI-OZNi4W_ik2KhjgpqioTAtXLC8GzkMBQRMlyxvxyTnd5b73im&c=en-US&ur=in&da=n&logo=n&fmt=png&od=1&shading=hill&pp=28.467781,77.560951;dfp"
  },
  {
    "name": "Dr. Khursheed Azami",
    "address": "Main Road Kasna Gate, Dadri, Uttar Pradesh 203202",
    "phone": "Dr. Khursheed Azami",
    "hours": null,
    "image_url": "https://www.bing.com/maps/geoplat/REST/v1/Imagery/Map/RoadVibrant?ms=92,112&key=AnTcaqBi2ypp0xI-OZNi4W_ik2KhjgpqioTAtXLC8GzkMBQRMlyxvxyTnd5b73im&c=en-US&ur=in&da=n&logo=n&fmt=png&od=1&shading=hill&pp=28.441965,77.602318;dfp"
  },
  {
    "name": "Dr. (Col) Gopal Dutt Sharma, General Physician",
    "address": "Promhex Hospital, NH34, Sector P2, Omega 1, Greater Noida, Uttar Pradesh",
    "phone": "Dr. (Col) Gopal Dutt Sharma, General Physician",
    "hours": null,
    "image_url": "https://www.bing.com/maps/geoplat/REST/v1/Imagery/Map/RoadVibrant?ms=92,112&key=AnTcaqBi2ypp0xI-OZNi4W_ik2KhjgpqioTAtXLC8GzkMBQRMlyxvxyTnd5b73im&c=en-US&ur=in&da=n&logo=n&fmt=png&od=1&shading=hill&pp=28.455482,77.517349;dfp"
  },
  {
    "name": "Dr. Ashesh Bhushan",
    "address": "A/303, Black Gold Apartments, Omega 1, Greater Noida, Uttar Pradesh, Uttar Pradesh 201310",
    "phone": "Dr. Ashesh Bhushan",
    "hours": "Open· Closes 12:00",
    "image_url": "https://www.bing.com/maps/geoplat/REST/v1/Imagery/Map/RoadVibrant?ms=92,134&key=AnTcaqBi2ypp0xI-OZNi4W_ik2KhjgpqioTAtXLC8GzkMBQRMlyxvxyTnd5b73im&c=en-US&ur=in&da=n&logo=n&fmt=png&od=1&shading=hill&pp=28.452589,77.512672;dfp"
  },
  {
    "name": "Dr. Sumeet Bhargava",
    "address": "Plot No-NH-29, P3, Greater Noida, Uttar Pradesh",
    "phone": "Dr. Sumeet Bhargava",
    "hours": "Open· Closes 20:00",
    "image_url": null
  },
  {
    "name": "Dr. Amit Gupta",
    "address": "G-849, Gamma-II, Greater Noida, Uttar Pradesh",
    "phone": "Dr. Amit Gupta",
    "hours": "Opens in 13 mins",
    "image_url": null
  }
]