[
  {
    "name": "Dr. Shashi Kant",
    "address": "Abhilasha, Near Hanuman Mandir (Bargad Tree), Gaya - Bodhgaya Road, Gewalbigha, Gaya, Bihar 823001",
    "phone": "Dr. Shashi Kant",
    "hours": "Closed· Opens tomorrow 08:00",
    "image_url": "https://www.bing.com/maps/geoplat/REST/v1/Imagery/Map/RoadVibrant?ms=92,134&key=AnTcaqBi2ypp0xI-OZNi4W_ik2KhjgpqioTAtXLC8GzkMBQRMlyxvxyTnd5b73im&c=en-US&ur=in&da=n&logo=n&fmt=png&od=1&shading=hill&pp=24.791342,84.971512;dfp"
  },
  {
    "name": "Dr. Rachit Saxena - Best Adult & Child Cardiac, & Open Heart Bypass Surgeon, CABG in Gaya | NH",
    "address": "International Airport, Gaya-Dobhi Road Gaya, Hario, Bihar",
    "phone": "Dr. Rachit Saxena - Best Adult & Child Cardiac, & Open Heart Bypass Surgeon, CABG in Gaya | NH",
    "hours": null,
    "image_url": "https://www.bing.com/maps/geoplat/REST/v1/Imagery/Map/RoadVibrant?ms=92,112&key=AnTcaqBi2ypp0xI-OZNi4W_ik2KhjgpqioTAtXLC8GzkMBQRMlyxvxyTnd5b73im&c=en-US&ur=in&da=n&logo=n&fmt=png&od=1&shading=hill&pp=24.760292,84.968452;dfp"
  },
  {
    "name": "Dr Kamlesh Kamal Clinic",
    "address": "Main Road, Khushnoo Bhawan, Bodh Gaya, Bihar 824231",
    "phone": "Dr Kamlesh Kamal Clinic",
    "hours": null,
    "image_url": "/th?id=OLC.Snuuqa0YLL7fEQ480x360&w=92&h=112&c=8&rs=1&qlt=80&cdv=1&pid=Local"
  },
  {
    "name": "Dr Sujata Clinic",
    "address": "Bodhgaya Road, Bodhgaya Gaya, Gaya, Bodh Gaya, Bihar 824231",
    "phone": "Dr Sujata Clinic",
    "hours": null,
    "image_url": "https://www.bing.com/maps/geoplat/REST/v1/Imagery/Map/RoadVibrant?ms=92,112&key=AnTcaqBi2ypp0xI-OZNi4W_ik2KhjgpqioTAtXLC8GzkMBQRMlyxvxyTnd5b73im&c=en-US&ur=in&da=n&logo=n&fmt=png&od=1&shading=hill&pp=24.692654,84.993675;dfp"
  },
  {
    "name": "Dr. Dinesh Singh",
    "address": "Gurudawara Road, Gaya, Bihar, Bihar 823002",
    "phone": "Dr. Dinesh Singh",
    "hours": "Closed· Opens 16:00",
    "image_url": "https://www.bing.com/maps/geoplat/REST/v1/Imagery/Map/RoadVibrant?ms=92,134&key=AnTcaqBi2ypp0xI-OZNi4W_ik2KhjgpqioTAtXLC8GzkMBQRMlyxvxyTnd5b73im&c=en-US&ur=in&da=n&logo=n&fmt=png&od=1&shading=hill&pp=24.801985,85.001038;dfp"
  },
  {
    "name": "Dr Deepshikha Kavya",
    "address": "Tilha, Kalibari, OPP Rukhaiyar Palace, Gaya, Bihar",
    "phone": "Dr Deepshikha Kavya",
    "hours": null,
    "image_url": "/th?id=OLC.hxM9AMKrmKWaNA480x360&w=92&h=112&c=8&rs=1&qlt=80&cdv=1&pid=Local"
  },
  {
    "name": "Dr. Nagendra Singh- General Physician",
    "address": "Dr. Nagendra Singh's Clinic, Kori Wadi, Nadra Ganj Road, Gaya, Bihar 823001",
    "phone": "Dr. Nagendra Singh- General Physician",
    "hours": "Open· Closes 13:00",
    "image_url": "https://www.bing.com/maps/geoplat/REST/v1/Imagery/Map/RoadVibrant?ms=92,134&key=AnTcaqBi2ypp0xI-OZNi4W_ik2KhjgpqioTAtXLC8GzkMBQRMlyxvxyTnd5b73im&c=en-US&ur=in&da=n&logo=n&fmt=png&od=1&shading=hill&pp=24.786381,84.954369;dfp"
  },
  {
    "name": "Dr A N Teterway Clinic",
    "address": "Birla Road, Bodh Gaya, Bihar 824231",
    "phone": "Dr A N Teterway Clinic",
    "hours": null,
    "image_url": "https://www.bing.com/maps/geoplat/REST/v1/Imagery/Map/RoadVibrant?ms=92,112&key=AnTcaqBi2ypp0xI-OZNi4W_ik2KhjgpqioTAtXLC8GzkMBQRMlyxvxyTnd5b73im&c=en-US&ur=in&da=n&logo=n&fmt=png&od=1&shading=hill&pp=24.696518,84.989761;dfp"
  },
  {
    "name": "Dr. Suresh Agarwal- General Physician",
    "address": "Suresh Agarwal Clinic, Dr. Murarpur, Gaya Bhadani Medical Complex, B B Road, Gaya, Bihar 823001",
    "phone": "Dr. Suresh Agarwal- General Physician",
    "hours": "Closed· Opens 11:00",
    "image_url": "https://www.bing.com/maps/geoplat/REST/v1/Imagery/Map/RoadVibrant?ms=92,134&key=AnTcaqBi2ypp0xI-OZNi4W_ik2KhjgpqioTAtXLC8GzkMBQRMlyxvxyTnd5b73im&c=en-US&ur=in&da=n&logo=n&fmt=png&od=1&shading=hill&pp=24.800642,85.006844;dfp"
  },
  {
    "name": "Shuddhi Clinic",
    "address": "Shivam Shubham Niwash, Beside Amit Medical, AP Colony, Near Gaya College, Gaya, Bihar 823001",
    "phone": "Shuddhi Clinic",
    "hours": "Open· Closes 18:00",
    "image_url": null
  },
  {
    "name": "New Bageshwari Polly clinic & Research Centre",
    "address": "Gautam Buddha Rd, Near Anandi Mayi Temple, Murarpur, Gaya, Bihar",
    "phone": "New Bageshwari Polly clinic & Research Centre",
    "hours": null,
    "image_url": null
  },
  {
    "name": "Shuddhi Clinic By Guru Manish Ji - Best Ayurveda Doctor & Ayurvedic Treatment",
    "address": "Shivam Shubham Niwash, Beside Amit Medical, Near Gaya College, A P Colony, Gaya, Bihar",
    "phone": "Shuddhi Clinic By Guru Manish Ji - Best Ayurveda Doctor & Ayurvedic Treatment",
    "hours": null,
    "image_url": "https://www.bing.com/maps/geoplat/REST/v1/Imagery/Map/RoadVibrant?ms=92,112&key=AnTcaqBi2ypp0xI-OZNi4W_ik2KhjgpqioTAtXLC8GzkMBQRMlyxvxyTnd5b73im&c=en-US&ur=in&da=n&logo=n&fmt=png&od=1&shading=hill&pp=24.785954,85.006134;dfp"
  },
  {
    "name": "Dr Batra's Homeopathy",
    "address": "Ground Flr, Balajee Gharana Cplx, Asha Singh Mod, AP Colony, Gaya Sadar, Bihar 823001",
    "phone": "Dr Batra's Homeopathy",
    "hours": "Closed· Opens 11:00",
    "image_url": null
  },
  {
    "name": "Ms Haque Clinic | Best Sexologist Clinic - Ayurvedic & Unani Treatment",
    "address": "Chowk, 132, KP Rd, Gaya, Bihar",
    "phone": "Ms Haque Clinic | Best Sexologist Clinic - Ayurvedic & Unani Treatment",
    "hours": null,
    "image_url": null
  },
  {
    "name": "Apna Health - Shree Chitkamal Ayurvedic and Panchakarma clinic | Best Ayurvedic Doctor",
    "address": "Katari Hill Rd, Nagar, Nigam Galli, Near Suddha Diary, opp. Big Bazaar, Gaya, Bihar",
    "phone": "Apna Health - Shree Chitkamal Ayurvedic and Panchakarma clinic | Best Ayurvedic Doctor",
    "hours": null,
    "image_url": "https://www.bing.com/maps/geoplat/REST/v1/Imagery/Map/RoadVibrant?ms=92,112&key=AnTcaqBi2ypp0xI-OZNi4W_ik2KhjgpqioTAtXLC8GzkMBQRMlyxvxyTnd5b73im&c=en-US&ur=in&da=n&logo=n&fmt=png&od=1&shading=hill&pp=24.787918,84.98497;dfp"
  },
  {
    "name": "Dr. Vidya Jyoti",
    "address": "Gola Bazaar, Gaya, Bihar",
    "phone": "Dr. Vidya Jyoti",
    "hours": "Closed· Opens 18:00",
    "image_url": "https://www.bing.com/maps/geoplat/REST/v1/Imagery/Map/RoadVibrant?ms=92,112&key=AnTcaqBi2ypp0xI-OZNi4W_ik2KhjgpqioTAtXLC8GzkMBQRMlyxvxyTnd5b73im&c=en-US&ur=in&da=n&logo=n&fmt=png&od=1&shading=hill&pp=24.563454,84.793983;dfp"
  },
  {
    "name": "Dr. Fahad Siddiquee",
    "address": "Swarajpuri Road. Near Fire Brigade, Gaya",
    "phone": "Dr. Fahad Siddiquee",
    "hours": "Closed· Opens 14:00",
    "image_url": "https://www.bing.com/maps/geoplat/REST/v1/Imagery/Map/RoadVibrant?ms=92,112&key=AnTcaqBi2ypp0xI-OZNi4W_ik2KhjgpqioTAtXLC8GzkMBQRMlyxvxyTnd5b73im&c=en-US&ur=in&da=n&logo=n&fmt=png&od=1&shading=hill&pp=24.797112,85.000549;dfp"
  },
  {
    "name": "Dr. Arya Priyadarshani | Best Dentist  Bihar, Orthodontist",
    "address": "Kumar Multispeciality Hospital, Opposite DM Residence, Judges Colony, Gaya, Bihar",
    "phone": "Dr. Arya Priyadarshani | Best Dentist  Bihar, Orthodontist",
    "hours": null,
    "image_url": "https://www.bing.com/maps/geoplat/REST/v1/Imagery/Map/RoadVibrant?ms=92,112&key=AnTcaqBi2ypp0xI-OZNi4W_ik2KhjgpqioTAtXLC8GzkMBQRMlyxvxyTnd5b73im&c=en-US&ur=in&da=n&logo=n&fmt=png&od=1&shading=hill&pp=24.695869,84.979683;dfp"
  }
]