[
  {
    "name": "Dr. Manish Pandey",
    "address": "Rauza Mohan Lal Ka Pokhra Ghazipur, Ghazipur, Uttar Pradesh, Uttar Pradesh 233001",
    "phone": "Dr. Manish Pandey",
    "hours": null,
    "image_url": "https://www.bing.com/maps/geoplat/REST/v1/Imagery/Map/RoadVibrant?ms=92,112&key=AnTcaqBi2ypp0xI-OZNi4W_ik2KhjgpqioTAtXLC8GzkMBQRMlyxvxyTnd5b73im&c=en-US&ur=in&da=n&logo=n&fmt=png&od=1&shading=hill&pp=25.5868,83.575768;dfp"
  },
  {
    "name": "Dr. P.K. Kushwaha",
    "address": "Kacheri, Ghazipur, Uttar Pradesh",
    "phone": "Dr. P.K. Kushwaha",
    "hours": null,
    "image_url": "/th?id=OLC.tzmbX4wwEULLxg480x360&w=92&h=112&c=8&rs=1&qlt=80&cdv=1&pid=Local"
  },
  {
    "name": "Dr. Satya Prakash Kushwaha General Physician in Ballia",
    "address": "Girija Bhawan, Near Maheshwari Cold Storage, Madhopur, Ballia, Uttar Pradesh 277001",
    "phone": "Dr. Satya Prakash Kushwaha General Physician in Ballia",
    "hours": "Open· Closes 14:00",
    "image_url": "https://www.bing.com/maps/geoplat/REST/v1/Imagery/Map/RoadVibrant?ms=92,134&key=AnTcaqBi2ypp0xI-OZNi4W_ik2KhjgpqioTAtXLC8GzkMBQRMlyxvxyTnd5b73im&c=en-US&ur=in&da=n&logo=n&fmt=png&od=1&shading=hill&pp=25.590981,83.573639;dfp"
  },
  {
    "name": "Dr L C Yadav",
    "address": "Vikapur, Badrichand k Pokhrha, Beside Shiva Marriage Hall, Ghazipur, Uttar Pradesh",
    "phone": "Dr L C Yadav",
    "hours": null,
    "image_url": "https://www.bing.com/maps/geoplat/REST/v1/Imagery/Map/RoadVibrant?ms=92,112&key=AnTcaqBi2ypp0xI-OZNi4W_ik2KhjgpqioTAtXLC8GzkMBQRMlyxvxyTnd5b73im&c=en-US&ur=in&da=n&logo=n&fmt=png&od=1&shading=hill&pp=25.583448,83.567619;dfp"
  },
  {
    "name": "Dr R N Sharma Clinic",
    "address": "Government Bus Stop Road, Ayushman Alankar Mandir, Lanka, Ghazipur, Uttar Pradesh 233001",
    "phone": "Dr R N Sharma Clinic",
    "hours": null,
    "image_url": "/th?id=OLC.dTk1sjEF1OogyA480x360&w=92&h=112&c=8&rs=1&qlt=80&cdv=1&pid=Local"
  },
  {
    "name": "Dr K Rai Clinic",
    "address": "Bypass Road, Ayushman Alankar Mandir, Lanka, Ghazipur, Uttar Pradesh 233001",
    "phone": "Dr K Rai Clinic",
    "hours": null,
    "image_url": "https://www.bing.com/maps/geoplat/REST/v1/Imagery/Map/RoadVibrant?ms=92,112&key=AnTcaqBi2ypp0xI-OZNi4W_ik2KhjgpqioTAtXLC8GzkMBQRMlyxvxyTnd5b73im&c=en-US&ur=in&da=n&logo=n&fmt=png&od=1&shading=hill&pp=25.582441,83.5653;dfp"
  },
  {
    "name": "Dr. Archana Clinic",
    "address": "Rauza Rd, Rauza, Ghazipur, Uttar Pradesh 233001, India, Ghazipur, Uttar Pradesh 233001",
    "phone": "Dr. Archana Clinic",
    "hours": null,
    "image_url": null
  },
  {
    "name": "Dr m pandey",
    "address": "Prabhudev Nagar, Near Aarogyam Chikitsalaya, Ghazipur, Uttar Pradesh",
    "phone": "Dr m pandey",
    "hours": null,
    "image_url": "https://www.bing.com/maps/geoplat/REST/v1/Imagery/Map/RoadVibrant?ms=92,112&key=AnTcaqBi2ypp0xI-OZNi4W_ik2KhjgpqioTAtXLC8GzkMBQRMlyxvxyTnd5b73im&c=en-US&ur=in&da=n&logo=n&fmt=png&od=1&shading=hill&pp=25.586136,83.573952;dfp"
  },
  {
    "name": "Nehru Clinic",
    "address": "Ghazipur Road Ghazipur, Ghazipur, Uttar Pradesh 233001",
    "phone": "Nehru Clinic",
    "hours": null,
    "image_url": "https://www.bing.com/maps/geoplat/REST/v1/Imagery/Map/RoadVibrant?ms=92,112&key=AnTcaqBi2ypp0xI-OZNi4W_ik2KhjgpqioTAtXLC8GzkMBQRMlyxvxyTnd5b73im&c=en-US&ur=in&da=n&logo=n&fmt=png&od=1&shading=hill&pp=25.587,83.577766;dfp"
  },
  {
    "name": "Dr. A.K.Yadav",
    "address": "Varanasi - Gorakhpur Hwy, Kopaganj, Uttar Pradesh",
    "phone": "Dr. A.K.Yadav",
    "hours": null,
    "image_url": "https://www.bing.com/maps/geoplat/REST/v1/Imagery/Map/RoadVibrant?ms=92,112&key=AnTcaqBi2ypp0xI-OZNi4W_ik2KhjgpqioTAtXLC8GzkMBQRMlyxvxyTnd5b73im&c=en-US&ur=in&da=n&logo=n&fmt=png&od=1&shading=hill&pp=25.580044,83.571922;dfp"
  },
  {
    "name": "Dr.sb Gautam, skin Specialist ( Dermatologist And Sexologist)",
    "address": "Nh 27, Khalilabad, Uttar Pradesh 272175",
    "phone": "Dr.sb Gautam, skin Specialist ( Dermatologist And Sexologist)",
    "hours": null,
    "image_url": null
  },
  {
    "name": "Dr. S L Verma | SLV Heart & Chest Clinic",
    "address": "178, Ghazipur Ho Shastri Nagar Indrapuri Colonynear Urban Bank, Ghazipur, Madhya Pradesh 233001",
    "phone": "Dr. S L Verma | SLV Heart & Chest Clinic",
    "hours": "Open· Closes 12:00",
    "image_url": null
  },
  {
    "name": "Dr Lal PathLabs",
    "address": "NH 31, Near Kundi PUL, Line Bazar, Purnea, Uttar Pradesh",
    "phone": "Dr Lal PathLabs",
    "hours": null,
    "image_url": "https://www.bing.com/maps/geoplat/REST/v1/Imagery/Map/RoadVibrant?ms=92,112&key=AnTcaqBi2ypp0xI-OZNi4W_ik2KhjgpqioTAtXLC8GzkMBQRMlyxvxyTnd5b73im&c=en-US&ur=in&da=n&logo=n&fmt=png&od=1&shading=hill&pp=25.586088,83.577972;dfp"
  },
  {
    "name": "Piyush Homeopathic Clinic",
    "address": "Siddheshwar Nagar, Ghazipur, Uttar Pradesh",
    "phone": "Piyush Homeopathic Clinic",
    "hours": null,
    "image_url": "https://www.bing.com/maps/geoplat/REST/v1/Imagery/Map/RoadVibrant?ms=92,112&key=AnTcaqBi2ypp0xI-OZNi4W_ik2KhjgpqioTAtXLC8GzkMBQRMlyxvxyTnd5b73im&c=en-US&ur=in&da=n&logo=n&fmt=png&od=1&shading=hill&pp=25.587194,83.576157;dfp"
  },
  {
    "name": "ENSURE HOMOEOPATHY: Dr Manoj Chauhan & Dr Shalini Chauhan",
    "address": "Machli Mandi, Mau, Uttar Pradesh 275101",
    "phone": "ENSURE HOMOEOPATHY: Dr Manoj Chauhan & Dr Shalini Chauhan",
    "hours": "Open· Closes 19:00",
    "image_url": null
  },
  {
    "name": "Dr. Samiran Biswas | Shifa Clinic",
    "address": "Macharhatta, Near Prakash Takies, Ghazipur, Uttar Pradesh, India, 233001, Ghazipur, Madhya Pradesh 23…",
    "phone": "Dr. Samiran Biswas | Shifa Clinic",
    "hours": "Open· Closes 13:00",
    "image_url": null
  },
  {
    "name": "Dr. Pramod Verma (pt)",
    "address": "House Number 8, Aam Ghaat, Gandhi Park, Ghazipur, Uttar Pradesh",
    "phone": "Dr. Pramod Verma (pt)",
    "hours": "Open· Closes 20:00",
    "image_url": "https://www.bing.com/maps/geoplat/REST/v1/Imagery/Map/RoadVibrant?ms=92,112&key=AnTcaqBi2ypp0xI-OZNi4W_ik2KhjgpqioTAtXLC8GzkMBQRMlyxvxyTnd5b73im&c=en-US&ur=in&da=n&logo=n&fmt=png&od=1&shading=hill&pp=25.585127,83.580421;dfp"
  },
  {
    "name": "Jerath Path Labs & Allergy Testing Centre",
    "address": "DEV Diagnostic Centre, Nh- 28 Fliover, P.N.B. Bank Lari Petrol Pump, Uttar Pradesh",
    "phone": "Jerath Path Labs & Allergy Testing Centre",
    "hours": null,
    "image_url": null
  }
]