[
  {
    "name": "Dr. Ashutosh Mishra",
    "address": "Gonda Balrampur Tulasipur Koyala Wasa Marg, Avas Vikas Colony, Gonda, Uttar Pradesh",
    "phone": "Dr. Ashutosh Mishra",
    "hours": "Closed· Opens Sep 29 at 09:00",
    "image_url": "/th?id=OLC.FrT0XpOUOV0r7Q480x360&w=92&h=112&c=8&rs=1&qlt=80&cdv=1&pid=Local"
  },
  {
    "name": "Dr. Shoaib iqbal khan | General Physician | Dr Shoaib iqbal khan",
    "address": "Dr Shoaib Iqbal Khan, Station Road, Gonda, Uttar Pradesh, India, 271001, Gonda, Madhya Pradesh 271001",
    "phone": "Dr. Shoaib iqbal khan | General Physician | Dr Shoaib iqbal khan",
    "hours": "Open· Closes 18:00",
    "image_url": "https://www.bing.com/maps/geoplat/REST/v1/Imagery/Map/RoadVibrant?ms=92,134&key=AnTcaqBi2ypp0xI-OZNi4W_ik2KhjgpqioTAtXLC8GzkMBQRMlyxvxyTnd5b73im&c=en-US&ur=in&da=n&logo=n&fmt=png&od=1&shading=hill&pp=27.140306,81.96756;dfp"
  },
  {
    "name": "Dr. Gunjan Bhatnagar- Obstetrician and Gynecologist",
    "address": "Jeevan Deep Chikitsalay, P/18 Circular Road Gonda, Gonda, Uttar Pradesh 271001",
    "phone": "Dr. Gunjan Bhatnagar- Obstetrician and Gynecologist",
    "hours": "Open· Closes 18:00",
    "image_url": "https://www.bing.com/maps/geoplat/REST/v1/Imagery/Map/RoadVibrant?ms=92,134&key=AnTcaqBi2ypp0xI-OZNi4W_ik2KhjgpqioTAtXLC8GzkMBQRMlyxvxyTnd5b73im&c=en-US&ur=in&da=n&logo=n&fmt=png&od=1&shading=hill&pp=27.139362,81.971153;dfp"
  },
  {
    "name": "Agarwal clinic",
    "address": "Agarwal Medicine Company, Gonda, Uttar Pradesh 271002",
    "phone": "Agarwal clinic",
    "hours": null,
    "image_url": "/th?id=OLC.ASxRKZ8wLzCp5A480x360&w=92&h=112&c=8&rs=1&qlt=80&cdv=1&pid=Local"
  },
  {
    "name": "Dr. N N Tewari Orthopaedic Surgeon",
    "address": "Opposite Fatima College Circular Road, Gonda, Uttar Pradesh 271001",
    "phone": "Dr. N N Tewari Orthopaedic Surgeon",
    "hours": "Open· Closes 16:00",
    "image_url": "https://www.bing.com/maps/geoplat/REST/v1/Imagery/Map/RoadVibrant?ms=92,134&key=AnTcaqBi2ypp0xI-OZNi4W_ik2KhjgpqioTAtXLC8GzkMBQRMlyxvxyTnd5b73im&c=en-US&ur=in&da=n&logo=n&fmt=png&od=1&shading=hill&pp=27.138319,81.980751;dfp"
  },
  {
    "name": "Dr DK Clinic",
    "address": "Umar Begumganj Road, Shri Shiv Temple, Jhanjhari Block, Gonda, Uttar Pradesh 271003",
    "phone": "Dr DK Clinic",
    "hours": null,
    "image_url": "https://www.bing.com/maps/geoplat/REST/v1/Imagery/Map/RoadVibrant?ms=92,112&key=AnTcaqBi2ypp0xI-OZNi4W_ik2KhjgpqioTAtXLC8GzkMBQRMlyxvxyTnd5b73im&c=en-US&ur=in&da=n&logo=n&fmt=png&od=1&shading=hill&pp=27.127411,81.966522;dfp"
  },
  {
    "name": "Dr Sanjay Clinic",
    "address": "Station Road, Bada Gaon Patel Nagar, Gonda, Uttar Pradesh 271001",
    "phone": "Dr Sanjay Clinic",
    "hours": null,
    "image_url": null
  },
  {
    "name": "Clinic Dr.Ajeet Srivastava",
    "address": "Afim Kothi, Road, Civil Lines, Gonda, Uttar Pradesh",
    "phone": "Clinic Dr.Ajeet Srivastava",
    "hours": null,
    "image_url": "https://www.bing.com/maps/geoplat/REST/v1/Imagery/Map/RoadVibrant?ms=92,112&key=AnTcaqBi2ypp0xI-OZNi4W_ik2KhjgpqioTAtXLC8GzkMBQRMlyxvxyTnd5b73im&c=en-US&ur=in&da=n&logo=n&fmt=png&od=1&shading=hill&pp=27.131033,81.947044;dfp"
  },
  {
    "name": "Dr. Divyesh Baranwal",
    "address": "In Front of Meena Complex, Gonda, Uttar Pradesh",
    "phone": "Dr. Divyesh Baranwal",
    "hours": "Closed· Opens 14:00",
    "image_url": "https://www.bing.com/maps/geoplat/REST/v1/Imagery/Map/RoadVibrant?ms=92,112&key=AnTcaqBi2ypp0xI-OZNi4W_ik2KhjgpqioTAtXLC8GzkMBQRMlyxvxyTnd5b73im&c=en-US&ur=in&da=n&logo=n&fmt=png&od=1&shading=hill&pp=27.13344,81.963516;dfp"
  },
  {
    "name": "Dr Parvej Clinic",
    "address": "Jail Road, Ambedkar Chauraha, Keshavpur Civil Line, Gonda, Uttar Pradesh 271003",
    "phone": "Dr Parvej Clinic",
    "hours": null,
    "image_url": "https://www.bing.com/maps/geoplat/REST/v1/Imagery/Map/RoadVibrant?ms=92,112&key=AnTcaqBi2ypp0xI-OZNi4W_ik2KhjgpqioTAtXLC8GzkMBQRMlyxvxyTnd5b73im&c=en-US&ur=in&da=n&logo=n&fmt=png&od=1&shading=hill&pp=27.126333,81.94326;dfp"
  },
  {
    "name": "Mariyam clinic & Hijamah centre",
    "address": "369 Mariyam Clinic, Gonda Oudh, Uttar Pradesh",
    "phone": "Mariyam clinic & Hijamah centre",
    "hours": null,
    "image_url": null
  },
  {
    "name": "Ahmad Clinic",
    "address": "Gonda Chowk Road, Police Chowki Maharaj Gang, Subhash Nagar, Gonda, Uttar Pradesh 271003",
    "phone": "Ahmad Clinic",
    "hours": null,
    "image_url": "https://www.bing.com/maps/geoplat/REST/v1/Imagery/Map/RoadVibrant?ms=92,112&key=AnTcaqBi2ypp0xI-OZNi4W_ik2KhjgpqioTAtXLC8GzkMBQRMlyxvxyTnd5b73im&c=en-US&ur=in&da=n&logo=n&fmt=png&od=1&shading=hill&pp=27.124107,81.965652;dfp"
  },
  {
    "name": "Saloni Clinic",
    "address": "L B S Road, Khajur Wali Masjid, Mevatiyan, Gonda, Uttar Pradesh 271001",
    "phone": "Saloni Clinic",
    "hours": null,
    "image_url": "https://www.bing.com/maps/geoplat/REST/v1/Imagery/Map/RoadVibrant?ms=92,112&key=AnTcaqBi2ypp0xI-OZNi4W_ik2KhjgpqioTAtXLC8GzkMBQRMlyxvxyTnd5b73im&c=en-US&ur=in&da=n&logo=n&fmt=png&od=1&shading=hill&pp=27.123848,81.964859;dfp"
  },
  {
    "name": "Alam Clinic",
    "address": "Civil Lines, Jail Rd, Nayyar Colony, Housing Colony, Gonda, Uttar Pradesh",
    "phone": "Alam Clinic",
    "hours": null,
    "image_url": "https://www.bing.com/maps/geoplat/REST/v1/Imagery/Map/RoadVibrant?ms=92,112&key=AnTcaqBi2ypp0xI-OZNi4W_ik2KhjgpqioTAtXLC8GzkMBQRMlyxvxyTnd5b73im&c=en-US&ur=in&da=n&logo=n&fmt=png&od=1&shading=hill&pp=27.121128,81.942825;dfp"
  },
  {
    "name": "Doctor S. K. Ayurved",
    "address": "Near, Ground Floor, Chowk, Malviya Nagar, Chhattisgarh",
    "phone": "Doctor S. K. Ayurved",
    "hours": null,
    "image_url": "https://www.bing.com/maps/geoplat/REST/v1/Imagery/Map/RoadVibrant?ms=92,112&key=AnTcaqBi2ypp0xI-OZNi4W_ik2KhjgpqioTAtXLC8GzkMBQRMlyxvxyTnd5b73im&c=en-US&ur=in&da=n&logo=n&fmt=png&od=1&shading=hill&pp=27.127346,81.964142;dfp"
  },
  {
    "name": "Dr Maqsood's Homoeo Clinic",
    "address": "Shiv Talkies Station Road, Beside Aditya Medical Agency, Chedibeer, Bhadohi Nagar Palika, Uttar Pradesh",
    "phone": "Dr Maqsood's Homoeo Clinic",
    "hours": null,
    "image_url": "https://www.bing.com/maps/geoplat/REST/v1/Imagery/Map/RoadVibrant?ms=92,112&key=AnTcaqBi2ypp0xI-OZNi4W_ik2KhjgpqioTAtXLC8GzkMBQRMlyxvxyTnd5b73im&c=en-US&ur=in&da=n&logo=n&fmt=png&od=1&shading=hill&pp=27.15168,81.970772;dfp"
  },
  {
    "name": "Prabhat ayurvedic chikitsalay",
    "address": "Belsar Road, Jhanjhari Block, Gonda, Uttar Pradesh",
    "phone": "Prabhat ayurvedic chikitsalay",
    "hours": null,
    "image_url": "https://www.bing.com/maps/geoplat/REST/v1/Imagery/Map/RoadVibrant?ms=92,112&key=AnTcaqBi2ypp0xI-OZNi4W_ik2KhjgpqioTAtXLC8GzkMBQRMlyxvxyTnd5b73im&c=en-US&ur=in&da=n&logo=n&fmt=png&od=1&shading=hill&pp=27.125944,81.969093;dfp"
  },
  {
    "name": "Chandan Diagnostic Centre",
    "address": "Raja Ram Pal Singh Complex Chedi Purwa Station Road, Gonda, Uttar Pradesh",
    "phone": "Chandan Diagnostic Centre",
    "hours": null,
    "image_url": null
  }
]