[
  {
    "name": "Dr. Jitendra yede | Gayatri hospital",
    "address": "Gayatri Hospital Near Subodh Chowk Ganesh Nagar, Gondia, Madhya Pradesh 441601",
    "phone": "Dr. Jitendra yede | Gayatri hospital",
    "hours": "Open· Closes 21:00",
    "image_url": "/th?id=OLC.bNPB2JfdrjBUXg480x360&w=92&h=134&c=8&rs=1&qlt=80&cdv=1&pid=Local"
  },
  {
    "name": "Dr. Avi Vinod Jain",
    "address": "Nehru Chowk, Gondia, Maharashtra",
    "phone": "Dr. Avi Vinod Jain",
    "hours": "Closed· Opens tomorrow 09:00",
    "image_url": "/th?id=OLC.FegRAlXpyia9yQ480x360&w=92&h=112&c=8&rs=1&qlt=80&cdv=1&pid=Local"
  },
  {
    "name": "Janki Newlife Superspeciality Hospital for Brain Spine and Neurocare",
    "address": "Near Bus Stand, Balaghat Road, Opposite Railway Crossing, Marar Toli, Gondia, Maharashtra",
    "phone": "Janki Newlife Superspeciality Hospital for Brain Spine and Neurocare",
    "hours": null,
    "image_url": "/th?id=OLC.OCoPvX4TVLNcng480x360&w=92&h=112&c=8&rs=1&qlt=80&cdv=1&pid=Local"
  },
  {
    "name": "Diksha Clinic",
    "address": "Main Market Railway Station Road, Banbasa, Uttarakhand",
    "phone": "Diksha Clinic",
    "hours": null,
    "image_url": "https://www.bing.com/maps/geoplat/REST/v1/Imagery/Map/RoadVibrant?ms=92,112&key=AnTcaqBi2ypp0xI-OZNi4W_ik2KhjgpqioTAtXLC8GzkMBQRMlyxvxyTnd5b73im&c=en-US&ur=in&da=n&logo=n&fmt=png&od=1&shading=hill&pp=21.459187,80.198326;dfp"
  },
  {
    "name": "Dr Sandeep Agrawal Agrasen Hospital Gondia India",
    "address": "Agrasen Fracture Arthritis Hospital, Gondia, Maharashtra, Maharashtra 441601",
    "phone": "Dr Sandeep Agrawal Agrasen Hospital Gondia India",
    "hours": null,
    "image_url": "https://www.bing.com/maps/geoplat/REST/v1/Imagery/Map/RoadVibrant?ms=92,112&key=AnTcaqBi2ypp0xI-OZNi4W_ik2KhjgpqioTAtXLC8GzkMBQRMlyxvxyTnd5b73im&c=en-US&ur=in&da=n&logo=n&fmt=png&od=1&shading=hill&pp=21.458799,80.196213;dfp"
  },
  {
    "name": "Dr. Vinayakrao Patil Multispeciality Hospital",
    "address": "2744/2442, Udgir Nilanga Road, Deoni, Maharashtra 413519",
    "phone": "Dr. Vinayakrao Patil Multispeciality Hospital",
    "hours": null,
    "image_url": "https://www.bing.com/maps/geoplat/REST/v1/Imagery/Map/RoadVibrant?ms=92,112&key=AnTcaqBi2ypp0xI-OZNi4W_ik2KhjgpqioTAtXLC8GzkMBQRMlyxvxyTnd5b73im&c=en-US&ur=in&da=n&logo=n&fmt=png&od=1&shading=hill&pp=21.457226,80.207214;dfp"
  },
  {
    "name": "Agrasen Fracture Hospital| Gondia| Dr Sandeep Agrawal | Best Accident Bone Joint Doctor Specialist | Orthopedi…",
    "address": "Subodh Chowk, Ganesh Nagar, Gondia, Maharashtra",
    "phone": "Agrasen Fracture Hospital| Gondia| Dr Sandeep Agrawal | Best Accident Bone Joint Doctor Specialist | Orthopedi…",
    "hours": null,
    "image_url": "https://www.bing.com/maps/geoplat/REST/v1/Imagery/Map/RoadVibrant?ms=92,112&key=AnTcaqBi2ypp0xI-OZNi4W_ik2KhjgpqioTAtXLC8GzkMBQRMlyxvxyTnd5b73im&c=en-US&ur=in&da=n&logo=n&fmt=png&od=1&shading=hill&pp=21.45042,80.197029;dfp"
  },
  {
    "name": "Dr. Pradeep Gujar Hospital Sanjeewani Bal Rugnalaya",
    "address": "Civil Lines Govindpur Road Gondia, Gondia, Maharashtra 441601, India, Gondia, Maharashtra 441601",
    "phone": "Dr. Pradeep Gujar Hospital Sanjeewani Bal Rugnalaya",
    "hours": null,
    "image_url": "https://www.bing.com/maps/geoplat/REST/v1/Imagery/Map/RoadVibrant?ms=92,112&key=AnTcaqBi2ypp0xI-OZNi4W_ik2KhjgpqioTAtXLC8GzkMBQRMlyxvxyTnd5b73im&c=en-US&ur=in&da=n&logo=n&fmt=png&od=1&shading=hill&pp=21.454275,80.205162;dfp"
  },
  {
    "name": "Dr. Hemantkumar Gautam",
    "address": "Main Road Civil Line, Gondia, Maharashtra",
    "phone": "Dr. Hemantkumar Gautam",
    "hours": "Closed· Opens 18:00",
    "image_url": "https://www.bing.com/maps/geoplat/REST/v1/Imagery/Map/RoadVibrant?ms=92,112&key=AnTcaqBi2ypp0xI-OZNi4W_ik2KhjgpqioTAtXLC8GzkMBQRMlyxvxyTnd5b73im&c=en-US&ur=in&da=n&logo=n&fmt=png&od=1&shading=hill&pp=21.457478,80.203438;dfp"
  },
  {
    "name": "Dr Biranwar Hospital",
    "address": "Civil Lines Govindpur Road, Near Nutan Junior College, Gondia, Maharashtra 441614",
    "phone": "Dr Biranwar Hospital",
    "hours": null,
    "image_url": "https://www.bing.com/maps/geoplat/REST/v1/Imagery/Map/RoadVibrant?ms=92,112&key=AnTcaqBi2ypp0xI-OZNi4W_ik2KhjgpqioTAtXLC8GzkMBQRMlyxvxyTnd5b73im&c=en-US&ur=in&da=n&logo=n&fmt=png&od=1&shading=hill&pp=21.456791,80.20903;dfp"
  },
  {
    "name": "Dr. Stuti Khare Shukla",
    "address": "Shukla Nursing Home, Infront of Shiv Sai Mandir, Chitragupt Nagar, Balaghat, Madhya Pradesh",
    "phone": "Dr. Stuti Khare Shukla",
    "hours": null,
    "image_url": "https://www.bing.com/maps/geoplat/REST/v1/Imagery/Map/RoadVibrant?ms=92,112&key=AnTcaqBi2ypp0xI-OZNi4W_ik2KhjgpqioTAtXLC8GzkMBQRMlyxvxyTnd5b73im&c=en-US&ur=in&da=n&logo=n&fmt=png&od=1&shading=hill&pp=21.464846,80.185623;dfp"
  },
  {
    "name": "Hitanshi homoeo clinic",
    "address": "Chota pal Chowk, Poona Toli, Gondia, Maharashtra",
    "phone": "Hitanshi homoeo clinic",
    "hours": null,
    "image_url": "https://www.bing.com/maps/geoplat/REST/v1/Imagery/Map/RoadVibrant?ms=92,112&key=AnTcaqBi2ypp0xI-OZNi4W_ik2KhjgpqioTAtXLC8GzkMBQRMlyxvxyTnd5b73im&c=en-US&ur=in&da=n&logo=n&fmt=png&od=1&shading=hill&pp=21.466925,80.198013;dfp"
  },
  {
    "name": "Dr. Rana Hospital - Best Gyne Hospital | Best ENT Hospital",
    "address": "Sheetla Manohar Colony Road, Civil Line, Gondia, Maharashtra",
    "phone": "Dr. Rana Hospital - Best Gyne Hospital | Best ENT Hospital",
    "hours": null,
    "image_url": "https://www.bing.com/maps/geoplat/REST/v1/Imagery/Map/RoadVibrant?ms=92,112&key=AnTcaqBi2ypp0xI-OZNi4W_ik2KhjgpqioTAtXLC8GzkMBQRMlyxvxyTnd5b73im&c=en-US&ur=in&da=n&logo=n&fmt=png&od=1&shading=hill&pp=21.460587,80.196625;dfp"
  },
  {
    "name": "Dr Rasik Wagh - Shraddha Saburi Homeopathic Clinic",
    "address": "opp. SBI, Ganesh Nagar, Kalwan, Maharashtra",
    "phone": "Dr Rasik Wagh - Shraddha Saburi Homeopathic Clinic",
    "hours": null,
    "image_url": "https://www.bing.com/maps/geoplat/REST/v1/Imagery/Map/RoadVibrant?ms=92,112&key=AnTcaqBi2ypp0xI-OZNi4W_ik2KhjgpqioTAtXLC8GzkMBQRMlyxvxyTnd5b73im&c=en-US&ur=in&da=n&logo=n&fmt=png&od=1&shading=hill&pp=21.448278,80.196228;dfp"
  },
  {
    "name": "Bhagat Eye & Ent Hospital",
    "address": "Divakar Nivas Ring Road, Gondia, Maharashtra 441601",
    "phone": "Bhagat Eye & Ent Hospital",
    "hours": null,
    "image_url": null
  },
  {
    "name": "Sachin Homoeopathy Clinic",
    "address": "maa Sharda Complex, opp. al Zaika Hotel, Gondia, Maharashtra 441614",
    "phone": "Sachin Homoeopathy Clinic",
    "hours": "Open· Closes 14:00",
    "image_url": null
  }
]