[
  {
    "name": "Dr. Sohan Lal Clinic",
    "address": "Raiganj Road, Gorakhpur, Uttar Pradesh 273001",
    "phone": "Dr. Sohan Lal Clinic",
    "hours": null,
    "image_url": "/th?id=OLC.S%2bbs4klGxuQLeg480x360&w=92&h=112&c=8&rs=1&qlt=80&cdv=1&pid=Local"
  },
  {
    "name": "Dr",
    "address": "9 Near Cantt Chauraha, Gorakhpur, Uttar Pradesh 273001",
    "phone": "Dr",
    "hours": null,
    "image_url": "/th?id=OLC.cZNSxxXYWtOj7A480x360&w=92&h=112&c=8&rs=1&qlt=80&cdv=1&pid=Local"
  },
  {
    "name": "Dr. Amit Singh \"Shrinet\", Arthroscopy And Joint Replacement Surgeon India",
    "address": "Sankat Mochan Orthopaedic Clinic In Front of Dhawan Pathology, Near M.M Nursing Home, 33 Kasia Road Be…",
    "phone": "Dr. Amit Singh \"Shrinet\", Arthroscopy And Joint Replacement Surgeon India",
    "hours": null,
    "image_url": "/th?id=OLC.DvL%2fM04VkoFiTg480x360&w=92&h=112&c=8&rs=1&qlt=80&cdv=1&pid=Local"
  },
  {
    "name": "Dr ONKAR RAI",
    "address": "Hanuman Mandir Rd, Betiahata, Gorakhpur, Uttar Pradesh",
    "phone": "Dr ONKAR RAI",
    "hours": null,
    "image_url": "https://www.bing.com/maps/geoplat/REST/v1/Imagery/Map/RoadVibrant?ms=92,112&key=AnTcaqBi2ypp0xI-OZNi4W_ik2KhjgpqioTAtXLC8GzkMBQRMlyxvxyTnd5b73im&c=en-US&ur=in&da=n&logo=n&fmt=png&od=1&shading=hill&pp=26.743031,83.368828;dfp"
  },
  {
    "name": "Alinagar Poly Clinic",
    "address": "Alinagar North, Gorakhpur, Uttar Pradesh 273001",
    "phone": "Alinagar Poly Clinic",
    "hours": null,
    "image_url": "/th?id=OLC.XUWvW4Ae76RETQ480x360&w=92&h=112&c=8&rs=1&qlt=80&cdv=1&pid=Local"
  },
  {
    "name": "Tirthraji Chikitsalaya - Dr Sharad Dubey",
    "address": "Gate Number 1, Infront of Gram Panchayat, Dr Sharad Dubey, In Front of Gate No 1 Khorabar Block Hospital, …",
    "phone": "Tirthraji Chikitsalaya - Dr Sharad Dubey",
    "hours": null,
    "image_url": "https://www.bing.com/maps/geoplat/REST/v1/Imagery/Map/RoadVibrant?ms=92,112&key=AnTcaqBi2ypp0xI-OZNi4W_ik2KhjgpqioTAtXLC8GzkMBQRMlyxvxyTnd5b73im&c=en-US&ur=in&da=n&logo=n&fmt=png&od=1&shading=hill&pp=26.76417,83.383675;dfp"
  },
  {
    "name": "Dr. Yashwardhan Jaiswal (Life Care Hospital)",
    "address": "Room no.1, Dr. Yashwradhan Jaiswal, Life Car Hospital, 9 Civil Lines, Opposite Allahabad Bank, Near Cantt Ch…",
    "phone": "Dr. Yashwardhan Jaiswal (Life Care Hospital)",
    "hours": "Open 24 hours",
    "image_url": null
  },
  {
    "name": "Dr Vivek Mishra (B.H.M.S) Gorakhpur",
    "address": "Canal Road, Daudpur Chowk, Daudpur, Gorakhpur, Uttar Pradesh 273001",
    "phone": "Dr Vivek Mishra (B.H.M.S) Gorakhpur",
    "hours": null,
    "image_url": "https://www.bing.com/maps/geoplat/REST/v1/Imagery/Map/RoadVibrant?ms=92,112&key=AnTcaqBi2ypp0xI-OZNi4W_ik2KhjgpqioTAtXLC8GzkMBQRMlyxvxyTnd5b73im&c=en-US&ur=in&da=n&logo=n&fmt=png&od=1&shading=hill&pp=26.739494,83.375801;dfp"
  },
  {
    "name": "Dr Ketan Agarwal",
    "address": "St Andrew's Intercollege Colmplex, Lal Bahadur Shashtri Marg, Betia Hata, Gorakhpur, Uttar Pradesh, Uttar Prad…",
    "phone": "Dr Ketan Agarwal",
    "hours": "Open· Closes 14:00",
    "image_url": null
  },
  {
    "name": "Dr Rishabh Gupta, DM Gastro, Gastroenterologist (Annapurna Hospital, Gastro Liver and Multispeciality)",
    "address": "Civil Lines Road, Opposite Indian Bank, Near Cantt, Gorakhpur, Uttar Pradesh 273001",
    "phone": "Dr Rishabh Gupta, DM Gastro, Gastroenterologist (Annapurna Hospital, Gastro Liver and Multispeciality)",
    "hours": "Open 24 hours",
    "image_url": null
  },
  {
    "name": "Meditree Hospital (Dr Atil Kumar Lal) Orthopaedic Surgeon",
    "address": "Medical College Road, Chaturvedi Cancer Hospital Chauraha Near st. Johns Church, Basharatpur, Gorakh…",
    "phone": "Meditree Hospital (Dr Atil Kumar Lal) Orthopaedic Surgeon",
    "hours": "Open· Closes 12:00",
    "image_url": null
  },
  {
    "name": "Dr. Suchit Kumar Singh",
    "address": "Char Phatak Mohaddipur Gorakhpur, Gorakhpur, Uttar Pradesh",
    "phone": "Dr. Suchit Kumar Singh",
    "hours": "Open· Closes 14:00",
    "image_url": "https://www.bing.com/maps/geoplat/REST/v1/Imagery/Map/RoadVibrant?ms=92,112&key=AnTcaqBi2ypp0xI-OZNi4W_ik2KhjgpqioTAtXLC8GzkMBQRMlyxvxyTnd5b73im&c=en-US&ur=in&da=n&logo=n&fmt=png&od=1&shading=hill&pp=26.754658,83.399246;dfp"
  },
  {
    "name": "Dr. Deepa Agrawal",
    "address": "Ismailpur, Between Buxipur and Khoonipur Squares, Opposite Bajrang Oil Mill, Gorakhpur, Uttar Pradesh 27…",
    "phone": "Dr. Deepa Agrawal",
    "hours": "Closed· Opens 15:00",
    "image_url": "https://www.bing.com/maps/geoplat/REST/v1/Imagery/Map/RoadVibrant?ms=92,134&key=AnTcaqBi2ypp0xI-OZNi4W_ik2KhjgpqioTAtXLC8GzkMBQRMlyxvxyTnd5b73im&c=en-US&ur=in&da=n&logo=n&fmt=png&od=1&shading=hill&pp=26.753515,83.363907;dfp"
  },
  {
    "name": "Dr. Anamika Gupta",
    "address": "Smile Maternity And Child Care Center, 33, Kasya Road, Rama Tower, Opposite Chandra x-ray, Betiahata, Gora…",
    "phone": "Dr. Anamika Gupta",
    "hours": "Closed· Opens 12:00",
    "image_url": null
  },
  {
    "name": "Manovegh Clinic",
    "address": "Muglaha, Gorakhpur, Uttar Pradesh, Uttar Pradesh 273013",
    "phone": "Manovegh Clinic",
    "hours": "Open· Closes 20:00",
    "image_url": null
  },
  {
    "name": "Shuddhi Clinic Gorakhpur",
    "address": "B 25, Awas Vikas Colony, Shahpur, Gita Vatika Road, Near Mintoo Medical Store/Alam Furniture, Gorakhpur, …",
    "phone": "Shuddhi Clinic Gorakhpur",
    "hours": "Open· Closes 18:00",
    "image_url": null
  },
  {
    "name": "Dr. Lokesh's Advance Heart Clinic",
    "address": "Chaturvedi Complex, 33, Kasia Road, Infront Of Dig Bunglow, Gorakhpur, Uttar Pradesh 273001",
    "phone": "Dr. Lokesh's Advance Heart Clinic",
    "hours": null,
    "image_url": null
  },
  {
    "name": "Maa Homoepathy clinic & Research center",
    "address": "Guru Gorakhnath Complex Gorakhnath, Gorakhpur, Uttar Pradesh 273015",
    "phone": "Maa Homoepathy clinic & Research center",
    "hours": "Closed· Opens 11:00",
    "image_url": "https://www.bing.com/maps/geoplat/REST/v1/Imagery/Map/RoadVibrant?ms=92,134&key=AnTcaqBi2ypp0xI-OZNi4W_ik2KhjgpqioTAtXLC8GzkMBQRMlyxvxyTnd5b73im&c=en-US&ur=in&da=n&logo=n&fmt=png&od=1&shading=hill&pp=26.771208,83.358307;dfp"
  }
]