[
  {
    "name": "Dr. Nitin Kumar- General & Laparoscopic Surgeon in Gulbarga",
    "address": "Kalaskar Hospital, Main Road, Bhagwanti Nagar, Gulbarga, Karnataka 585103",
    "phone": "Dr. Nitin Kumar- General & Laparoscopic Surgeon in Gulbarga",
    "hours": "Open· Closes 20:00",
    "image_url": "https://www.bing.com/maps/geoplat/REST/v1/Imagery/Map/RoadVibrant?ms=92,134&key=AnTcaqBi2ypp0xI-OZNi4W_ik2KhjgpqioTAtXLC8GzkMBQRMlyxvxyTnd5b73im&c=en-US&ur=in&da=n&logo=n&fmt=png&od=1&shading=hill&pp=17.327944,76.831635;dfp"
  },
  {
    "name": "Surya Poly Clinic Sadalga Dr Bhagai",
    "address": "M G Road, Sadalgi, Karnataka 591239",
    "phone": "Surya Poly Clinic Sadalga Dr Bhagai",
    "hours": null,
    "image_url": "https://www.bing.com/maps/geoplat/REST/v1/Imagery/Map/RoadVibrant?ms=92,112&key=AnTcaqBi2ypp0xI-OZNi4W_ik2KhjgpqioTAtXLC8GzkMBQRMlyxvxyTnd5b73im&c=en-US&ur=in&da=n&logo=n&fmt=png&od=1&shading=hill&pp=12.973675,77.614273;dfp"
  },
  {
    "name": "Dr. Sajjan D S- General & Laproscopic surgeon",
    "address": "Basava Hospital, Plot No. 1- 30- 2 B, Shiva Krupa, Anand Nagar, Gulbarga, Karnataka 585101",
    "phone": "Dr. Sajjan D S- General & Laproscopic surgeon",
    "hours": "Open· Closes 18:30",
    "image_url": "https://www.bing.com/maps/geoplat/REST/v1/Imagery/Map/RoadVibrant?ms=92,134&key=AnTcaqBi2ypp0xI-OZNi4W_ik2KhjgpqioTAtXLC8GzkMBQRMlyxvxyTnd5b73im&c=en-US&ur=in&da=n&logo=n&fmt=png&od=1&shading=hill&pp=17.333651,76.833168;dfp"
  },
  {
    "name": "Dr S K Patil Clinic",
    "address": "Super Market Main Road, Near Commisioner Office, Sangameshwar Colony, Kalaburgi, Karnataka 585101",
    "phone": "Dr S K Patil Clinic",
    "hours": null,
    "image_url": "https://www.bing.com/maps/geoplat/REST/v1/Imagery/Map/RoadVibrant?ms=92,112&key=AnTcaqBi2ypp0xI-OZNi4W_ik2KhjgpqioTAtXLC8GzkMBQRMlyxvxyTnd5b73im&c=en-US&ur=in&da=n&logo=n&fmt=png&od=1&shading=hill&pp=17.334902,76.836304;dfp"
  },
  {
    "name": "Dr. Dinesh Valse",
    "address": "Kalaburgi, Landmark: Opposite To Modi Hospital, Gulbarga, Karnataka",
    "phone": "Dr. Dinesh Valse",
    "hours": "Closed· Opens 13:00",
    "image_url": "https://www.bing.com/maps/geoplat/REST/v1/Imagery/Map/RoadVibrant?ms=92,112&key=AnTcaqBi2ypp0xI-OZNi4W_ik2KhjgpqioTAtXLC8GzkMBQRMlyxvxyTnd5b73im&c=en-US&ur=in&da=n&logo=n&fmt=png&od=1&shading=hill&pp=17.314251,76.815437;dfp"
  },
  {
    "name": "Dr. Shreekant Shivgond",
    "address": "1-18/A, Mahagaonkar Complex, Court Road, Kalaburgi, Gulbarga, Karnataka",
    "phone": "Dr. Shreekant Shivgond",
    "hours": "Opens in 10 mins",
    "image_url": "https://www.bing.com/maps/geoplat/REST/v1/Imagery/Map/RoadVibrant?ms=92,112&key=AnTcaqBi2ypp0xI-OZNi4W_ik2KhjgpqioTAtXLC8GzkMBQRMlyxvxyTnd5b73im&c=en-US&ur=in&da=n&logo=n&fmt=png&od=1&shading=hill&pp=17.324049,76.831032;dfp"
  },
  {
    "name": "Chaitanya Clinic",
    "address": "Stbt. Cross, Beside Big Bazar, Gulbarga, Karnataka",
    "phone": "Chaitanya Clinic",
    "hours": null,
    "image_url": "https://www.bing.com/maps/geoplat/REST/v1/Imagery/Map/RoadVibrant?ms=92,112&key=AnTcaqBi2ypp0xI-OZNi4W_ik2KhjgpqioTAtXLC8GzkMBQRMlyxvxyTnd5b73im&c=en-US&ur=in&da=n&logo=n&fmt=png&od=1&shading=hill&pp=17.327679,76.829399;dfp"
  },
  {
    "name": "Dr. Hirapur Heart Clinic",
    "address": "Revansiddeshwar Colony Gulbarga Fort Khuba Plot Brhampur, Kalaburagi, Karnataka 585102",
    "phone": "Dr. Hirapur Heart Clinic",
    "hours": null,
    "image_url": "https://www.bing.com/maps/geoplat/REST/v1/Imagery/Map/RoadVibrant?ms=92,112&key=AnTcaqBi2ypp0xI-OZNi4W_ik2KhjgpqioTAtXLC8GzkMBQRMlyxvxyTnd5b73im&c=en-US&ur=in&da=n&logo=n&fmt=png&od=1&shading=hill&pp=17.323957,76.828064;dfp"
  },
  {
    "name": "Kalaburagi Chest Clinic (Dr. Shrikant Durge)",
    "address": "Near BIG Bazaar, Shetagar Complex, Kalaburagi, Karnataka",
    "phone": "Kalaburagi Chest Clinic (Dr. Shrikant Durge)",
    "hours": null,
    "image_url": "https://www.bing.com/maps/geoplat/REST/v1/Imagery/Map/RoadVibrant?ms=92,112&key=AnTcaqBi2ypp0xI-OZNi4W_ik2KhjgpqioTAtXLC8GzkMBQRMlyxvxyTnd5b73im&c=en-US&ur=in&da=n&logo=n&fmt=png&od=1&shading=hill&pp=17.340776,76.838013;dfp"
  },
  {
    "name": "Dr. Jeevan Kopparad",
    "address": "Prashant Nagar B, Behind Keerti Education Trust, Opposite Hkdb Quarters, Dental College Road, Kalabur…",
    "phone": "Dr. Jeevan Kopparad",
    "hours": "Open· Closes 14:00",
    "image_url": null
  },
  {
    "name": "Dr Ravikumar Superspecality Centre For Diabetes Thyroid",
    "address": "old Jewargi Road, opp Vijayavani Office, Gulbarga, Karnataka",
    "phone": "Dr Ravikumar Superspecality Centre For Diabetes Thyroid",
    "hours": null,
    "image_url": null
  },
  {
    "name": "Dr.Rizwan's Multispeciality Homeopathy & Mental Health Clinic, Gulbarga.",
    "address": "Yadulla Colony, 4th Cross, Beside Umar Farooq Masjid Opp Water Tank, Ring Rd, Near Tipu Chowk, Gulbarga…",
    "phone": "Dr.Rizwan's Multispeciality Homeopathy & Mental Health Clinic, Gulbarga.",
    "hours": null,
    "image_url": "https://www.bing.com/maps/geoplat/REST/v1/Imagery/Map/RoadVibrant?ms=92,112&key=AnTcaqBi2ypp0xI-OZNi4W_ik2KhjgpqioTAtXLC8GzkMBQRMlyxvxyTnd5b73im&c=en-US&ur=in&da=n&logo=n&fmt=png&od=1&shading=hill&pp=17.342632,76.859161;dfp"
  },
  {
    "name": "Aashirwad Homoeo Clinic",
    "address": "Opp Mini Vidan Sauda, Gulbarga, Karnataka 585102",
    "phone": "Aashirwad Homoeo Clinic",
    "hours": null,
    "image_url": null
  },
  {
    "name": "Basaveswara Clinic",
    "address": "Aland Road, Basveswar Circle, Kalaburagi, Kalaburgi, Karnataka 585103",
    "phone": "Basaveswara Clinic",
    "hours": null,
    "image_url": "https://www.bing.com/maps/geoplat/REST/v1/Imagery/Map/RoadVibrant?ms=92,112&key=AnTcaqBi2ypp0xI-OZNi4W_ik2KhjgpqioTAtXLC8GzkMBQRMlyxvxyTnd5b73im&c=en-US&ur=in&da=n&logo=n&fmt=png&od=1&shading=hill&pp=17.356731,76.816513;dfp"
  },
  {
    "name": "Tegnoor Hospital",
    "address": "S B Temple Road, Kalaburgi, Karnataka 585101",
    "phone": "Tegnoor Hospital",
    "hours": null,
    "image_url": null
  },
  {
    "name": "Shiv Sangam Clinic",
    "address": "Aland Road, Basveswar Circle, Kalaburagi, Kalaburgi, Karnataka 585103",
    "phone": "Shiv Sangam Clinic",
    "hours": null,
    "image_url": "https://www.bing.com/maps/geoplat/REST/v1/Imagery/Map/RoadVibrant?ms=92,112&key=AnTcaqBi2ypp0xI-OZNi4W_ik2KhjgpqioTAtXLC8GzkMBQRMlyxvxyTnd5b73im&c=en-US&ur=in&da=n&logo=n&fmt=png&od=1&shading=hill&pp=17.357008,76.816086;dfp"
  },
  {
    "name": "Sahara Clinic",
    "address": "Hagarga Road, Function Hall, Hagargi Kalaburagi, Kalaburgi, Karnataka 585104",
    "phone": "Sahara Clinic",
    "hours": null,
    "image_url": "https://www.bing.com/maps/geoplat/REST/v1/Imagery/Map/RoadVibrant?ms=92,112&key=AnTcaqBi2ypp0xI-OZNi4W_ik2KhjgpqioTAtXLC8GzkMBQRMlyxvxyTnd5b73im&c=en-US&ur=in&da=n&logo=n&fmt=png&od=1&shading=hill&pp=17.349667,76.864403;dfp"
  },
  {
    "name": "Chaitanya Clinic",
    "address": "Gunj Road, Hummabad Circle, Shivaji Nagar Kalaburagi, Kalaburgi, Karnataka 585104",
    "phone": "Chaitanya Clinic",
    "hours": null,
    "image_url": null
  }
]