[
  {
    "name": "Dr Das Gupta Clinic",
    "address": "Main Road Gumla, Near Shahid Tower Chowk, Gumla, Jharkhand 835207",
    "phone": "Dr Das Gupta Clinic",
    "hours": null,
    "image_url": "https://www.bing.com/maps/geoplat/REST/v1/Imagery/Map/RoadVibrant?ms=92,112&key=AnTcaqBi2ypp0xI-OZNi4W_ik2KhjgpqioTAtXLC8GzkMBQRMlyxvxyTnd5b73im&c=en-US&ur=in&da=n&logo=n&fmt=png&od=1&shading=hill&pp=23.041739,84.542404;dfp"
  },
  {
    "name": "Dr S K Jha",
    "address": "Gumla Lohardaga Road, Near Thana Chowk, Gumla, Jharkhand 835207",
    "phone": "Dr S K Jha",
    "hours": null,
    "image_url": "https://www.bing.com/maps/geoplat/REST/v1/Imagery/Map/RoadVibrant?ms=92,112&key=AnTcaqBi2ypp0xI-OZNi4W_ik2KhjgpqioTAtXLC8GzkMBQRMlyxvxyTnd5b73im&c=en-US&ur=in&da=n&logo=n&fmt=png&od=1&shading=hill&pp=23.04978,84.541519;dfp"
  },
  {
    "name": "Dr S Sinha Clinic",
    "address": "Jaspur Road, Near Sadar Hospital, Gumla, Jharkhand 835207",
    "phone": "Dr S Sinha Clinic",
    "hours": null,
    "image_url": "https://www.bing.com/maps/geoplat/REST/v1/Imagery/Map/RoadVibrant?ms=92,112&key=AnTcaqBi2ypp0xI-OZNi4W_ik2KhjgpqioTAtXLC8GzkMBQRMlyxvxyTnd5b73im&c=en-US&ur=in&da=n&logo=n&fmt=png&od=1&shading=hill&pp=23.035748,84.538857;dfp"
  },
  {
    "name": "Avinash Poly Clinic Centre",
    "address": "Bela Medical, AND Surgical Centre, DSE Road, Gumla, Jharkhand 835207",
    "phone": "Avinash Poly Clinic Centre",
    "hours": null,
    "image_url": "https://www.bing.com/maps/geoplat/REST/v1/Imagery/Map/RoadVibrant?ms=92,112&key=AnTcaqBi2ypp0xI-OZNi4W_ik2KhjgpqioTAtXLC8GzkMBQRMlyxvxyTnd5b73im&c=en-US&ur=in&da=n&logo=n&fmt=png&od=1&shading=hill&pp=23.050642,84.541489;dfp"
  },
  {
    "name": "Bharosa Clinic",
    "address": "Gumla Road, Near Bus Stand, Bhadauli, Gumla, Jharkhand 835324",
    "phone": "Bharosa Clinic",
    "hours": null,
    "image_url": "https://www.bing.com/maps/geoplat/REST/v1/Imagery/Map/RoadVibrant?ms=92,112&key=AnTcaqBi2ypp0xI-OZNi4W_ik2KhjgpqioTAtXLC8GzkMBQRMlyxvxyTnd5b73im&c=en-US&ur=in&da=n&logo=n&fmt=png&od=1&shading=hill&pp=23.167667,84.759933;dfp"
  },
  {
    "name": "Anushka Clinic",
    "address": "Sisai, Basia Road, Gumla, Jharkhand 835324",
    "phone": "Anushka Clinic",
    "hours": null,
    "image_url": "https://www.bing.com/maps/geoplat/REST/v1/Imagery/Map/RoadVibrant?ms=92,112&key=AnTcaqBi2ypp0xI-OZNi4W_ik2KhjgpqioTAtXLC8GzkMBQRMlyxvxyTnd5b73im&c=en-US&ur=in&da=n&logo=n&fmt=png&od=1&shading=hill&pp=23.328268,84.616615;dfp"
  },
  {
    "name": "Dr. Deepak kumar adarshi | General Physician | Deepnayan care centre",
    "address": "Cmjc+5JG, Lohardaga, Jharkhand 835302, Lohardaga, Madhya Pradesh 835302",
    "phone": "Dr. Deepak kumar adarshi | General Physician | Deepnayan care centre",
    "hours": "Open· Closes 17:30",
    "image_url": null
  },
  {
    "name": "Surya Clinic",
    "address": "Main Road Lohardaga, Powerganj Chowk, Powerganj, Lohardaga, Jharkhand 835302",
    "phone": "Surya Clinic",
    "hours": null,
    "image_url": "https://www.bing.com/maps/geoplat/REST/v1/Imagery/Map/RoadVibrant?ms=92,112&key=AnTcaqBi2ypp0xI-OZNi4W_ik2KhjgpqioTAtXLC8GzkMBQRMlyxvxyTnd5b73im&c=en-US&ur=in&da=n&logo=n&fmt=png&od=1&shading=hill&pp=23.441597,84.687393;dfp"
  },
  {
    "name": "Gumla Digital X Ray",
    "address": "Jaspur Road, Near Albert Ekka Stadium, Gumla, Jharkhand 835207",
    "phone": "Gumla Digital X Ray",
    "hours": null,
    "image_url": "https://www.bing.com/maps/geoplat/REST/v1/Imagery/Map/RoadVibrant?ms=92,112&key=AnTcaqBi2ypp0xI-OZNi4W_ik2KhjgpqioTAtXLC8GzkMBQRMlyxvxyTnd5b73im&c=en-US&ur=in&da=n&logo=n&fmt=png&od=1&shading=hill&pp=23.03709,84.538994;dfp"
  },
  {
    "name": "Sai Clinic",
    "address": "Main Road Senha, Satyam Complex, Senha, Lohardaga, Jharkhand 835302",
    "phone": "Sai Clinic",
    "hours": null,
    "image_url": "https://www.bing.com/maps/geoplat/REST/v1/Imagery/Map/RoadVibrant?ms=92,112&key=AnTcaqBi2ypp0xI-OZNi4W_ik2KhjgpqioTAtXLC8GzkMBQRMlyxvxyTnd5b73im&c=en-US&ur=in&da=n&logo=n&fmt=png&od=1&shading=hill&pp=23.385647,84.651596;dfp"
  },
  {
    "name": "Dr Lal PathLabs",
    "address": "Front of Rahul Medical, Palmer Ganj Chowk, Sadar Hospital Road, Lohardaga – 835302, Lohardaga, Jhark…",
    "phone": "Dr Lal PathLabs",
    "hours": "Open· Closes 19:30",
    "image_url": "https://www.bing.com/maps/geoplat/REST/v1/Imagery/Map/RoadVibrant?ms=92,134&key=AnTcaqBi2ypp0xI-OZNi4W_ik2KhjgpqioTAtXLC8GzkMBQRMlyxvxyTnd5b73im&c=en-US&ur=in&da=n&logo=n&fmt=png&od=1&shading=hill&pp=23.413931,84.67308;dfp"
  },
  {
    "name": "Dr. J K Rath- General Physician In Jharkhand",
    "address": "Dr. J K Rath's Clinic, Qr. No. K- 67, Shyamali Colony, Ranchi, Jharkhand 834002",
    "phone": "Dr. J K Rath- General Physician In Jharkhand",
    "hours": null,
    "image_url": "https://www.bing.com/maps/geoplat/REST/v1/Imagery/Map/RoadVibrant?ms=92,112&key=AnTcaqBi2ypp0xI-OZNi4W_ik2KhjgpqioTAtXLC8GzkMBQRMlyxvxyTnd5b73im&c=en-US&ur=in&da=n&logo=n&fmt=png&od=1&shading=hill&pp=23.339817,85.303375;dfp"
  },
  {
    "name": "Chandsi Clinic",
    "address": "Gumla Road, Sub Post Office, Piska Nagri, Ranchi, Jharkhand 835303",
    "phone": "Chandsi Clinic",
    "hours": null,
    "image_url": "https://www.bing.com/maps/geoplat/REST/v1/Imagery/Map/RoadVibrant?ms=92,112&key=AnTcaqBi2ypp0xI-OZNi4W_ik2KhjgpqioTAtXLC8GzkMBQRMlyxvxyTnd5b73im&c=en-US&ur=in&da=n&logo=n&fmt=png&od=1&shading=hill&pp=23.323963,85.187569;dfp"
  }
]