[
  {
    "name": "Dr. Ajit Jain",
    "address": "Ganga Gyan Computerised Homeopathic Clinic, opp. Idbi Bank Hanuman Chauraha, AB Road, Guna, Madhya Pr…",
    "phone": "Dr. Ajit Jain",
    "hours": "Open· Closes 21:00",
    "image_url": "/th?id=OLC.qL9SOf1zCfJDxg480x360&w=92&h=134&c=8&rs=1&qlt=80&cdv=1&pid=Local"
  },
  {
    "name": "Dishika Clinic",
    "address": "Ashok Nagar Road, Guna, Madhya Pradesh 473001",
    "phone": "Dishika Clinic",
    "hours": null,
    "image_url": "/th?id=OLC.z4sWCM7j15XKBQ480x360&w=92&h=112&c=8&rs=1&qlt=80&cdv=1&pid=Local"
  },
  {
    "name": "Dr Sudeep Arora M D Medicine",
    "address": "Pushkar Complex, Dubey Colony, Guna, Madhya Pradesh 473001, Guna, Madhya Pradesh 473001",
    "phone": "Dr Sudeep Arora M D Medicine",
    "hours": null,
    "image_url": "/th?id=OLC.uR1lwAFibi8tvg480x360&w=92&h=112&c=8&rs=1&qlt=80&cdv=1&pid=Local"
  },
  {
    "name": "Dr. Bhola's - Clinic",
    "address": "Doctor's Lane, Near Civil Hospital, Guna, Madhya Pradesh 473001",
    "phone": "Dr. Bhola's - Clinic",
    "hours": "Closed· Opens 17:00",
    "image_url": "/th?id=OLC.fk7RmVPHxYGZBg480x360&w=92&h=134&c=8&rs=1&qlt=80&cdv=1&pid=Local"
  },
  {
    "name": "Dr YS Raghuwanshi",
    "address": "Bohra Mosque Road, Guna, Madhya Pradesh 473249",
    "phone": "Dr YS Raghuwanshi",
    "hours": null,
    "image_url": "https://www.bing.com/maps/geoplat/REST/v1/Imagery/Map/RoadVibrant?ms=92,112&key=AnTcaqBi2ypp0xI-OZNi4W_ik2KhjgpqioTAtXLC8GzkMBQRMlyxvxyTnd5b73im&c=en-US&ur=in&da=n&logo=n&fmt=png&od=1&shading=hill&pp=24.647465,77.307549;dfp"
  },
  {
    "name": "Dr J.k Garg Clinic",
    "address": "J8w6+frj, Nadhi Mohalla, Guna, Madhya Pradesh 473001, India, Guna, Madhya Pradesh 473001",
    "phone": "Dr J.k Garg Clinic",
    "hours": null,
    "image_url": "https://www.bing.com/maps/geoplat/REST/v1/Imagery/Map/RoadVibrant?ms=92,112&key=AnTcaqBi2ypp0xI-OZNi4W_ik2KhjgpqioTAtXLC8GzkMBQRMlyxvxyTnd5b73im&c=en-US&ur=in&da=n&logo=n&fmt=png&od=1&shading=hill&pp=24.64497,77.334846;dfp"
  },
  {
    "name": "Dr Chaya Sharma",
    "address": "Haji Colony, District Hospital Guna, Laxmi Ganj, Guna, Madhya Pradesh 473001",
    "phone": "Dr Chaya Sharma",
    "hours": null,
    "image_url": "https://www.bing.com/maps/geoplat/REST/v1/Imagery/Map/RoadVibrant?ms=92,112&key=AnTcaqBi2ypp0xI-OZNi4W_ik2KhjgpqioTAtXLC8GzkMBQRMlyxvxyTnd5b73im&c=en-US&ur=in&da=n&logo=n&fmt=png&od=1&shading=hill&pp=24.645927,77.311295;dfp"
  },
  {
    "name": "Dr Hemant Sharma",
    "address": "Dubey Colony, Guna, Madhya Pradesh 473249",
    "phone": "Dr Hemant Sharma",
    "hours": null,
    "image_url": "https://www.bing.com/maps/geoplat/REST/v1/Imagery/Map/RoadVibrant?ms=92,112&key=AnTcaqBi2ypp0xI-OZNi4W_ik2KhjgpqioTAtXLC8GzkMBQRMlyxvxyTnd5b73im&c=en-US&ur=in&da=n&logo=n&fmt=png&od=1&shading=hill&pp=24.646517,77.306;dfp"
  },
  {
    "name": "LAKSHITA HOMEOPATHIC CLINIC- Best Homeopathic clinic",
    "address": "Bhargava Colony Main Road Near Sparsh Computer, Guna, Madhya Pradesh, Madhya Pradesh 473001",
    "phone": "LAKSHITA HOMEOPATHIC CLINIC- Best Homeopathic clinic",
    "hours": "Closed· Opens 16:00",
    "image_url": null
  },
  {
    "name": "Dr Tathke Clinic",
    "address": "Tatke Market Road, Purana Post Office Guna, Sugan Chauraha, Guna, Madhya Pradesh 473001",
    "phone": "Dr Tathke Clinic",
    "hours": null,
    "image_url": "https://www.bing.com/maps/geoplat/REST/v1/Imagery/Map/RoadVibrant?ms=92,112&key=AnTcaqBi2ypp0xI-OZNi4W_ik2KhjgpqioTAtXLC8GzkMBQRMlyxvxyTnd5b73im&c=en-US&ur=in&da=n&logo=n&fmt=png&od=1&shading=hill&pp=24.647345,77.309494;dfp"
  },
  {
    "name": "Sanjeevni Clinic",
    "address": "Bhagat Singh Road, State Bank Of India Atm, Nayapura Chowk, Guna, Madhya Pradesh 473001",
    "phone": "Sanjeevni Clinic",
    "hours": null,
    "image_url": "https://www.bing.com/maps/geoplat/REST/v1/Imagery/Map/RoadVibrant?ms=92,112&key=AnTcaqBi2ypp0xI-OZNi4W_ik2KhjgpqioTAtXLC8GzkMBQRMlyxvxyTnd5b73im&c=en-US&ur=in&da=n&logo=n&fmt=png&od=1&shading=hill&pp=24.6439,77.304855;dfp"
  },
  {
    "name": "Sharma Clinic",
    "address": "Bg Road, Icici Bank Atm, Guna, Madhya Pradesh 473001",
    "phone": "Sharma Clinic",
    "hours": null,
    "image_url": "https://www.bing.com/maps/geoplat/REST/v1/Imagery/Map/RoadVibrant?ms=92,112&key=AnTcaqBi2ypp0xI-OZNi4W_ik2KhjgpqioTAtXLC8GzkMBQRMlyxvxyTnd5b73im&c=en-US&ur=in&da=n&logo=n&fmt=png&od=1&shading=hill&pp=24.642483,77.309227;dfp"
  },
  {
    "name": "Ritu Clinic",
    "address": "Madhya Pradesh Sh23, Ganesh Talkies, Railway Colony, Guna, Madhya Pradesh 473001",
    "phone": "Ritu Clinic",
    "hours": null,
    "image_url": "https://www.bing.com/maps/geoplat/REST/v1/Imagery/Map/RoadVibrant?ms=92,112&key=AnTcaqBi2ypp0xI-OZNi4W_ik2KhjgpqioTAtXLC8GzkMBQRMlyxvxyTnd5b73im&c=en-US&ur=in&da=n&logo=n&fmt=png&od=1&shading=hill&pp=24.642406,77.309441;dfp"
  },
  {
    "name": "Ashok Clinic",
    "address": "Lushan Ka Bagicha Road, Hanuman Mandir, Banskhedi, Guna, Madhya Pradesh 473001",
    "phone": "Ashok Clinic",
    "hours": null,
    "image_url": "https://www.bing.com/maps/geoplat/REST/v1/Imagery/Map/RoadVibrant?ms=92,112&key=AnTcaqBi2ypp0xI-OZNi4W_ik2KhjgpqioTAtXLC8GzkMBQRMlyxvxyTnd5b73im&c=en-US&ur=in&da=n&logo=n&fmt=png&od=1&shading=hill&pp=24.644199,77.32193;dfp"
  },
  {
    "name": "Dr. Arvind s.Tomar | dermatologist & gp | Aarya health Care",
    "address": "Gulab Ganj, Patel Nagar, Guna, Madhya Pradesh 473001, Guna, Madhya Pradesh 473001",
    "phone": "Dr. Arvind s.Tomar | dermatologist & gp | Aarya health Care",
    "hours": "Closed· Opens 14:00",
    "image_url": null
  },
  {
    "name": "Chitransh Clinic",
    "address": "Madhya Pradesh Sh23, Hanuman Mandir Chowk, Aron, Madhya Pradesh 473101",
    "phone": "Chitransh Clinic",
    "hours": null,
    "image_url": "https://www.bing.com/maps/geoplat/REST/v1/Imagery/Map/RoadVibrant?ms=92,112&key=AnTcaqBi2ypp0xI-OZNi4W_ik2KhjgpqioTAtXLC8GzkMBQRMlyxvxyTnd5b73im&c=en-US&ur=in&da=n&logo=n&fmt=png&od=1&shading=hill&pp=24.380371,77.417725;dfp"
  }
]