[
  {
    "name": "Dr.m.vinod Kumar",
    "address": "21-12-94, Old Club Road, Kothapet, Guntur, Andhra Pradesh 522001",
    "phone": "Dr.m.vinod Kumar",
    "hours": "Closed· Opens 17:00",
    "image_url": "/th?id=OLC.KYJqZTOip0M9iA480x360&w=92&h=134&c=8&rs=1&qlt=80&cdv=1&pid=Local"
  },
  {
    "name": "Dr. Satish Babu Athota- General Surgeon",
    "address": "SLV Nursing Home, 41, Old Bus Stand Road, Lalapet, Guntur, Andhra Pradesh 522003",
    "phone": "Dr. Satish Babu Athota- General Surgeon",
    "hours": "Open· Closes 21:00",
    "image_url": "https://www.bing.com/maps/geoplat/REST/v1/Imagery/Map/RoadVibrant?ms=92,134&key=AnTcaqBi2ypp0xI-OZNi4W_ik2KhjgpqioTAtXLC8GzkMBQRMlyxvxyTnd5b73im&c=en-US&ur=in&da=n&logo=n&fmt=png&od=1&shading=hill&pp=16.293123,80.447144;dfp"
  },
  {
    "name": "Dr SAI KRISHNA BALINENI BEST GASTROENTEROLOGIST LIVER PANCREAS SPECI…",
    "address": "Ramireddy Thota 1st Line, Guntur, Andhra Pradesh 522001",
    "phone": "Dr SAI KRISHNA BALINENI BEST GASTROENTEROLOGIST LIVER PANCREAS SPECI…",
    "hours": "Open 24 hours",
    "image_url": "/th?id=OLC.SJM0x0Nw8oc3ZQ480x360&w=92&h=134&c=8&rs=1&qlt=80&cdv=1&pid=Local"
  },
  {
    "name": "Dr Rao - Dr Mohana Rao Patibandla - minimally invasive neurosurgeon and spine surgeon",
    "address": "7FW2+PFR, Old Bank Street, GV Thota, Guntur, Andhra Pradesh 522001",
    "phone": "Dr Rao - Dr Mohana Rao Patibandla - minimally invasive neurosurgeon and spine surgeon",
    "hours": "Open 24 hours",
    "image_url": "/th?id=OLC.N6LVdtl79hxVxg480x360&w=92&h=134&c=8&rs=1&qlt=80&cdv=1&pid=Local"
  },
  {
    "name": "Dr. Ramya Rachamanti",
    "address": "AVR Hospital, Old Club Road, Guntur, Andhra Pradesh",
    "phone": "Dr. Ramya Rachamanti",
    "hours": "Closed· Opens 17:00",
    "image_url": "/th?id=OLC.RJ0j%2f8CEB3bFyg480x360&w=92&h=112&c=8&rs=1&qlt=80&cdv=1&pid=Local"
  },
  {
    "name": "Dr. Am Reddy",
    "address": "Kothapet Main Road, Guntur, Andhra Pradesh 522001",
    "phone": "Dr. Am Reddy",
    "hours": "Closed· Opens 11:00",
    "image_url": "/th?id=OLC.LZuzlwqP87CXYQ480x360&w=92&h=134&c=8&rs=1&qlt=80&cdv=1&pid=Local"
  },
  {
    "name": "Dr. M.Anuradha- MS OBG, FNB in High Risk Pregnancy & Fetal medicine , Andhra Pradesh",
    "address": "Vedanta Hospital Beside Vasavi Cloth Market Mangalagiri Road, Guntur, Andhra Pradesh 522001",
    "phone": "Dr. M.Anuradha- MS OBG, FNB in High Risk Pregnancy & Fetal medicine , Andhra Pradesh",
    "hours": "Closed· Opens 11:00",
    "image_url": null
  },
  {
    "name": "Dr.Anupama.M",
    "address": "8th Lane, Old Club Rd, Near Amruthasri Hotel Abhaya Hospitals, Guntur, Andhra Pradesh",
    "phone": "Dr.Anupama.M",
    "hours": null,
    "image_url": "https://www.bing.com/maps/geoplat/REST/v1/Imagery/Map/RoadVibrant?ms=92,112&key=AnTcaqBi2ypp0xI-OZNi4W_ik2KhjgpqioTAtXLC8GzkMBQRMlyxvxyTnd5b73im&c=en-US&ur=in&da=n&logo=n&fmt=png&od=1&shading=hill&pp=16.298708,80.45414;dfp"
  },
  {
    "name": "Apollo Clinic",
    "address": "3-28-26/11, Kundala Road, Guntur, Guntur 522006",
    "phone": "Apollo Clinic",
    "hours": null,
    "image_url": null
  },
  {
    "name": "Virinchi Clinic - Dr PV Sampath Kumar",
    "address": "Beside Kamaraju Diagonstics Center Guntur Vari Thota, 4th Ln, Guntur, Andhra Pradesh",
    "phone": "Virinchi Clinic - Dr PV Sampath Kumar",
    "hours": "Closed· Opens 16:00",
    "image_url": null
  },
  {
    "name": "Amrutha Hospitals",
    "address": "Old Club Rd, Gunturvari Thota, Kothapeta, Guntur, Andhra Pradesh",
    "phone": "Amrutha Hospitals",
    "hours": null,
    "image_url": null
  },
  {
    "name": "Dr Kamprasad Clinic",
    "address": "12-12-93, Old Club Road, Guntur, Andhra Pradesh 522001",
    "phone": "Dr Kamprasad Clinic",
    "hours": null,
    "image_url": "https://www.bing.com/maps/geoplat/REST/v1/Imagery/Map/RoadVibrant?ms=92,112&key=AnTcaqBi2ypp0xI-OZNi4W_ik2KhjgpqioTAtXLC8GzkMBQRMlyxvxyTnd5b73im&c=en-US&ur=in&da=n&logo=n&fmt=png&od=1&shading=hill&pp=16.299152,80.450737;dfp"
  },
  {
    "name": "Dr. Palukuri Nagendra",
    "address": "Kolisetty's Villa, Old Club Road, Guntur, Andhra Pradesh",
    "phone": "Dr. Palukuri Nagendra",
    "hours": "Open· Closes 21:00",
    "image_url": null
  },
  {
    "name": "Dr. Anjith Vupputuri | Amrutha Hospitals | Best Cardiologist | Heart Surgery",
    "address": "Old Club Rd, Kothapeta, Guntur, Andhra Pradesh",
    "phone": "Dr. Anjith Vupputuri | Amrutha Hospitals | Best Cardiologist | Heart Surgery",
    "hours": null,
    "image_url": "https://www.bing.com/maps/geoplat/REST/v1/Imagery/Map/RoadVibrant?ms=92,112&key=AnTcaqBi2ypp0xI-OZNi4W_ik2KhjgpqioTAtXLC8GzkMBQRMlyxvxyTnd5b73im&c=en-US&ur=in&da=n&logo=n&fmt=png&od=1&shading=hill&pp=16.297834,80.456276;dfp"
  },
  {
    "name": "Dr.Karthik Kataru || Best Diabetologist  || General Physician",
    "address": "12-1-25/172, Beside Bose Statue, Near Maa Plaza, Kothapeta, Guntur, Andhra Pradesh",
    "phone": "Dr.Karthik Kataru || Best Diabetologist  || General Physician",
    "hours": null,
    "image_url": "https://www.bing.com/maps/geoplat/REST/v1/Imagery/Map/RoadVibrant?ms=92,112&key=AnTcaqBi2ypp0xI-OZNi4W_ik2KhjgpqioTAtXLC8GzkMBQRMlyxvxyTnd5b73im&c=en-US&ur=in&da=n&logo=n&fmt=png&od=1&shading=hill&pp=16.301737,80.447754;clcp"
  },
  {
    "name": "Dr. P.V.S.S. Srinivasa Prasad",
    "address": "Beside Hindu College Grounds, Collector Office Road, Guntur - 522004, Guntur, Andhra Pradesh",
    "phone": "Dr. P.V.S.S. Srinivasa Prasad",
    "hours": "Closed· Opens 15:00",
    "image_url": null
  },
  {
    "name": "Dr. Kavya Chennamsetty",
    "address": "Anna Srinivasa Rao Kalyanamandapam Road, Puvvada Vari Vedhi, Guntur, Andhra Pradesh",
    "phone": "Dr. Kavya Chennamsetty",
    "hours": "Closed· Opens 18:00",
    "image_url": null
  },
  {
    "name": "Dr. Sneha Kovi",
    "address": "12-13-1, Kugler Hospital Road, Kothapet, Guntur, Andhra Pradesh 522001",
    "phone": "Dr. Sneha Kovi",
    "hours": "Open· Closes 13:00",
    "image_url": null
  }
]