[
  {
    "name": "Dr Suresh Gupta MS PGI CHANDIGARH General and Laparoscopic Surgeon, piles surgery, cancer and Gastr…",
    "address": "Gupta Hospital, GT Rd, Near Govt ITI, Moga, Punjab",
    "phone": "Dr Suresh Gupta MS PGI CHANDIGARH General and Laparoscopic Surgeon, piles surgery, cancer and Gastr…",
    "hours": null,
    "image_url": "https://www.bing.com/maps/geoplat/REST/v1/Imagery/Map/RoadVibrant?ms=92,112&key=AnTcaqBi2ypp0xI-OZNi4W_ik2KhjgpqioTAtXLC8GzkMBQRMlyxvxyTnd5b73im&c=en-US&ur=in&da=n&logo=n&fmt=png&od=1&shading=hill&pp=32.030357,75.392509;dfp"
  },
  {
    "name": "Dr. Vibha Sharma",
    "address": "Backside Bahri Hospital, Jail Rd, Gurdaspur, Punjab",
    "phone": "Dr. Vibha Sharma",
    "hours": null,
    "image_url": "https://www.bing.com/maps/geoplat/REST/v1/Imagery/Map/RoadVibrant?ms=92,112&key=AnTcaqBi2ypp0xI-OZNi4W_ik2KhjgpqioTAtXLC8GzkMBQRMlyxvxyTnd5b73im&c=en-US&ur=in&da=n&logo=n&fmt=png&od=1&shading=hill&pp=32.0443,75.405403;dfp"
  },
  {
    "name": "Dr. Sardari Lal Hospital, Gurdaspur",
    "address": "Old Sabzi Mandi.g t Road, Gurdaspur, Punjab Region 143521",
    "phone": "Dr. Sardari Lal Hospital, Gurdaspur",
    "hours": null,
    "image_url": "https://www.bing.com/maps/geoplat/REST/v1/Imagery/Map/RoadVibrant?ms=92,112&key=AnTcaqBi2ypp0xI-OZNi4W_ik2KhjgpqioTAtXLC8GzkMBQRMlyxvxyTnd5b73im&c=en-US&ur=in&da=n&logo=n&fmt=png&od=1&shading=hill&pp=32.030357,75.392509;dfp"
  },
  {
    "name": "Gupta Hospital /Clearz Skin & Surgery Clinics",
    "address": "Near Govt Iti, Gt Rd, Opposite Vishkarma Bhawan Gate, Rab Nagar, Punjab 142001",
    "phone": "Gupta Hospital /Clearz Skin & Surgery Clinics",
    "hours": "Open· Closes 19:00",
    "image_url": "/th?id=OLC.84E0uhDVLe%2bPAg480x360&w=92&h=134&c=8&rs=1&qlt=80&cdv=1&pid=Local"
  },
  {
    "name": "OBERAI Hospital (Dr Ashok Kumar Oberai )",
    "address": "Kahnuwan Rd, Sadar Bazar, Gurdaspur, Punjab",
    "phone": "OBERAI Hospital (Dr Ashok Kumar Oberai )",
    "hours": null,
    "image_url": "https://www.bing.com/maps/geoplat/REST/v1/Imagery/Map/RoadVibrant?ms=92,112&key=AnTcaqBi2ypp0xI-OZNi4W_ik2KhjgpqioTAtXLC8GzkMBQRMlyxvxyTnd5b73im&c=en-US&ur=in&da=n&logo=n&fmt=png&od=1&shading=hill&pp=32.0313,75.399071;dfp"
  },
  {
    "name": "Dr BK Mehta Clinic",
    "address": "Geeta Bhawan Road 37/21, Sangal Pura, Gurdaspur, Punjab 143521",
    "phone": "Dr BK Mehta Clinic",
    "hours": null,
    "image_url": "https://www.bing.com/maps/geoplat/REST/v1/Imagery/Map/RoadVibrant?ms=92,112&key=AnTcaqBi2ypp0xI-OZNi4W_ik2KhjgpqioTAtXLC8GzkMBQRMlyxvxyTnd5b73im&c=en-US&ur=in&da=n&logo=n&fmt=png&od=1&shading=hill&pp=32.03611,75.402412;dfp"
  },
  {
    "name": "Dr Tanuj Thapar",
    "address": "Near Malti Thapar Gt Road, Moga, 142001, Moga, Punjab 142001",
    "phone": "Dr Tanuj Thapar",
    "hours": null,
    "image_url": "https://www.bing.com/maps/geoplat/REST/v1/Imagery/Map/RoadVibrant?ms=92,112&key=AnTcaqBi2ypp0xI-OZNi4W_ik2KhjgpqioTAtXLC8GzkMBQRMlyxvxyTnd5b73im&c=en-US&ur=in&da=n&logo=n&fmt=png&od=1&shading=hill&pp=30.930239,75.869202;dfp"
  },
  {
    "name": "Shuddhi Hiims (Gurdaspur) Ayurveda Clinic",
    "address": "Sharma Market, Prem Nagar, Hardochhanni Road, Opposite Ajay Studio, Gurdaspur, Punjab 143521",
    "phone": "Shuddhi Hiims (Gurdaspur) Ayurveda Clinic",
    "hours": "Open· Closes 18:00",
    "image_url": null
  },
  {
    "name": "Dr Surjit Singh Clinic",
    "address": "Main Road Opposite Panjpeer, Mandi, Gurdaspur, Punjab 143521",
    "phone": "Dr Surjit Singh Clinic",
    "hours": null,
    "image_url": "https://www.bing.com/maps/geoplat/REST/v1/Imagery/Map/RoadVibrant?ms=92,112&key=AnTcaqBi2ypp0xI-OZNi4W_ik2KhjgpqioTAtXLC8GzkMBQRMlyxvxyTnd5b73im&c=en-US&ur=in&da=n&logo=n&fmt=png&od=1&shading=hill&pp=32.044189,75.413216;dfp"
  },
  {
    "name": "Dr Gurpreet's Hope Homoeopathic clinic",
    "address": "Kahnuwan Rd, Near Railway Crossing, Sadar Bazar, Gurdaspur, Punjab",
    "phone": "Dr Gurpreet's Hope Homoeopathic clinic",
    "hours": null,
    "image_url": null
  },
  {
    "name": "Dr. Kashyap Ent Hospital",
    "address": "3, Dorangla Rd, Gurdaspur, Punjab 143521",
    "phone": "Dr. Kashyap Ent Hospital",
    "hours": "Open· Closes 20:00",
    "image_url": null
  },
  {
    "name": "Rheumatology, Arthritis, Joint Pain And Autoimmune Rheumatic Disease Specialist- Dr Anshul Goel at Chau…",
    "address": "National Highway 15 Amritsar Pathankot Highyway, Kotli Muglan, Punjab",
    "phone": "Rheumatology, Arthritis, Joint Pain And Autoimmune Rheumatic Disease Specialist- Dr Anshul Goel at Chau…",
    "hours": null,
    "image_url": "https://www.bing.com/maps/geoplat/REST/v1/Imagery/Map/RoadVibrant?ms=92,112&key=AnTcaqBi2ypp0xI-OZNi4W_ik2KhjgpqioTAtXLC8GzkMBQRMlyxvxyTnd5b73im&c=en-US&ur=in&da=n&logo=n&fmt=png&od=1&shading=hill&pp=32.036404,75.397552;dfp"
  },
  {
    "name": "Ravinder Homoeopathic Clinic",
    "address": "Library Road, Near Bank Of India, Sadar Bazar, Gurdaspur, Punjab",
    "phone": "Ravinder Homoeopathic Clinic",
    "hours": null,
    "image_url": null
  },
  {
    "name": "Jasreen homoeo clinic",
    "address": "Bata Chowk, Sahowalia Complex, Gurdaspur 143521",
    "phone": "Jasreen homoeo clinic",
    "hours": null,
    "image_url": "https://www.bing.com/maps/geoplat/REST/v1/Imagery/Map/RoadVibrant?ms=92,112&key=AnTcaqBi2ypp0xI-OZNi4W_ik2KhjgpqioTAtXLC8GzkMBQRMlyxvxyTnd5b73im&c=en-US&ur=in&da=n&logo=n&fmt=png&od=1&shading=hill&pp=32.034157,75.39196;dfp"
  },
  {
    "name": "Ujjwal Bharat",
    "address": "H. NO. 13, Village Rajpura, Kalanaur Road, Gurdaspur, Punjab 143520",
    "phone": "Ujjwal Bharat",
    "hours": null,
    "image_url": null
  },
  {
    "name": "Best Diagnostic Centre",
    "address": "Sandhu Niwas GT Road, Gurdaspur, Punjab 143521",
    "phone": "Best Diagnostic Centre",
    "hours": null,
    "image_url": "https://www.bing.com/maps/geoplat/REST/v1/Imagery/Map/RoadVibrant?ms=92,112&key=AnTcaqBi2ypp0xI-OZNi4W_ik2KhjgpqioTAtXLC8GzkMBQRMlyxvxyTnd5b73im&c=en-US&ur=in&da=n&logo=n&fmt=png&od=1&shading=hill&pp=32.030357,75.392509;dfp"
  },
  {
    "name": "Puneet Mahajan",
    "address": "Near ImprOvement Trust Office, Police Line Road, Gurdaspur, Punjab 143521",
    "phone": "Puneet Mahajan",
    "hours": null,
    "image_url": "https://www.bing.com/maps/geoplat/REST/v1/Imagery/Map/RoadVibrant?ms=92,112&key=AnTcaqBi2ypp0xI-OZNi4W_ik2KhjgpqioTAtXLC8GzkMBQRMlyxvxyTnd5b73im&c=en-US&ur=in&da=n&logo=n&fmt=png&od=1&shading=hill&pp=32.040939,75.408127;dfp"
  }
]