[
  {
    "name": "Dr. Ramveer Singh Rajput",
    "address": "18, Kila Gate Road, Vikas Nagar, Landmark: Near Sai Baba Mandir, Gwalior, Gwalior 474002",
    "phone": "Dr. Ramveer Singh Rajput",
    "hours": "Open· Closes 17:00",
    "image_url": "/th?id=OLC.z%2fatnHCWDssnJg480x360&w=92&h=134&c=8&rs=1&qlt=80&cdv=1&pid=Local"
  },
  {
    "name": "Dr Naresh Sharma",
    "address": "86, Vinay Nagar, Sector 4, Landmark: Near Koteshwar Mandir, Gwalior 474012",
    "phone": "Dr Naresh Sharma",
    "hours": "Closes in 10 mins",
    "image_url": "/th?id=OLC.QKp8105WUKox9Q480x360&w=92&h=134&c=8&rs=1&qlt=80&cdv=1&pid=Local"
  },
  {
    "name": "Dr. Tanvi Gupta",
    "address": "Silver Estate Shopping Gallery, University Road, Gwalior, Madhya Pradesh 474011",
    "phone": "Dr. Tanvi Gupta",
    "hours": "Closed· Opens 17:30",
    "image_url": "/th?id=OLC.TOMvM9jsh62orA480x360&w=92&h=134&c=8&rs=1&qlt=80&cdv=1&pid=Local"
  },
  {
    "name": "Dr. Sudhir Dixit",
    "address": "No.18, Kila Gate Road, Vikas Nagar, Near Sai Baba Mandir, Gwalior 474002",
    "phone": "Dr. Sudhir Dixit",
    "hours": "Open· Closes 19:00",
    "image_url": "/th?id=OLC.Efg3X4M2u7A1qw480x360&w=92&h=112&c=8&rs=1&qlt=80&cdv=1&pid=Local"
  },
  {
    "name": "Dr. Sujoy Bhattacharjee",
    "address": "18, Kila Gate Road, Vikas Nagar, Gwalior, Madhya Pradesh",
    "phone": "Dr. Sujoy Bhattacharjee",
    "hours": "Closed· Opens Sep 29 at 10:00",
    "image_url": "/th?id=OLC.EYAHa77LhTNyHA480x360&w=92&h=112&c=8&rs=1&qlt=80&cdv=1&pid=Local"
  },
  {
    "name": "Dr. S.r. Agrawal",
    "address": "H 204, Madhav Nagar, Opp Ag Office, Gwalior 474002",
    "phone": "Dr. S.r. Agrawal",
    "hours": null,
    "image_url": "https://www.bing.com/maps/geoplat/REST/v1/Imagery/Map/RoadVibrant?ms=92,112&key=AnTcaqBi2ypp0xI-OZNi4W_ik2KhjgpqioTAtXLC8GzkMBQRMlyxvxyTnd5b73im&c=en-US&ur=in&da=n&logo=n&fmt=png&od=1&shading=hill&pp=26.199833,78.176338;dfp"
  },
  {
    "name": "Dr. Manoj Kumar Srivastava",
    "address": "18, Kila Gate Road, Vikas Nagar, Gwalior, Madhya Pradesh",
    "phone": "Dr. Manoj Kumar Srivastava",
    "hours": "Open· Closes 18:00",
    "image_url": "https://www.bing.com/maps/geoplat/REST/v1/Imagery/Map/RoadVibrant?ms=92,134&key=AnTcaqBi2ypp0xI-OZNi4W_ik2KhjgpqioTAtXLC8GzkMBQRMlyxvxyTnd5b73im&c=en-US&ur=in&da=n&logo=n&fmt=png&od=1&shading=hill&pp=26.221901,78.177696;dfp"
  },
  {
    "name": "Dr. R K Gupta Clinic",
    "address": "Gwalior, Narela, Delhi 474001",
    "phone": "Dr. R K Gupta Clinic",
    "hours": null,
    "image_url": "https://www.bing.com/maps/geoplat/REST/v1/Imagery/Map/RoadVibrant?ms=92,112&key=AnTcaqBi2ypp0xI-OZNi4W_ik2KhjgpqioTAtXLC8GzkMBQRMlyxvxyTnd5b73im&c=en-US&ur=in&da=n&logo=n&fmt=png&od=1&shading=hill&pp=26.194618,78.161797;dfp"
  },
  {
    "name": "Dr. Aijaz Khanooni Clinic",
    "address": "Dargah Hazrat Khwaja Khanoon Sahib Campus, Gwalior, Madhya Pradesh 474003",
    "phone": "Dr. Aijaz Khanooni Clinic",
    "hours": "Closed· Opens 14:00",
    "image_url": null
  },
  {
    "name": "Varma clinic",
    "address": "H NO 60, Mahaveer Pura, Dabra, Gwalior, Madhya Pradesh 475110",
    "phone": "Varma clinic",
    "hours": null,
    "image_url": null
  },
  {
    "name": "Dr. Vijay Garg",
    "address": "Vinay Nagar Sect -2 Bahodapur, Gwalior, Madhya Pradesh 474012",
    "phone": "Dr. Vijay Garg",
    "hours": "Closed· Opens 17:30",
    "image_url": null
  },
  {
    "name": "Dr. Devesh Bandil",
    "address": "Near Mata Ka Mandir, Shinde Ki Chhawani, Gwalior, Madhya Pradesh 474009",
    "phone": "Dr. Devesh Bandil",
    "hours": "Open· Closes 20:00",
    "image_url": null
  },
  {
    "name": "Dr. Vipin Garg ( Klm Spine Clinic)",
    "address": "12, Saraswati Nagar, Near Silver State, University Road, Gwalior, Madhya Pradesh 474011",
    "phone": "Dr. Vipin Garg ( Klm Spine Clinic)",
    "hours": "Closed· Opens 16:00",
    "image_url": null
  },
  {
    "name": "Dr. Shubham Gupta",
    "address": "Hospital Rd, Geeta Colony, Dal Bazaar, Gwalior, Madhya Pradesh",
    "phone": "Dr. Shubham Gupta",
    "hours": "Closed· Opens 17:00",
    "image_url": null
  },
  {
    "name": "Dr Namita Agrawal Gynecologist",
    "address": "27-28, 7th Number Chaurah Road, CP Colony, Raghavpuram, Gwalior, Madhya Pradesh",
    "phone": "Dr Namita Agrawal Gynecologist",
    "hours": "Closed· Opens 12:00",
    "image_url": null
  },
  {
    "name": "Dr. Parag Srivastava",
    "address": "1, Gandhi Road, Thatipur, Landmark: Dwarkadheesh Temple, Gwalior, Madhya Pradesh",
    "phone": "Dr. Parag Srivastava",
    "hours": "Open· Closes 13:00",
    "image_url": null
  },
  {
    "name": "Dr. Khozema Saify",
    "address": "18, Vikas Nagar, Near Sai Baba Mandir, Kila Gate Road, Gwalior, Gwalior 474002",
    "phone": "Dr. Khozema Saify",
    "hours": "Closed· Opens 17:00",
    "image_url": null
  },
  {
    "name": "Dr Dixit Superspeciality Homoeopathy Clinic",
    "address": "F 19 R P Colony Tansen Nagar Road Gwlior, Gwalior, Madhya Pradesh, Madhya Pradesh 474002",
    "phone": "Dr Dixit Superspeciality Homoeopathy Clinic",
    "hours": "Opens in 10 mins",
    "image_url": null
  }
]