[
  {
    "name": "Dr Lal PathLabs",
    "address": "Opposite S. P. Office, Sahidbedhi.Kachari Road. Hailakandi. Assam, Pin 788151, Kachari Road. Hailaka…",
    "phone": "Dr Lal PathLabs",
    "hours": null,
    "image_url": "https://www.bing.com/maps/geoplat/REST/v1/Imagery/Map/RoadVibrant?ms=92,112&key=AnTcaqBi2ypp0xI-OZNi4W_ik2KhjgpqioTAtXLC8GzkMBQRMlyxvxyTnd5b73im&c=en-US&ur=in&da=n&logo=n&fmt=png&od=1&shading=hill&pp=24.681103,92.563805;dfp"
  },
  {
    "name": "Apollo Dialysis Clinics",
    "address": "Hailakandi Civil Hospital, NH 154, Bashdahar, Hailakandi, Assam 788151",
    "phone": "Apollo Dialysis Clinics",
    "hours": "Open· Closes 21:00",
    "image_url": "https://www.bing.com/maps/geoplat/REST/v1/Imagery/Map/RoadVibrant?ms=92,134&key=AnTcaqBi2ypp0xI-OZNi4W_ik2KhjgpqioTAtXLC8GzkMBQRMlyxvxyTnd5b73im&c=en-US&ur=in&da=n&logo=n&fmt=png&od=1&shading=hill&pp=24.67177,92.563416;dfp"
  },
  {
    "name": "Medtech Multispeciality Clinic & Diagnostics",
    "address": "1ST Floor, Monohar Complex, RP Road, Hailakandi, OPP Bsnl Office, Hailakandi, Assam 788155",
    "phone": "Medtech Multispeciality Clinic & Diagnostics",
    "hours": null,
    "image_url": "https://www.bing.com/maps/geoplat/REST/v1/Imagery/Map/RoadVibrant?ms=92,112&key=AnTcaqBi2ypp0xI-OZNi4W_ik2KhjgpqioTAtXLC8GzkMBQRMlyxvxyTnd5b73im&c=en-US&ur=in&da=n&logo=n&fmt=png&od=1&shading=hill&pp=24.806961,92.800072;dfp"
  },
  {
    "name": "Siu-Ka-Pha City Clinic",
    "address": "Station Road, Badarpur, Assam 788803",
    "phone": "Siu-Ka-Pha City Clinic",
    "hours": null,
    "image_url": "https://www.bing.com/maps/geoplat/REST/v1/Imagery/Map/RoadVibrant?ms=92,112&key=AnTcaqBi2ypp0xI-OZNi4W_ik2KhjgpqioTAtXLC8GzkMBQRMlyxvxyTnd5b73im&c=en-US&ur=in&da=n&logo=n&fmt=png&od=1&shading=hill&pp=24.866728,92.560104;dfp"
  },
  {
    "name": "Dr. Shashi Bhushan Institute of Education",
    "address": "Boalipar Bazar, Lakshirbond, Algapur, Assam 788152",
    "phone": "Dr. Shashi Bhushan Institute of Education",
    "hours": null,
    "image_url": "/th?id=OLC.DM%2fA6h6v2%2fJWtg480x360&w=92&h=112&c=8&rs=1&qlt=80&cdv=1&pid=Local"
  },
  {
    "name": "Assam Diagnostic Centre",
    "address": "Lala Rd, Near Santosh Kumar Roy Civil Hispital, Ward No- 4, Hailakandi, Assam",
    "phone": "Assam Diagnostic Centre",
    "hours": null,
    "image_url": "https://www.bing.com/maps/geoplat/REST/v1/Imagery/Map/RoadVibrant?ms=92,112&key=AnTcaqBi2ypp0xI-OZNi4W_ik2KhjgpqioTAtXLC8GzkMBQRMlyxvxyTnd5b73im&c=en-US&ur=in&da=n&logo=n&fmt=png&od=1&shading=hill&pp=24.612507,92.62841;dfp"
  },
  {
    "name": "Dr. Sashi Bhushan Institute of Education",
    "address": "NH154, Boalipar, Algapur, Assam 788152",
    "phone": "Dr. Sashi Bhushan Institute of Education",
    "hours": null,
    "image_url": null
  },
  {
    "name": "Dr. Md Jafar Sadik Choudhury | General Physician | Choudhury Medicare",
    "address": "Choudhury Medicare, Chiribond Road, Lala, Assam, India, 788163, Lala, Madhya Pradesh 788163",
    "phone": "Dr. Md Jafar Sadik Choudhury | General Physician | Choudhury Medicare",
    "hours": "Open· Closes 18:00",
    "image_url": null
  }
]