[
  {
    "name": "Dr Atul Gupta's Clinic, Barsar, Hamirpur H.P.",
    "address": "M 39, Housing Board Colony, Hamirpur Rd, Galore, Hamirpur, Himachal Pradesh",
    "phone": "Dr Atul Gupta's Clinic, Barsar, Hamirpur H.P.",
    "hours": "Open· Closes 16:15",
    "image_url": "/th?id=OLC.0F6OAMYcDnWJ1w480x360&w=92&h=134&c=8&rs=1&qlt=80&cdv=1&pid=Local"
  },
  {
    "name": "DR. A.S. Thakur Memorial Multispeciality Hospital",
    "address": "C/o Mr Prem Pal Singh Thakur Thakur Surgical & Maternity, Nursin G Home, Hamirpur District, Himachal …",
    "phone": "DR. A.S. Thakur Memorial Multispeciality Hospital",
    "hours": null,
    "image_url": "https://www.bing.com/maps/geoplat/REST/v1/Imagery/Map/RoadVibrant?ms=92,112&key=AnTcaqBi2ypp0xI-OZNi4W_ik2KhjgpqioTAtXLC8GzkMBQRMlyxvxyTnd5b73im&c=en-US&ur=in&da=n&logo=n&fmt=png&od=1&shading=hill&pp=31.68342,76.523163;dfp"
  },
  {
    "name": "Dr. A.S.Thakur Memorial Multispeciality Hospital",
    "address": "Ward No, 8, Hamirpur-Nadaun Rd, Galore, Hamirpur, Himachal Pradesh",
    "phone": "Dr. A.S.Thakur Memorial Multispeciality Hospital",
    "hours": null,
    "image_url": "https://www.bing.com/maps/geoplat/REST/v1/Imagery/Map/RoadVibrant?ms=92,112&key=AnTcaqBi2ypp0xI-OZNi4W_ik2KhjgpqioTAtXLC8GzkMBQRMlyxvxyTnd5b73im&c=en-US&ur=in&da=n&logo=n&fmt=png&od=1&shading=hill&pp=31.687641,76.517166;dfp"
  },
  {
    "name": "Chandel Clinic Tarkwari",
    "address": "Tarkwari, Hamirpur, Himachal Pradesh 177001",
    "phone": "Chandel Clinic Tarkwari",
    "hours": null,
    "image_url": "/th?id=OLC.WnVF3EO5J%2bvNGw480x360&w=92&h=112&c=8&rs=1&qlt=80&cdv=1&pid=Local"
  },
  {
    "name": "Sharma Clinic",
    "address": "Hamirpur Main Market Road, Hamirpur, Himachal Pradesh",
    "phone": "Sharma Clinic",
    "hours": null,
    "image_url": "/th?id=OLC.pW8t56SEelM17w480x360&w=92&h=112&c=8&rs=1&qlt=80&cdv=1&pid=Local"
  },
  {
    "name": "Angaria Health Clinic",
    "address": "Sh3, Govt Middle School Kalanjhari Devi, Sarahkar, Hamirpur, Himachal Pradesh 177001",
    "phone": "Angaria Health Clinic",
    "hours": null,
    "image_url": "https://www.bing.com/maps/geoplat/REST/v1/Imagery/Map/RoadVibrant?ms=92,112&key=AnTcaqBi2ypp0xI-OZNi4W_ik2KhjgpqioTAtXLC8GzkMBQRMlyxvxyTnd5b73im&c=en-US&ur=in&da=n&logo=n&fmt=png&od=1&shading=hill&pp=31.715153,76.538391;dfp"
  },
  {
    "name": "Art Centre Dr Rkgmc Hospital Hamirpur",
    "address": "Unnamed Road Agriculture Colony Ham…, Hamirpur - Himachal Pradesh",
    "phone": "Art Centre Dr Rkgmc Hospital Hamirpur",
    "hours": null,
    "image_url": "https://www.bing.com/maps/geoplat/REST/v1/Imagery/Map/RoadVibrant?ms=92,112&key=AnTcaqBi2ypp0xI-OZNi4W_ik2KhjgpqioTAtXLC8GzkMBQRMlyxvxyTnd5b73im&c=en-US&ur=in&da=n&logo=n&fmt=png&od=1&shading=hill&pp=31.678928,76.525772;dfp"
  },
  {
    "name": "Shiv Shakti Health Care Clinic",
    "address": "Bilaspur Road, Dukda, Hamirpur, Himachal Pradesh 176110",
    "phone": "Shiv Shakti Health Care Clinic",
    "hours": null,
    "image_url": "https://www.bing.com/maps/geoplat/REST/v1/Imagery/Map/RoadVibrant?ms=92,112&key=AnTcaqBi2ypp0xI-OZNi4W_ik2KhjgpqioTAtXLC8GzkMBQRMlyxvxyTnd5b73im&c=en-US&ur=in&da=n&logo=n&fmt=png&od=1&shading=hill&pp=31.666801,76.539299;dfp"
  },
  {
    "name": "Sai Hospital & Ivf Centre",
    "address": "Shimla Dharamshala Road, Dugha, Hamirpur, Himachal Pradesh 177001, India, HamiRpur, Uttar Pradesh 177001",
    "phone": "Sai Hospital & Ivf Centre",
    "hours": null,
    "image_url": null
  },
  {
    "name": "Vinayak Clinic And Ayurveda Centre",
    "address": "W.n. 4, h. No. 161, Near Forest Range Office Sarkaghat, Mandi ..Hp, Sarkaghat, Himachal Pradesh 175024",
    "phone": "Vinayak Clinic And Ayurveda Centre",
    "hours": null,
    "image_url": null
  },
  {
    "name": "Dr Radhakrishnan Government Medical College Hospital, Hamirpur",
    "address": "Agriculture Colony, Hamirpur, Himachal Pradesh 177001, India, Hamirpur, Uttar Pradesh, Uttar Pradesh 177001",
    "phone": "Dr Radhakrishnan Government Medical College Hospital, Hamirpur",
    "hours": null,
    "image_url": "https://www.bing.com/maps/geoplat/REST/v1/Imagery/Map/RoadVibrant?ms=92,112&key=AnTcaqBi2ypp0xI-OZNi4W_ik2KhjgpqioTAtXLC8GzkMBQRMlyxvxyTnd5b73im&c=en-US&ur=in&da=n&logo=n&fmt=png&od=1&shading=hill&pp=31.678928,76.525772;dfp"
  },
  {
    "name": "Lakhanpal Clinic",
    "address": "Sarkaghat Road, Anu, Hamirpur, Himachal Pradesh 176215",
    "phone": "Lakhanpal Clinic",
    "hours": null,
    "image_url": "https://www.bing.com/maps/geoplat/REST/v1/Imagery/Map/RoadVibrant?ms=92,112&key=AnTcaqBi2ypp0xI-OZNi4W_ik2KhjgpqioTAtXLC8GzkMBQRMlyxvxyTnd5b73im&c=en-US&ur=in&da=n&logo=n&fmt=png&od=1&shading=hill&pp=31.714228,76.527679;dfp"
  },
  {
    "name": "District Ayurvedic Hospital Hamirpur",
    "address": "Hospital Rd, Sundar Bagh Colony, Nahan, Himachal Pradesh 173001, India, Hamirpur, Himachal Pradesh 1…",
    "phone": "District Ayurvedic Hospital Hamirpur",
    "hours": null,
    "image_url": null
  },
  {
    "name": "Jagota Clinic",
    "address": "Nh3, Bharat Petroleum Station, Hamirpur, Himachal Pradesh 177001",
    "phone": "Jagota Clinic",
    "hours": null,
    "image_url": "https://www.bing.com/maps/geoplat/REST/v1/Imagery/Map/RoadVibrant?ms=92,112&key=AnTcaqBi2ypp0xI-OZNi4W_ik2KhjgpqioTAtXLC8GzkMBQRMlyxvxyTnd5b73im&c=en-US&ur=in&da=n&logo=n&fmt=png&od=1&shading=hill&pp=31.688717,76.518089;dfp"
  },
  {
    "name": "Soni Clinic",
    "address": "Hamirpur Galour Road, Housing Board Colony, Hamirpur, Himachal Pradesh 177001",
    "phone": "Soni Clinic",
    "hours": null,
    "image_url": "https://www.bing.com/maps/geoplat/REST/v1/Imagery/Map/RoadVibrant?ms=92,112&key=AnTcaqBi2ypp0xI-OZNi4W_ik2KhjgpqioTAtXLC8GzkMBQRMlyxvxyTnd5b73im&c=en-US&ur=in&da=n&logo=n&fmt=png&od=1&shading=hill&pp=31.687559,76.510231;dfp"
  },
  {
    "name": "Himachal Clinic",
    "address": "Tibbi, Nh70 Nadaun Road, Amb, Himachal Pradesh 177203",
    "phone": "Himachal Clinic",
    "hours": null,
    "image_url": "https://www.bing.com/maps/geoplat/REST/v1/Imagery/Map/RoadVibrant?ms=92,112&key=AnTcaqBi2ypp0xI-OZNi4W_ik2KhjgpqioTAtXLC8GzkMBQRMlyxvxyTnd5b73im&c=en-US&ur=in&da=n&logo=n&fmt=png&od=1&shading=hill&pp=31.69813,76.499008;dfp"
  },
  {
    "name": "Dr. Akash Thakur Pediatrican",
    "address": "Dr. Akash Thakur, Hamirpur, Himachal Pradesh, India, 177001, Hamirpur, Madhya Pradesh 177001",
    "phone": "Dr. Akash Thakur Pediatrican",
    "hours": "Open· Closes 17:00",
    "image_url": null
  },
  {
    "name": "Dr Patial's Smile Care Dental Hospital And Implant Centre-hamirpur",
    "address": "House No 431 Ward No 8. Near Hrtc Workshop, Hamirpur, Himachal Pradesh",
    "phone": "Dr Patial's Smile Care Dental Hospital And Implant Centre-hamirpur",
    "hours": null,
    "image_url": "https://www.bing.com/maps/geoplat/REST/v1/Imagery/Map/RoadVibrant?ms=92,112&key=AnTcaqBi2ypp0xI-OZNi4W_ik2KhjgpqioTAtXLC8GzkMBQRMlyxvxyTnd5b73im&c=en-US&ur=in&da=n&logo=n&fmt=png&od=1&shading=hill&pp=31.688208,76.515404;dfp"
  }
]