[
  {
    "name": "Dr Sandeep Saharan",
    "address": "Saharan Colony, Rawatsar Road, Opp Lane No. 11, Hanumangarh, Rajasthan, Rajasthan 335513",
    "phone": "Dr Sandeep Saharan",
    "hours": null,
    "image_url": "/th?id=OLC.Gl3sea8CQxs0Eg480x360&w=92&h=112&c=8&rs=1&qlt=80&cdv=1&pid=Local"
  },
  {
    "name": "Dr. B.K. Chawla",
    "address": "Near Karwasara Complex, Vikas Nagar, Hanumangarh Jn, Hanumangarh – 335512, Hanumangarh, Rajasthan",
    "phone": "Dr. B.K. Chawla",
    "hours": "Open· Closes 14:00",
    "image_url": "/th?id=OLC.tCRY8%2bFQBTJMiA480x360&w=92&h=112&c=8&rs=1&qlt=80&cdv=1&pid=Local"
  },
  {
    "name": "Dr Ravi Trehan Hospital",
    "address": "Sh36, Near Samrat Hotel, Hanumangarh, Rajasthan 335512",
    "phone": "Dr Ravi Trehan Hospital",
    "hours": null,
    "image_url": "/th?id=OLC.WQHkqnzHnVRjfQ480x360&w=92&h=112&c=8&rs=1&qlt=80&cdv=1&pid=Local"
  },
  {
    "name": "Dr. Aditya Chawla - Best Laparoscopic Surgeon  | Appendix, Gallstones, Hernia, Minimally Invasive Surgery",
    "address": "Chawla Nursing Home, Baba Shyam Singh Colony, Hanumangarh, Rajasthan 335512",
    "phone": "Dr. Aditya Chawla - Best Laparoscopic Surgeon  | Appendix, Gallstones, Hernia, Minimally Invasive Surgery",
    "hours": "Open· Closes 17:00",
    "image_url": "https://www.bing.com/maps/geoplat/REST/v1/Imagery/Map/RoadVibrant?ms=92,134&key=AnTcaqBi2ypp0xI-OZNi4W_ik2KhjgpqioTAtXLC8GzkMBQRMlyxvxyTnd5b73im&c=en-US&ur=in&da=n&logo=n&fmt=png&od=1&shading=hill&pp=29.604334,74.290466;dfp"
  },
  {
    "name": "Sarswat Ayush Hospital - Ayurvedic Doctor | Sexologist",
    "address": "Bhagat Singh Chowk, Junction, Hanumangarh, Rajasthan",
    "phone": "Sarswat Ayush Hospital - Ayurvedic Doctor | Sexologist",
    "hours": null,
    "image_url": "/th?id=OLC.xrx04LQWVJaxtQ480x360&w=92&h=112&c=8&rs=1&qlt=80&cdv=1&pid=Local"
  },
  {
    "name": "Dr. Ajeet Singh Nirwan",
    "address": "Shekhawat Clinic A/1 Doctors Quaters, Government Hospital Campus, Chomu, Rajasthan",
    "phone": "Dr. Ajeet Singh Nirwan",
    "hours": null,
    "image_url": "https://www.bing.com/maps/geoplat/REST/v1/Imagery/Map/RoadVibrant?ms=92,112&key=AnTcaqBi2ypp0xI-OZNi4W_ik2KhjgpqioTAtXLC8GzkMBQRMlyxvxyTnd5b73im&c=en-US&ur=in&da=n&logo=n&fmt=png&od=1&shading=hill&pp=29.608362,74.285248;dfp"
  },
  {
    "name": "Dr.Shweta's Multispeciality Homoeopathic Clinic",
    "address": "Dr.Shweta's Multispeciality Homoeopatic Clinic, Jangid-Suthar Dharamshala, Court Road, Opposite Dhan Man…",
    "phone": "Dr.Shweta's Multispeciality Homoeopathic Clinic",
    "hours": "Open· Closes 13:00",
    "image_url": "https://www.bing.com/maps/geoplat/REST/v1/Imagery/Map/RoadVibrant?ms=92,134&key=AnTcaqBi2ypp0xI-OZNi4W_ik2KhjgpqioTAtXLC8GzkMBQRMlyxvxyTnd5b73im&c=en-US&ur=in&da=n&logo=n&fmt=png&od=1&shading=hill&pp=29.62401,74.305;dfp"
  },
  {
    "name": "Jodhpur Cancer Clinic",
    "address": "18 A, Light Industrial Area, Cazri Road, Jodhpur, Rajasthan 342003",
    "phone": "Jodhpur Cancer Clinic",
    "hours": "Closed· Opens 18:00",
    "image_url": null
  },
  {
    "name": "Dr Pradeep Sharma, Physiotherapy Clinic",
    "address": "Sec.no.12, Near Khalsa College, Hanumangarh, Rajasthan 335512, India, Hanumangarh, Rajasthan 33…",
    "phone": "Dr Pradeep Sharma, Physiotherapy Clinic",
    "hours": null,
    "image_url": null
  },
  {
    "name": "Shri Guru Harkrishan Ayurveda and Panchkarma Hospital",
    "address": "27, Sector 12, Suratgarh Road, Junction, Near Bachnidevi Hospital, Hanumangarh, Rajasthan",
    "phone": "Shri Guru Harkrishan Ayurveda and Panchkarma Hospital",
    "hours": null,
    "image_url": "https://www.bing.com/maps/geoplat/REST/v1/Imagery/Map/RoadVibrant?ms=92,112&key=AnTcaqBi2ypp0xI-OZNi4W_ik2KhjgpqioTAtXLC8GzkMBQRMlyxvxyTnd5b73im&c=en-US&ur=in&da=n&logo=n&fmt=png&od=1&shading=hill&pp=29.608349,74.280815;dfp"
  },
  {
    "name": "Bansal Nursing Home - Top & Best Gynecologist & Obstetrician Doctors Gynae Hospital",
    "address": "Sri, Ganganagar Rd, opp. Icici Bank, Durga Colony, Hanumangarh, Rajasthan",
    "phone": "Bansal Nursing Home - Top & Best Gynecologist & Obstetrician Doctors Gynae Hospital",
    "hours": null,
    "image_url": "https://www.bing.com/maps/geoplat/REST/v1/Imagery/Map/RoadVibrant?ms=92,112&key=AnTcaqBi2ypp0xI-OZNi4W_ik2KhjgpqioTAtXLC8GzkMBQRMlyxvxyTnd5b73im&c=en-US&ur=in&da=n&logo=n&fmt=png&od=1&shading=hill&pp=29.605438,74.289696;dfp"
  },
  {
    "name": "Dr. Sukh Veer singh- General physician",
    "address": "Sukh Veer Gett, Railway Over Bridge, Rawat Sir Road, Hanumangarh, Rajasthan 335513",
    "phone": "Dr. Sukh Veer singh- General physician",
    "hours": "Open· Closes 14:00",
    "image_url": "https://www.bing.com/maps/geoplat/REST/v1/Imagery/Map/RoadVibrant?ms=92,134&key=AnTcaqBi2ypp0xI-OZNi4W_ik2KhjgpqioTAtXLC8GzkMBQRMlyxvxyTnd5b73im&c=en-US&ur=in&da=n&logo=n&fmt=png&od=1&shading=hill&pp=29.581501,74.329422;dfp"
  },
  {
    "name": "Shanti Homeopathic Clinic",
    "address": "Chungi no.6, Near Chhabra Hospital, Kiryana Bhawan Road, Hanumangarh, Rajasthan 335513",
    "phone": "Shanti Homeopathic Clinic",
    "hours": "Open· Closes 20:00",
    "image_url": null
  },
  {
    "name": "Kashnia ENT CARE Centre",
    "address": "Near Town-Juction Road & Naali BED (Gaghar River) Bridge & Infront OF Farm Trac Showroom Hanumangar…",
    "phone": "Kashnia ENT CARE Centre",
    "hours": "Open· Closes 15:00",
    "image_url": "https://www.bing.com/maps/geoplat/REST/v1/Imagery/Map/RoadVibrant?ms=92,134&key=AnTcaqBi2ypp0xI-OZNi4W_ik2KhjgpqioTAtXLC8GzkMBQRMlyxvxyTnd5b73im&c=en-US&ur=in&da=n&logo=n&fmt=png&od=1&shading=hill&pp=29.605618,74.292702;dfp"
  },
  {
    "name": "Sanjeevni Homeo Clinic Dr. Deepika Arora",
    "address": "Sector 6, Hanumangarh, Rajasthan",
    "phone": "Sanjeevni Homeo Clinic Dr. Deepika Arora",
    "hours": null,
    "image_url": "https://www.bing.com/maps/geoplat/REST/v1/Imagery/Map/RoadVibrant?ms=92,112&key=AnTcaqBi2ypp0xI-OZNi4W_ik2KhjgpqioTAtXLC8GzkMBQRMlyxvxyTnd5b73im&c=en-US&ur=in&da=n&logo=n&fmt=png&od=1&shading=hill&pp=29.603535,74.276321;dfp"
  },
  {
    "name": "Dr. Pratap Singh Shekhawat- General Physician",
    "address": "Shekhawat Hospital, Hanumangarh, Rajasthan 335513",
    "phone": "Dr. Pratap Singh Shekhawat- General Physician",
    "hours": "Closed· Opens 11:00",
    "image_url": null
  }
]