[
  {
    "name": "Dr. Brijesh Heda- General Physician",
    "address": "Shri Venkatesh Hospital, Harda, Madhya Pradesh 461331",
    "phone": "Dr. Brijesh Heda- General Physician",
    "hours": "OpenÂ· Closes 17:30",
    "image_url": "https://www.bing.com/maps/geoplat/REST/v1/Imagery/Map/RoadVibrant?ms=92,134&key=AnTcaqBi2ypp0xI-OZNi4W_ik2KhjgpqioTAtXLC8GzkMBQRMlyxvxyTnd5b73im&c=en-US&ur=in&da=n&logo=n&fmt=png&od=1&shading=hill&pp=22.346701,77.086853;dfp"
  },
  {
    "name": "Dr RK Garg Clinic",
    "address": "Indore Road, Near Gurudwara, Harda, Madhya Pradesh 461331",
    "phone": "Dr RK Garg Clinic",
    "hours": null,
    "image_url": "https://www.bing.com/maps/geoplat/REST/v1/Imagery/Map/RoadVibrant?ms=92,112&key=AnTcaqBi2ypp0xI-OZNi4W_ik2KhjgpqioTAtXLC8GzkMBQRMlyxvxyTnd5b73im&c=en-US&ur=in&da=n&logo=n&fmt=png&od=1&shading=hill&pp=22.340435,77.095314;dfp"
  },
  {
    "name": "Doctor Bharat Kumar Katkar",
    "address": "Indore Road, Icici Bank Atm, Harda, Madhya Pradesh 461331",
    "phone": "Doctor Bharat Kumar Katkar",
    "hours": null,
    "image_url": "https://www.bing.com/maps/geoplat/REST/v1/Imagery/Map/RoadVibrant?ms=92,112&key=AnTcaqBi2ypp0xI-OZNi4W_ik2KhjgpqioTAtXLC8GzkMBQRMlyxvxyTnd5b73im&c=en-US&ur=in&da=n&logo=n&fmt=png&od=1&shading=hill&pp=22.342257,77.0896;dfp"
  },
  {
    "name": "Dr JP Buch Clinic",
    "address": "Station Road, Harda Adarsh College, Harda, Madhya Pradesh 461331",
    "phone": "Dr JP Buch Clinic",
    "hours": null,
    "image_url": "https://www.bing.com/maps/geoplat/REST/v1/Imagery/Map/RoadVibrant?ms=92,112&key=AnTcaqBi2ypp0xI-OZNi4W_ik2KhjgpqioTAtXLC8GzkMBQRMlyxvxyTnd5b73im&c=en-US&ur=in&da=n&logo=n&fmt=png&od=1&shading=hill&pp=22.339088,77.093132;dfp"
  },
  {
    "name": "Bhagwat Clinic",
    "address": "Harda Road, Harda, Madhya Pradesh 461331",
    "phone": "Bhagwat Clinic",
    "hours": null,
    "image_url": "https://www.bing.com/maps/geoplat/REST/v1/Imagery/Map/RoadVibrant?ms=92,112&key=AnTcaqBi2ypp0xI-OZNi4W_ik2KhjgpqioTAtXLC8GzkMBQRMlyxvxyTnd5b73im&c=en-US&ur=in&da=n&logo=n&fmt=png&od=1&shading=hill&pp=22.340071,77.098534;dfp"
  },
  {
    "name": "Najeer Clinic",
    "address": "Golapura, Nh12, Harda, Madhya Pradesh 461331",
    "phone": "Najeer Clinic",
    "hours": null,
    "image_url": "https://www.bing.com/maps/geoplat/REST/v1/Imagery/Map/RoadVibrant?ms=92,112&key=AnTcaqBi2ypp0xI-OZNi4W_ik2KhjgpqioTAtXLC8GzkMBQRMlyxvxyTnd5b73im&c=en-US&ur=in&da=n&logo=n&fmt=png&od=1&shading=hill&pp=22.336857,77.08522;dfp"
  },
  {
    "name": "Baghel Hospital And Research Centre",
    "address": "Station Road, Harda Adarsh College, Harda, Madhya Pradesh 461331",
    "phone": "Baghel Hospital And Research Centre",
    "hours": null,
    "image_url": null
  },
  {
    "name": "Dr Manish Sharma",
    "address": "Nikunj Royal City, Behind Lbs Collage Harda, Harda, Madhya Pradesh 461331",
    "phone": "Dr Manish Sharma",
    "hours": null,
    "image_url": "https://www.bing.com/maps/geoplat/REST/v1/Imagery/Map/RoadVibrant?ms=92,112&key=AnTcaqBi2ypp0xI-OZNi4W_ik2KhjgpqioTAtXLC8GzkMBQRMlyxvxyTnd5b73im&c=en-US&ur=in&da=n&logo=n&fmt=png&od=1&shading=hill&pp=22.342093,77.092102;dfp"
  },
  {
    "name": "Somani Clinic",
    "address": "Near Nehru Stadium Gate NO 04, Harda, Madhya Pradesh 461331",
    "phone": "Somani Clinic",
    "hours": null,
    "image_url": "https://www.bing.com/maps/geoplat/REST/v1/Imagery/Map/RoadVibrant?ms=92,112&key=AnTcaqBi2ypp0xI-OZNi4W_ik2KhjgpqioTAtXLC8GzkMBQRMlyxvxyTnd5b73im&c=en-US&ur=in&da=n&logo=n&fmt=png&od=1&shading=hill&pp=22.338737,77.089928;dfp"
  },
  {
    "name": "Baghel Polyclinic and Dialysis Center",
    "address": "Shivam Vatika, Baghel Hospital, Harda, Madhya Pradesh 461331",
    "phone": "Baghel Polyclinic and Dialysis Center",
    "hours": null,
    "image_url": "https://www.bing.com/maps/geoplat/REST/v1/Imagery/Map/RoadVibrant?ms=92,112&key=AnTcaqBi2ypp0xI-OZNi4W_ik2KhjgpqioTAtXLC8GzkMBQRMlyxvxyTnd5b73im&c=en-US&ur=in&da=n&logo=n&fmt=png&od=1&shading=hill&pp=22.339148,77.093025;dfp"
  },
  {
    "name": "Apoorva Laser And Feco Clinic",
    "address": "Indore Road, Tilak Bhawan Chowk, Harda, Madhya Pradesh 461331",
    "phone": "Apoorva Laser And Feco Clinic",
    "hours": null,
    "image_url": "https://www.bing.com/maps/geoplat/REST/v1/Imagery/Map/RoadVibrant?ms=92,112&key=AnTcaqBi2ypp0xI-OZNi4W_ik2KhjgpqioTAtXLC8GzkMBQRMlyxvxyTnd5b73im&c=en-US&ur=in&da=n&logo=n&fmt=png&od=1&shading=hill&pp=22.339048,77.087448;dfp"
  },
  {
    "name": "Cars Clinic",
    "address": "SAI Mandir KE Samne, Indore Road, Harda, Madhya Pradesh 461331",
    "phone": "Cars Clinic",
    "hours": null,
    "image_url": "https://www.bing.com/maps/geoplat/REST/v1/Imagery/Map/RoadVibrant?ms=92,112&key=AnTcaqBi2ypp0xI-OZNi4W_ik2KhjgpqioTAtXLC8GzkMBQRMlyxvxyTnd5b73im&c=en-US&ur=in&da=n&logo=n&fmt=png&od=1&shading=hill&pp=22.336918,77.095558;dfp"
  },
  {
    "name": "Doctor Choure Dental Clinic",
    "address": "Chhipaner Road, Geeta Bhawan Shankar Mandir, Harda, Madhya Pradesh 461331",
    "phone": "Doctor Choure Dental Clinic",
    "hours": null,
    "image_url": "https://www.bing.com/maps/geoplat/REST/v1/Imagery/Map/RoadVibrant?ms=92,112&key=AnTcaqBi2ypp0xI-OZNi4W_ik2KhjgpqioTAtXLC8GzkMBQRMlyxvxyTnd5b73im&c=en-US&ur=in&da=n&logo=n&fmt=png&od=1&shading=hill&pp=22.34115,77.094025;dfp"
  },
  {
    "name": "Nidan Pathology Center",
    "address": "Indore Road, Tilak Bhawan Chowk, Harda, Madhya Pradesh 461331",
    "phone": "Nidan Pathology Center",
    "hours": null,
    "image_url": "https://www.bing.com/maps/geoplat/REST/v1/Imagery/Map/RoadVibrant?ms=92,112&key=AnTcaqBi2ypp0xI-OZNi4W_ik2KhjgpqioTAtXLC8GzkMBQRMlyxvxyTnd5b73im&c=en-US&ur=in&da=n&logo=n&fmt=png&od=1&shading=hill&pp=22.338305,77.087669;dfp"
  },
  {
    "name": "Shreya Sonography",
    "address": "Station Road, Shiv Mandir, Harda, Madhya Pradesh 461331",
    "phone": "Shreya Sonography",
    "hours": null,
    "image_url": "https://www.bing.com/maps/geoplat/REST/v1/Imagery/Map/RoadVibrant?ms=92,112&key=AnTcaqBi2ypp0xI-OZNi4W_ik2KhjgpqioTAtXLC8GzkMBQRMlyxvxyTnd5b73im&c=en-US&ur=in&da=n&logo=n&fmt=png&od=1&shading=hill&pp=22.341261,77.09227;dfp"
  },
  {
    "name": "Car Clinic",
    "address": "NH 59A, Indore Road, Harda, Madhya Pradesh 461331",
    "phone": "Car Clinic",
    "hours": null,
    "image_url": "https://www.bing.com/maps/geoplat/REST/v1/Imagery/Map/RoadVibrant?ms=92,112&key=AnTcaqBi2ypp0xI-OZNi4W_ik2KhjgpqioTAtXLC8GzkMBQRMlyxvxyTnd5b73im&c=en-US&ur=in&da=n&logo=n&fmt=png&od=1&shading=hill&pp=22.345039,77.089546;dfp"
  },
  {
    "name": "Ali Pathology Lab",
    "address": "Fashion Market Road, Ghanta Ghar, Harda, Madhya Pradesh 461331",
    "phone": "Ali Pathology Lab",
    "hours": null,
    "image_url": "https://www.bing.com/maps/geoplat/REST/v1/Imagery/Map/RoadVibrant?ms=92,112&key=AnTcaqBi2ypp0xI-OZNi4W_ik2KhjgpqioTAtXLC8GzkMBQRMlyxvxyTnd5b73im&c=en-US&ur=in&da=n&logo=n&fmt=png&od=1&shading=hill&pp=22.337433,77.089745;dfp"
  },
  {
    "name": "Thyrocare Pathology Lab",
    "address": "Chhipaner Road, Geeta Bhawan Shankar Mandir, Harda, Madhya Pradesh 461331",
    "phone": "Thyrocare Pathology Lab",
    "hours": null,
    "image_url": "https://www.bing.com/maps/geoplat/REST/v1/Imagery/Map/RoadVibrant?ms=92,112&key=AnTcaqBi2ypp0xI-OZNi4W_ik2KhjgpqioTAtXLC8GzkMBQRMlyxvxyTnd5b73im&c=en-US&ur=in&da=n&logo=n&fmt=png&od=1&shading=hill&pp=22.346371,77.092293;dfp"
  }
]