[
  {
    "name": "Dr. Rishabh Dixit",
    "address": "Plot.173, Ranipur More, New Haridwar Colony, Haridwar",
    "phone": "Dr. Rishabh Dixit",
    "hours": "Open· Closes 12:00",
    "image_url": "/th?id=OLC.GxQDiD0f7v%2f5Ew480x360&w=92&h=112&c=8&rs=1&qlt=80&cdv=1&pid=Local"
  },
  {
    "name": "Dr. Mukul Benjwal",
    "address": "Kankhal, Landmark: Near Thanda Kua & Pahari Bazaar, Haridwar",
    "phone": "Dr. Mukul Benjwal",
    "hours": "Open· Closes 12:30",
    "image_url": "https://www.bing.com/maps/geoplat/REST/v1/Imagery/Map/RoadVibrant?ms=92,112&key=AnTcaqBi2ypp0xI-OZNi4W_ik2KhjgpqioTAtXLC8GzkMBQRMlyxvxyTnd5b73im&c=en-US&ur=in&da=n&logo=n&fmt=png&od=1&shading=hill&pp=29.92989,78.15004;dfp"
  },
  {
    "name": "Dr sameer singh",
    "address": "71 Nirmala Chhawani, Haridwar, Uttarakhand, Uttarakhand 249402",
    "phone": "Dr sameer singh",
    "hours": null,
    "image_url": "/th?id=OLC.H%2fr9C6okXG9zYw480x360&w=92&h=112&c=8&rs=1&qlt=80&cdv=1&pid=Local"
  },
  {
    "name": "Dr Batra’s Homeopathy, Hair & Skin Clinic",
    "address": "No. 486, 1st Floor, Model Colony, Ranipur More, Opp. Mahakali Mobile, Haridwar, Uttarakhand 249401",
    "phone": "Dr Batra’s Homeopathy, Hair & Skin Clinic",
    "hours": "Closed· Opens tomorrow 11:00",
    "image_url": "/th?id=OLC.oUId9Aoq3Ec8FA480x360&w=92&h=134&c=8&rs=1&qlt=80&cdv=1&pid=Local"
  },
  {
    "name": "Siddhi Vinayak Clinic (Panchkarma Centre)",
    "address": "2/15, Vanprastha Ashram, Nearpnb, Jwalapur, Haridwar, Uttarakhand",
    "phone": "Siddhi Vinayak Clinic (Panchkarma Centre)",
    "hours": null,
    "image_url": "https://www.bing.com/maps/geoplat/REST/v1/Imagery/Map/RoadVibrant?ms=92,112&key=AnTcaqBi2ypp0xI-OZNi4W_ik2KhjgpqioTAtXLC8GzkMBQRMlyxvxyTnd5b73im&c=en-US&ur=in&da=n&logo=n&fmt=png&od=1&shading=hill&pp=29.925291,78.137466;dfp"
  },
  {
    "name": "Dr. Jaspreet Singh",
    "address": "H. 0, 1, Heera Complex, Near Vinayak Hotel, Ranipur More, Mayapur, Haridwar 249401",
    "phone": "Dr. Jaspreet Singh",
    "hours": null,
    "image_url": "https://www.bing.com/maps/geoplat/REST/v1/Imagery/Map/RoadVibrant?ms=92,112&key=AnTcaqBi2ypp0xI-OZNi4W_ik2KhjgpqioTAtXLC8GzkMBQRMlyxvxyTnd5b73im&c=en-US&ur=in&da=n&logo=n&fmt=png&od=1&shading=hill&pp=29.933975,78.135422;dfp"
  },
  {
    "name": "Dr Vashistha Clinic",
    "address": "Madhya Marg, Bhagat Singh Chowk, Shivlok Colony Bhel Township Haridwar, Haridwar, Uttarakhand 249403",
    "phone": "Dr Vashistha Clinic",
    "hours": null,
    "image_url": "https://www.bing.com/maps/geoplat/REST/v1/Imagery/Map/RoadVibrant?ms=92,112&key=AnTcaqBi2ypp0xI-OZNi4W_ik2KhjgpqioTAtXLC8GzkMBQRMlyxvxyTnd5b73im&c=en-US&ur=in&da=n&logo=n&fmt=png&od=1&shading=hill&pp=29.936262,78.133835;dfp"
  },
  {
    "name": "Arogyadham Clinic | Best Sexologist  for Male & Female | Ayurveda Doctor",
    "address": "Raj Nagar, Railway Road, Near Gol Gurudwara, Jwalapur, Haridwar, Uttarakhand 249407",
    "phone": "Arogyadham Clinic | Best Sexologist  for Male & Female | Ayurveda Doctor",
    "hours": "Open· Closes 22:00",
    "image_url": null
  },
  {
    "name": "Shri Dr Giridhari Lal Clinic",
    "address": "Near Haridwar Main Road, Hotel Fiesta, Devpura Haridwar, Haridwar, Uttarakhand 249401",
    "phone": "Shri Dr Giridhari Lal Clinic",
    "hours": null,
    "image_url": "https://www.bing.com/maps/geoplat/REST/v1/Imagery/Map/RoadVibrant?ms=92,112&key=AnTcaqBi2ypp0xI-OZNi4W_ik2KhjgpqioTAtXLC8GzkMBQRMlyxvxyTnd5b73im&c=en-US&ur=in&da=n&logo=n&fmt=png&od=1&shading=hill&pp=29.934031,78.137596;dfp"
  },
  {
    "name": "Dr Anant Ram Clinic",
    "address": "Ram Ghat Road, Badi Sabzi Mandi Chowk, Ram Ghat Haridwar, Haridwar, Uttarakhand 249401",
    "phone": "Dr Anant Ram Clinic",
    "hours": null,
    "image_url": "https://www.bing.com/maps/geoplat/REST/v1/Imagery/Map/RoadVibrant?ms=92,112&key=AnTcaqBi2ypp0xI-OZNi4W_ik2KhjgpqioTAtXLC8GzkMBQRMlyxvxyTnd5b73im&c=en-US&ur=in&da=n&logo=n&fmt=png&od=1&shading=hill&pp=29.952663,78.166275;dfp"
  },
  {
    "name": "Kayakalp Clinic",
    "address": "Aryanagar, Jwalapur - Haridwar (Uttarakhand), Haridwar, Uttarakhand, Uttarakhand 249408",
    "phone": "Kayakalp Clinic",
    "hours": null,
    "image_url": null
  },
  {
    "name": "Sagar Clinic",
    "address": "Bhola Giri Road, Devibai Sindhi Dharamshala, Birla Ghat Haridwar, Haridwar, Uttarakhand 249401",
    "phone": "Sagar Clinic",
    "hours": null,
    "image_url": "https://www.bing.com/maps/geoplat/REST/v1/Imagery/Map/RoadVibrant?ms=92,112&key=AnTcaqBi2ypp0xI-OZNi4W_ik2KhjgpqioTAtXLC8GzkMBQRMlyxvxyTnd5b73im&c=en-US&ur=in&da=n&logo=n&fmt=png&od=1&shading=hill&pp=29.949682,78.16095;dfp"
  },
  {
    "name": "Dr. Aditya Gupta",
    "address": "Super Complex Ranipur More Haridwar, Haridwar",
    "phone": "Dr. Aditya Gupta",
    "hours": "Closed· Opens Thu 10:00",
    "image_url": "https://www.bing.com/maps/geoplat/REST/v1/Imagery/Map/RoadVibrant?ms=92,112&key=AnTcaqBi2ypp0xI-OZNi4W_ik2KhjgpqioTAtXLC8GzkMBQRMlyxvxyTnd5b73im&c=en-US&ur=in&da=n&logo=n&fmt=png&od=1&shading=hill&pp=29.933577,78.133492;dfp"
  },
  {
    "name": "Vatsalya Child Clinic Dr. Saurabh Tripathi",
    "address": "1st Floor, Heera Complex, Near Hotel Vinayak, Railway Underpass Ranipur, More, Haridwar, Uttarakhand",
    "phone": "Vatsalya Child Clinic Dr. Saurabh Tripathi",
    "hours": null,
    "image_url": "https://www.bing.com/maps/geoplat/REST/v1/Imagery/Map/RoadVibrant?ms=92,112&key=AnTcaqBi2ypp0xI-OZNi4W_ik2KhjgpqioTAtXLC8GzkMBQRMlyxvxyTnd5b73im&c=en-US&ur=in&da=n&logo=n&fmt=png&od=1&shading=hill&pp=29.951067,78.162384;dfp"
  },
  {
    "name": "Hayat Medical Agency",
    "address": "71/16, Near Sitaram Vatika, Roorkee, Nehru Nagar, Haridwar, Uttarakhand 247667",
    "phone": "Hayat Medical Agency",
    "hours": null,
    "image_url": "https://www.bing.com/maps/geoplat/REST/v1/Imagery/Map/RoadVibrant?ms=92,112&key=AnTcaqBi2ypp0xI-OZNi4W_ik2KhjgpqioTAtXLC8GzkMBQRMlyxvxyTnd5b73im&c=en-US&ur=in&da=n&logo=n&fmt=png&od=1&shading=hill&pp=29.866398,77.873123;dfp"
  },
  {
    "name": "Dr. Rahul Budhiraja",
    "address": "Flat no 1, Maruti Vatika, Phase 1, Laksar Road, Jagjeetpur, Kankhal, Haridwar, Uttarakhand",
    "phone": "Dr. Rahul Budhiraja",
    "hours": null,
    "image_url": null
  },
  {
    "name": "Suman Skin Clinic",
    "address": "Dadu Bagh, Kankhal, Hardwar, Hardwar, Uttarakhand, Uttarakhand 249408",
    "phone": "Suman Skin Clinic",
    "hours": "Open· Closes 13:00",
    "image_url": null
  },
  {
    "name": "Skinglo Clinic Haridwar (Dr Rahul Ahar)",
    "address": "118, New Haridwar Colony, Near Matrachhaya Hospital, Haridwar, Uttarakhand 249401",
    "phone": "Skinglo Clinic Haridwar (Dr Rahul Ahar)",
    "hours": null,
    "image_url": null
  }
]