[
  {
    "name": "Dr. Naveen H",
    "address": "5th Cross, Sampige Road, Opposite Mani Hospital, Hassan, Karnataka",
    "phone": "Dr. Naveen H",
    "hours": "Open· Closes 14:30",
    "image_url": "https://www.bing.com/maps/geoplat/REST/v1/Imagery/Map/RoadVibrant?ms=92,112&key=AnTcaqBi2ypp0xI-OZNi4W_ik2KhjgpqioTAtXLC8GzkMBQRMlyxvxyTnd5b73im&c=en-US&ur=in&da=n&logo=n&fmt=png&od=1&shading=hill&pp=13.010142,76.102699;dfp"
  },
  {
    "name": "Mangala Hospital",
    "address": "Sampige Road, Krishnaraja Pura, Hassan, Karnataka 573201, India, Hassan, Karnataka 573201",
    "phone": "Mangala Hospital",
    "hours": null,
    "image_url": "https://www.bing.com/maps/geoplat/REST/v1/Imagery/Map/RoadVibrant?ms=92,112&key=AnTcaqBi2ypp0xI-OZNi4W_ik2KhjgpqioTAtXLC8GzkMBQRMlyxvxyTnd5b73im&c=en-US&ur=in&da=n&logo=n&fmt=png&od=1&shading=hill&pp=13.004711,76.107468;dfp"
  },
  {
    "name": "Sri Shaila Clinic",
    "address": "Door No 20 2nd Cross, 2nd Stage Sangameshwara Nagar, Hassan, Karnataka",
    "phone": "Sri Shaila Clinic",
    "hours": null,
    "image_url": "https://www.bing.com/maps/geoplat/REST/v1/Imagery/Map/RoadVibrant?ms=92,112&key=AnTcaqBi2ypp0xI-OZNi4W_ik2KhjgpqioTAtXLC8GzkMBQRMlyxvxyTnd5b73im&c=en-US&ur=in&da=n&logo=n&fmt=png&od=1&shading=hill&pp=13.013658,76.095245;dfp"
  },
  {
    "name": "Hemavathi Hospital",
    "address": "N W S Road, Hassan, Karnataka 573201",
    "phone": "Hemavathi Hospital",
    "hours": null,
    "image_url": "/th?id=OLC.tUc7AsZRclDiHg480x360&w=92&h=112&c=8&rs=1&qlt=80&cdv=1&pid=Local"
  },
  {
    "name": "Hamdard Clinic",
    "address": "Azad Road, Hassan, Karnataka 573201",
    "phone": "Hamdard Clinic",
    "hours": null,
    "image_url": "https://www.bing.com/maps/geoplat/REST/v1/Imagery/Map/RoadVibrant?ms=92,112&key=AnTcaqBi2ypp0xI-OZNi4W_ik2KhjgpqioTAtXLC8GzkMBQRMlyxvxyTnd5b73im&c=en-US&ur=in&da=n&logo=n&fmt=png&od=1&shading=hill&pp=13.003191,76.098083;dfp"
  },
  {
    "name": "Dr. Rangalakshmi R N- Obstetrician & Gynecologist",
    "address": "R C Road Besides Aravinda Convent, Hassan, Karnataka 573201",
    "phone": "Dr. Rangalakshmi R N- Obstetrician & Gynecologist",
    "hours": "Closed· Opens 11:00",
    "image_url": "https://www.bing.com/maps/geoplat/REST/v1/Imagery/Map/RoadVibrant?ms=92,134&key=AnTcaqBi2ypp0xI-OZNi4W_ik2KhjgpqioTAtXLC8GzkMBQRMlyxvxyTnd5b73im&c=en-US&ur=in&da=n&logo=n&fmt=png&od=1&shading=hill&pp=13.010261,76.102913;dfp"
  },
  {
    "name": "ಸ್ವಾಸ್ಥ್ಯ, Swasthya Ayurvedic Clinic",
    "address": "Mg Road, Hassan, Karnataka 573201",
    "phone": "ಸ್ವಾಸ್ಥ್ಯ, Swasthya Ayurvedic Clinic",
    "hours": null,
    "image_url": null
  },
  {
    "name": "Sudheer B Bangalore Dr Clinic",
    "address": "2861/a, Hassan, Karnataka 573201",
    "phone": "Sudheer B Bangalore Dr Clinic",
    "hours": null,
    "image_url": "https://www.bing.com/maps/geoplat/REST/v1/Imagery/Map/RoadVibrant?ms=92,112&key=AnTcaqBi2ypp0xI-OZNi4W_ik2KhjgpqioTAtXLC8GzkMBQRMlyxvxyTnd5b73im&c=en-US&ur=in&da=n&logo=n&fmt=png&od=1&shading=hill&pp=13.012865,76.116798;dfp"
  },
  {
    "name": "Asha Clinic",
    "address": "Bangalore Mangalore Road, Kandali Circle, Kandali, Hassan, Karnataka 573217",
    "phone": "Asha Clinic",
    "hours": null,
    "image_url": "https://www.bing.com/maps/geoplat/REST/v1/Imagery/Map/RoadVibrant?ms=92,112&key=AnTcaqBi2ypp0xI-OZNi4W_ik2KhjgpqioTAtXLC8GzkMBQRMlyxvxyTnd5b73im&c=en-US&ur=in&da=n&logo=n&fmt=png&od=1&shading=hill&pp=12.990374,76.047607;dfp"
  },
  {
    "name": "Dr B N Shivprasad",
    "address": "College Road, Rangoli Halla, Hassan, Karnataka 573201",
    "phone": "Dr B N Shivprasad",
    "hours": null,
    "image_url": "https://www.bing.com/maps/geoplat/REST/v1/Imagery/Map/RoadVibrant?ms=92,112&key=AnTcaqBi2ypp0xI-OZNi4W_ik2KhjgpqioTAtXLC8GzkMBQRMlyxvxyTnd5b73im&c=en-US&ur=in&da=n&logo=n&fmt=png&od=1&shading=hill&pp=13.009797,76.101486;dfp"
  },
  {
    "name": "S D M Ayurveda Hospital",
    "address": "Thanniruhallab M Road, Hassan, Karnataka 573201",
    "phone": "S D M Ayurveda Hospital",
    "hours": null,
    "image_url": null
  },
  {
    "name": "Dr. Suneetha K. S",
    "address": "Sampige Road, K.R. Puram, Hassan, Karnataka",
    "phone": "Dr. Suneetha K. S",
    "hours": "Closed· Opens 17:30",
    "image_url": null
  },
  {
    "name": "Dr. Preetham R Manoli- Pediatrician",
    "address": "Sanjeevani Hospital, Krishnaraja Pura, Hassan, Karnataka 573201",
    "phone": "Dr. Preetham R Manoli- Pediatrician",
    "hours": "Open· Closes 21:00",
    "image_url": "https://www.bing.com/maps/geoplat/REST/v1/Imagery/Map/RoadVibrant?ms=92,134&key=AnTcaqBi2ypp0xI-OZNi4W_ik2KhjgpqioTAtXLC8GzkMBQRMlyxvxyTnd5b73im&c=en-US&ur=in&da=n&logo=n&fmt=png&od=1&shading=hill&pp=13.006797,76.106651;dfp"
  },
  {
    "name": "Shiva and Shiva Orthopaedic Hospital",
    "address": "104, Sparsh Hospital, Bangalore Hassan Highway, Near To Bhanu Theatre, Hassan, Karnataka 573201",
    "phone": "Shiva and Shiva Orthopaedic Hospital",
    "hours": null,
    "image_url": "https://www.bing.com/maps/geoplat/REST/v1/Imagery/Map/RoadVibrant?ms=92,112&key=AnTcaqBi2ypp0xI-OZNi4W_ik2KhjgpqioTAtXLC8GzkMBQRMlyxvxyTnd5b73im&c=en-US&ur=in&da=n&logo=n&fmt=png&od=1&shading=hill&pp=12.992394,76.115768;dfp"
  },
  {
    "name": "Miracle Drinks Clinic",
    "address": "163, 23rd Cross, Channapatna Housing Board Colony, Opposite to New Bus, Stand, Hassan, Karnataka 573201",
    "phone": "Miracle Drinks Clinic",
    "hours": "Open· Closes 12:00",
    "image_url": null
  },
  {
    "name": "NephroPlus Dialysis & Kidney Care Centre",
    "address": "Sahyaadri Multispeciality Hospital, Hassan, Race Course Rd, opp. Sandal Kote, Rangoli Halla, Hassan, Karnataka",
    "phone": "NephroPlus Dialysis & Kidney Care Centre",
    "hours": null,
    "image_url": "https://www.bing.com/maps/geoplat/REST/v1/Imagery/Map/RoadVibrant?ms=92,112&key=AnTcaqBi2ypp0xI-OZNi4W_ik2KhjgpqioTAtXLC8GzkMBQRMlyxvxyTnd5b73im&c=en-US&ur=in&da=n&logo=n&fmt=png&od=1&shading=hill&pp=13.015317,76.101845;dfp"
  },
  {
    "name": "The Skin Clinic- Hassan |Lasers| |Cosmetology| |Hair Transplant| M.D Dermatologist",
    "address": "1st Floor, Lumbini Arcade, Harshamahal Road, opp. Ambedkar Bhavan, Near SBG Theatre, Hassan, Karnat…",
    "phone": "The Skin Clinic- Hassan |Lasers| |Cosmetology| |Hair Transplant| M.D Dermatologist",
    "hours": null,
    "image_url": "https://www.bing.com/maps/geoplat/REST/v1/Imagery/Map/RoadVibrant?ms=92,112&key=AnTcaqBi2ypp0xI-OZNi4W_ik2KhjgpqioTAtXLC8GzkMBQRMlyxvxyTnd5b73im&c=en-US&ur=in&da=n&logo=n&fmt=png&od=1&shading=hill&pp=13.007613,76.101158;dfp"
  },
  {
    "name": "Dr.Kalam Study Centre",
    "address": "Dr.A.P.J.Abdul Kalam Study Center, Parsavat Nagar Road, Indira Gandhi Nagar, Parbhani, Maharashtra",
    "phone": "Dr.Kalam Study Centre",
    "hours": null,
    "image_url": "https://www.bing.com/maps/geoplat/REST/v1/Imagery/Map/RoadVibrant?ms=92,112&key=AnTcaqBi2ypp0xI-OZNi4W_ik2KhjgpqioTAtXLC8GzkMBQRMlyxvxyTnd5b73im&c=en-US&ur=in&da=n&logo=n&fmt=png&od=1&shading=hill&pp=13.005561,76.088913;dfp"
  }
]