[
  {
    "name": "Dr. Vijay Shankar General Surgery In Hazaribag",
    "address": "Tower Road, Nawabganj, opp Town Hall, Hazaribag, Jharkhand 825301",
    "phone": "Dr. Vijay Shankar General Surgery In Hazaribag",
    "hours": "Closed路 Opens 11:00",
    "image_url": "/th?id=OLC.87ofMhmB6t7sdA480x360&w=92&h=134&c=8&rs=1&qlt=80&cdv=1&pid=Local"
  },
  {
    "name": "Dr. Pranay Madhur Sinha",
    "address": "Guru Gobind Singh Road, Hazaribagh, Jharkhand 825301",
    "phone": "Dr. Pranay Madhur Sinha",
    "hours": null,
    "image_url": "https://www.bing.com/maps/geoplat/REST/v1/Imagery/Map/RoadVibrant?ms=92,112&key=AnTcaqBi2ypp0xI-OZNi4W_ik2KhjgpqioTAtXLC8GzkMBQRMlyxvxyTnd5b73im&c=en-US&ur=in&da=n&logo=n&fmt=png&od=1&shading=hill&pp=23.996248,85.365753;dfp"
  },
  {
    "name": "Dr.Aman Urwar",
    "address": "Shubham Complex Ground Floor, Krishnapuri Chowk, Near Petrol Pump Matwari, Hazaribag, Jharkhand 825301",
    "phone": "Dr.Aman Urwar",
    "hours": "Open路 Closes 20:00",
    "image_url": "/th?id=OLC.l9wVIf3UCOtHZQ480x360&w=92&h=134&c=8&rs=1&qlt=80&cdv=1&pid=Local"
  },
  {
    "name": "Dr. Shrijan Jaipuriar",
    "address": "Jaipuriar Hospital, Pugmil, Hazaribagh, Jharkhand, Jharkhand 825301",
    "phone": "Dr. Shrijan Jaipuriar",
    "hours": null,
    "image_url": "https://www.bing.com/maps/geoplat/REST/v1/Imagery/Map/RoadVibrant?ms=92,112&key=AnTcaqBi2ypp0xI-OZNi4W_ik2KhjgpqioTAtXLC8GzkMBQRMlyxvxyTnd5b73im&c=en-US&ur=in&da=n&logo=n&fmt=png&od=1&shading=hill&pp=23.988129,85.362236;dfp"
  },
  {
    "name": "Dubey Medical & Clinic",
    "address": "Malviya Marg, Shivpuri, Hazaribagh, Jharkhand",
    "phone": "Dubey Medical & Clinic",
    "hours": null,
    "image_url": "https://www.bing.com/maps/geoplat/REST/v1/Imagery/Map/RoadVibrant?ms=92,112&key=AnTcaqBi2ypp0xI-OZNi4W_ik2KhjgpqioTAtXLC8GzkMBQRMlyxvxyTnd5b73im&c=en-US&ur=in&da=n&logo=n&fmt=png&od=1&shading=hill&pp=23.993965,85.355637;dfp"
  },
  {
    "name": "Dr. Iqbal A. Farooqui",
    "address": "Laxmi Dawakhana, Reliance Tower Road, Nawabganj, Jharkhand 825301",
    "phone": "Dr. Iqbal A. Farooqui",
    "hours": null,
    "image_url": "https://www.bing.com/maps/geoplat/REST/v1/Imagery/Map/RoadVibrant?ms=92,112&key=AnTcaqBi2ypp0xI-OZNi4W_ik2KhjgpqioTAtXLC8GzkMBQRMlyxvxyTnd5b73im&c=en-US&ur=in&da=n&logo=n&fmt=png&od=1&shading=hill&pp=23.996267,85.355385;dfp"
  },
  {
    "name": "Dr. Aman Urwar's Clinic",
    "address": "Shop No Ground Floor Hazaribagh Road, Hazaribag, Jharkhand 825301",
    "phone": "Dr. Aman Urwar's Clinic",
    "hours": null,
    "image_url": "https://www.bing.com/maps/geoplat/REST/v1/Imagery/Map/RoadVibrant?ms=92,112&key=AnTcaqBi2ypp0xI-OZNi4W_ik2KhjgpqioTAtXLC8GzkMBQRMlyxvxyTnd5b73im&c=en-US&ur=in&da=n&logo=n&fmt=png&od=1&shading=hill&pp=23.993088,85.36013;dfp"
  },
  {
    "name": "Dr. Anubha Shankar Gynaecologist and obstetrician",
    "address": "Shankar Nursing Home Tower Road Nawabganj Hazaribag, Hazaribagh, Jharkhand 825301",
    "phone": "Dr. Anubha Shankar Gynaecologist and obstetrician",
    "hours": "Closed路 Opens 11:00",
    "image_url": "https://www.bing.com/maps/geoplat/REST/v1/Imagery/Map/RoadVibrant?ms=92,134&key=AnTcaqBi2ypp0xI-OZNi4W_ik2KhjgpqioTAtXLC8GzkMBQRMlyxvxyTnd5b73im&c=en-US&ur=in&da=n&logo=n&fmt=png&od=1&shading=hill&pp=23.995047,85.356003;dfp"
  },
  {
    "name": "Sudha Clinic",
    "address": "Bishunpur Rd, DVC Colony, Jhumri Telaiya, Jharkhand",
    "phone": "Sudha Clinic",
    "hours": null,
    "image_url": "https://www.bing.com/maps/geoplat/REST/v1/Imagery/Map/RoadVibrant?ms=92,112&key=AnTcaqBi2ypp0xI-OZNi4W_ik2KhjgpqioTAtXLC8GzkMBQRMlyxvxyTnd5b73im&c=en-US&ur=in&da=n&logo=n&fmt=png&od=1&shading=hill&pp=23.988329,85.365898;dfp"
  },
  {
    "name": "Dr. Sangeet Sawrav",
    "address": "Room No. 7, Ground Floor, Medanta Hospital Ranchi Irba, P.S: Ormanjhi, NH-33, Ranchi, Jharkhand",
    "phone": "Dr. Sangeet Sawrav",
    "hours": null,
    "image_url": "https://www.bing.com/maps/geoplat/REST/v1/Imagery/Map/RoadVibrant?ms=92,112&key=AnTcaqBi2ypp0xI-OZNi4W_ik2KhjgpqioTAtXLC8GzkMBQRMlyxvxyTnd5b73im&c=en-US&ur=in&da=n&logo=n&fmt=png&od=1&shading=hill&pp=24.001938,85.366882;dfp"
  },
  {
    "name": "Dr Vinod's Clinic - Homoeopathy Clinic",
    "address": "Chatra Rd, Near Lakshmi Cinema, Suleman Colony, Chisti Nagar, Hazaribagh, Jharkhand",
    "phone": "Dr Vinod's Clinic - Homoeopathy Clinic",
    "hours": null,
    "image_url": "https://www.bing.com/maps/geoplat/REST/v1/Imagery/Map/RoadVibrant?ms=92,112&key=AnTcaqBi2ypp0xI-OZNi4W_ik2KhjgpqioTAtXLC8GzkMBQRMlyxvxyTnd5b73im&c=en-US&ur=in&da=n&logo=n&fmt=png&od=1&shading=hill&pp=23.988758,85.364067;dfp"
  },
  {
    "name": "Adarsh Medical Clinic",
    "address": "IN Front OF Mohan Cinema Hall, Main Road, Hazaribagh, Hazaribag, Jharkhand 825301",
    "phone": "Adarsh Medical Clinic",
    "hours": null,
    "image_url": null
  },
  {
    "name": "Drvinod'sclinic",
    "address": "Near Lakshmi Cineplex, Main Road, Hazaribagh, Jharkhand, Jharkhand 825301",
    "phone": "Drvinod'sclinic",
    "hours": "Open路 Closes 19:30",
    "image_url": null
  },
  {
    "name": "Shrinivas Hospital / A multispecialty hospital",
    "address": "Opposite Ranchi Patna Road Nh-33, Demotand, Hazaribagh, Jharkhand, Jharkhand 825301",
    "phone": "Shrinivas Hospital / A multispecialty hospital",
    "hours": "Open 24 hours",
    "image_url": null
  },
  {
    "name": "HOMOEO CURE CLINIC, Dr ABHAY KUMAR",
    "address": "Sarwan, , Near Bus Stand and Kali Mandir, Jharkhand",
    "phone": "HOMOEO CURE CLINIC, Dr ABHAY KUMAR",
    "hours": null,
    "image_url": "https://www.bing.com/maps/geoplat/REST/v1/Imagery/Map/RoadVibrant?ms=92,112&key=AnTcaqBi2ypp0xI-OZNi4W_ik2KhjgpqioTAtXLC8GzkMBQRMlyxvxyTnd5b73im&c=en-US&ur=in&da=n&logo=n&fmt=png&od=1&shading=hill&pp=23.99251,85.363503;dfp"
  },
  {
    "name": "Ent Clinic: Dr Piyush Kumar",
    "address": "Near Atal Chowk, Hirabag, Hazaribagh, Jharkhand, Jharkhand 825301",
    "phone": "Ent Clinic: Dr Piyush Kumar",
    "hours": null,
    "image_url": "https://www.bing.com/maps/geoplat/REST/v1/Imagery/Map/RoadVibrant?ms=92,112&key=AnTcaqBi2ypp0xI-OZNi4W_ik2KhjgpqioTAtXLC8GzkMBQRMlyxvxyTnd5b73im&c=en-US&ur=in&da=n&logo=n&fmt=png&od=1&shading=hill&pp=23.989964,85.360855;dfp"
  },
  {
    "name": "Shuddhi Hiims (Hazaribag) Ayurveda Clinic",
    "address": "Jeetendra Medicine House, Hurhuru Rd, Near Kargil Petrol Pump, New Forest Colony, Hazaribagh, Jharkhand",
    "phone": "Shuddhi Hiims (Hazaribag) Ayurveda Clinic",
    "hours": null,
    "image_url": "https://www.bing.com/maps/geoplat/REST/v1/Imagery/Map/RoadVibrant?ms=92,112&key=AnTcaqBi2ypp0xI-OZNi4W_ik2KhjgpqioTAtXLC8GzkMBQRMlyxvxyTnd5b73im&c=en-US&ur=in&da=n&logo=n&fmt=png&od=1&shading=hill&pp=23.994413,85.372864;dfp"
  },
  {
    "name": "Balaji Diagnostic Centre",
    "address": "Nawabganj Road Near Laxmi Petrol Pump Hazaribagh, Hazaribagh, Jharkhand, Jharkhand 825301",
    "phone": "Balaji Diagnostic Centre",
    "hours": null,
    "image_url": null
  }
]