[
  {
    "name": "Dr Ramesh Kute",
    "address": "Jain Temple, Jawaharlal Road, Hingoli, Maharashtra 431513",
    "phone": "Dr Ramesh Kute",
    "hours": null,
    "image_url": "https://www.bing.com/maps/geoplat/REST/v1/Imagery/Map/RoadVibrant?ms=92,112&key=AnTcaqBi2ypp0xI-OZNi4W_ik2KhjgpqioTAtXLC8GzkMBQRMlyxvxyTnd5b73im&c=en-US&ur=in&da=n&logo=n&fmt=png&od=1&shading=hill&pp=19.71962,77.145714;dfp"
  },
  {
    "name": "Alshifa Clinic",
    "address": "Risala Bazar, Hinogli, Hingoli, Maharashtra 431513",
    "phone": "Alshifa Clinic",
    "hours": null,
    "image_url": "https://www.bing.com/maps/geoplat/REST/v1/Imagery/Map/RoadVibrant?ms=92,112&key=AnTcaqBi2ypp0xI-OZNi4W_ik2KhjgpqioTAtXLC8GzkMBQRMlyxvxyTnd5b73im&c=en-US&ur=in&da=n&logo=n&fmt=png&od=1&shading=hill&pp=19.717487,77.142799;dfp"
  },
  {
    "name": "Dr Pavan Giri Godavari Chest Hospital, ICU & Allergy Center Hingoli",
    "address": "Tapadiya Estate NTC, Hingoli, Maharashtra 431513",
    "phone": "Dr Pavan Giri Godavari Chest Hospital, ICU & Allergy Center Hingoli",
    "hours": null,
    "image_url": "https://www.bing.com/maps/geoplat/REST/v1/Imagery/Map/RoadVibrant?ms=92,112&key=AnTcaqBi2ypp0xI-OZNi4W_ik2KhjgpqioTAtXLC8GzkMBQRMlyxvxyTnd5b73im&c=en-US&ur=in&da=n&logo=n&fmt=png&od=1&shading=hill&pp=19.709703,77.144363;clcp"
  },
  {
    "name": "Bader clinic (Azam colony)",
    "address": "H-no, 3107, Kothlaj Rd, Shivraj Nagar, Azam Colony, Hingoli, Maharashtra",
    "phone": "Bader clinic (Azam colony)",
    "hours": null,
    "image_url": "https://www.bing.com/maps/geoplat/REST/v1/Imagery/Map/RoadVibrant?ms=92,112&key=AnTcaqBi2ypp0xI-OZNi4W_ik2KhjgpqioTAtXLC8GzkMBQRMlyxvxyTnd5b73im&c=en-US&ur=in&da=n&logo=n&fmt=png&od=1&shading=hill&pp=19.700541,77.152573;dfp"
  },
  {
    "name": "Om Sai Clinic",
    "address": "Shivchatrapati Colony, Hingoli, Maharashtra 431513, India, Hingoli, Maharashtra 431513",
    "phone": "Om Sai Clinic",
    "hours": null,
    "image_url": "https://www.bing.com/maps/geoplat/REST/v1/Imagery/Map/RoadVibrant?ms=92,112&key=AnTcaqBi2ypp0xI-OZNi4W_ik2KhjgpqioTAtXLC8GzkMBQRMlyxvxyTnd5b73im&c=en-US&ur=in&da=n&logo=n&fmt=png&od=1&shading=hill&pp=18.84549,77.532761;dfp"
  },
  {
    "name": "Lahoti Homeopathic Clinic",
    "address": "Indira Gandhi Chowk, Lahoti Complex, Hingoli, Maharashtra 431513",
    "phone": "Lahoti Homeopathic Clinic",
    "hours": null,
    "image_url": "https://www.bing.com/maps/geoplat/REST/v1/Imagery/Map/RoadVibrant?ms=92,112&key=AnTcaqBi2ypp0xI-OZNi4W_ik2KhjgpqioTAtXLC8GzkMBQRMlyxvxyTnd5b73im&c=en-US&ur=in&da=n&logo=n&fmt=png&od=1&shading=hill&pp=19.718523,77.144615;dfp"
  },
  {
    "name": "Sai Diagnostic Centre",
    "address": "C/o Karpe Maternity Hospital, Railway Station Road, in Front of S.P. Office, Hingoli, Maharashtra 431513",
    "phone": "Sai Diagnostic Centre",
    "hours": "Open· Closes 21:00",
    "image_url": "https://www.bing.com/maps/geoplat/REST/v1/Imagery/Map/RoadVibrant?ms=92,134&key=AnTcaqBi2ypp0xI-OZNi4W_ik2KhjgpqioTAtXLC8GzkMBQRMlyxvxyTnd5b73im&c=en-US&ur=in&da=n&logo=n&fmt=png&od=1&shading=hill&pp=19.7167,77.150002;dfp"
  },
  {
    "name": "Shaikh Clinic",
    "address": "1, Azam Colony, Kothlaj Road, Hingoli, Maharashtra 431513",
    "phone": "Shaikh Clinic",
    "hours": null,
    "image_url": "https://www.bing.com/maps/geoplat/REST/v1/Imagery/Map/RoadVibrant?ms=92,112&key=AnTcaqBi2ypp0xI-OZNi4W_ik2KhjgpqioTAtXLC8GzkMBQRMlyxvxyTnd5b73im&c=en-US&ur=in&da=n&logo=n&fmt=png&od=1&shading=hill&pp=19.697628,77.152466;dfp"
  },
  {
    "name": "Lupin Diagnostics Hingoli I Pathology Care Centre I Blood Sample Collection Near You I Advanced Diagnostic Ce…",
    "address": "Opp. LIC Office, Railway Station Road, Hingoli, Maharashtra 431513",
    "phone": "Lupin Diagnostics Hingoli I Pathology Care Centre I Blood Sample Collection Near You I Advanced Diagnostic Ce…",
    "hours": "Open· Closes 16:00",
    "image_url": null
  },
  {
    "name": "Shivkrupa Clinic",
    "address": "1, Tirupati Nagar Hingoli Road Kalamnuri, Kalamnuri, Hingoli, Maharashtra 431702",
    "phone": "Shivkrupa Clinic",
    "hours": null,
    "image_url": "https://www.bing.com/maps/geoplat/REST/v1/Imagery/Map/RoadVibrant?ms=92,112&key=AnTcaqBi2ypp0xI-OZNi4W_ik2KhjgpqioTAtXLC8GzkMBQRMlyxvxyTnd5b73im&c=en-US&ur=in&da=n&logo=n&fmt=png&od=1&shading=hill&pp=19.164633,77.317841;dfp"
  },
  {
    "name": "Metropolis Healthcare Limited - Pathology Lab, Diagnostic Centre",
    "address": "Shop No 3 & 4, Kalamnuri Road, Ramkrishna Nagar, Opposite Ramkrishna Lodge, Hingoli, Maharashtra 431…",
    "phone": "Metropolis Healthcare Limited - Pathology Lab, Diagnostic Centre",
    "hours": "Open· Closes 20:00",
    "image_url": "https://www.bing.com/maps/geoplat/REST/v1/Imagery/Map/RoadVibrant?ms=92,134&key=AnTcaqBi2ypp0xI-OZNi4W_ik2KhjgpqioTAtXLC8GzkMBQRMlyxvxyTnd5b73im&c=en-US&ur=in&da=n&logo=n&fmt=png&od=1&shading=hill&pp=19.709679,77.148193;dfp"
  },
  {
    "name": "Vyankatesh Clinic",
    "address": "A/2016, Near Hotel Garib Nawaj, Parbhani Road, Vasmat, Hingoli, Maharashtra 431512",
    "phone": "Vyankatesh Clinic",
    "hours": null,
    "image_url": "https://www.bing.com/maps/geoplat/REST/v1/Imagery/Map/RoadVibrant?ms=92,112&key=AnTcaqBi2ypp0xI-OZNi4W_ik2KhjgpqioTAtXLC8GzkMBQRMlyxvxyTnd5b73im&c=en-US&ur=in&da=n&logo=n&fmt=png&od=1&shading=hill&pp=19.252659,76.795731;dfp"
  },
  {
    "name": "Dr Hegdewar Smruti Rugna Seva Mandals Dental College and Hospital",
    "address": "Hingoli Akola Road, Basamba, Hingoli, Maharashtra 431513",
    "phone": "Dr Hegdewar Smruti Rugna Seva Mandals Dental College and Hospital",
    "hours": null,
    "image_url": "https://www.bing.com/maps/geoplat/REST/v1/Imagery/Map/RoadVibrant?ms=92,112&key=AnTcaqBi2ypp0xI-OZNi4W_ik2KhjgpqioTAtXLC8GzkMBQRMlyxvxyTnd5b73im&c=en-US&ur=in&da=n&logo=n&fmt=png&od=1&shading=hill&pp=19.771746,77.163803;dfp"
  },
  {
    "name": "Dr Babasaheb Ambedkar Hostel",
    "address": "Hingoli Akola Road, Garmal, Hingoli, Maharashtra 431513",
    "phone": "Dr Babasaheb Ambedkar Hostel",
    "hours": null,
    "image_url": "https://www.bing.com/maps/geoplat/REST/v1/Imagery/Map/RoadVibrant?ms=92,112&key=AnTcaqBi2ypp0xI-OZNi4W_ik2KhjgpqioTAtXLC8GzkMBQRMlyxvxyTnd5b73im&c=en-US&ur=in&da=n&logo=n&fmt=png&od=1&shading=hill&pp=19.721195,77.16526;dfp"
  },
  {
    "name": "Rudra Clinical Laboratory",
    "address": "02 Nagnath Road Sengaon, Hingoli, Maharashtra 431542",
    "phone": "Rudra Clinical Laboratory",
    "hours": null,
    "image_url": "https://www.bing.com/maps/geoplat/REST/v1/Imagery/Map/RoadVibrant?ms=92,112&key=AnTcaqBi2ypp0xI-OZNi4W_ik2KhjgpqioTAtXLC8GzkMBQRMlyxvxyTnd5b73im&c=en-US&ur=in&da=n&logo=n&fmt=png&od=1&shading=hill&pp=19.718452,77.144196;dfp"
  },
  {
    "name": "Asta Vinayak Clinil &Dr Bhaskar Vinayak Popalghat",
    "address": "Kahakar Bk, Grampanchayat Road, Kendra Bk, Sengaon, Hingoli, Maharashtra 431703",
    "phone": "Asta Vinayak Clinil &Dr Bhaskar Vinayak Popalghat",
    "hours": null,
    "image_url": "https://www.bing.com/maps/geoplat/REST/v1/Imagery/Map/RoadVibrant?ms=92,112&key=AnTcaqBi2ypp0xI-OZNi4W_ik2KhjgpqioTAtXLC8GzkMBQRMlyxvxyTnd5b73im&c=en-US&ur=in&da=n&logo=n&fmt=png&od=1&shading=hill&pp=19.947054,77.147957;dfp"
  },
  {
    "name": "DR. Mutkule Dental Clinic",
    "address": "Jawahr Road, Hingoli, Maharashtra 431513",
    "phone": "DR. Mutkule Dental Clinic",
    "hours": null,
    "image_url": "https://www.bing.com/maps/geoplat/REST/v1/Imagery/Map/RoadVibrant?ms=92,112&key=AnTcaqBi2ypp0xI-OZNi4W_ik2KhjgpqioTAtXLC8GzkMBQRMlyxvxyTnd5b73im&c=en-US&ur=in&da=n&logo=n&fmt=png&od=1&shading=hill&pp=19.704014,77.162247;dfp"
  }
]