[
  {
    "name": "Dr. Sankar Nath Jha",
    "address": "Madhab Banerjee Lane, Bally, Hooghly, West Bengal",
    "phone": "Dr. Sankar Nath Jha",
    "hours": "Closed· Opens Thu 11:00",
    "image_url": "/th?id=OLC.vpmwjr%2beVw9BoQ480x360&w=92&h=112&c=8&rs=1&qlt=80&cdv=1&pid=Local"
  },
  {
    "name": "Dr. Sankar Nath Jha",
    "address": "24, Lenin Sarani, Hooghly, West Bengal",
    "phone": "Dr. Sankar Nath Jha",
    "hours": "Closed· Opens Sep 28 at 17:00",
    "image_url": "/th?id=OLC.vpmwjr%2beVw9BoQ480x360&w=92&h=112&c=8&rs=1&qlt=80&cdv=1&pid=Local"
  },
  {
    "name": "Dr. Sankar Nath Jha",
    "address": "104/5, Ramlal Dutta Road, Hooghly, West Bengal",
    "phone": "Dr. Sankar Nath Jha",
    "hours": "Closed· Opens Thu 07:30",
    "image_url": "https://www.bing.com/maps/geoplat/REST/v1/Imagery/Map/RoadVibrant?ms=92,112&key=AnTcaqBi2ypp0xI-OZNi4W_ik2KhjgpqioTAtXLC8GzkMBQRMlyxvxyTnd5b73im&c=en-US&ur=in&da=n&logo=n&fmt=png&od=1&shading=hill&pp=22.758202,88.333923;clcp"
  },
  {
    "name": "Dr. Sudipto Modak",
    "address": "160, G. T. Road, Konnagar De-Waldie Bus Stop, Landmark : Opposite Konnagar Gas Office, Hooghly, W…",
    "phone": "Dr. Sudipto Modak",
    "hours": null,
    "image_url": "https://www.bing.com/maps/geoplat/REST/v1/Imagery/Map/RoadVibrant?ms=92,112&key=AnTcaqBi2ypp0xI-OZNi4W_ik2KhjgpqioTAtXLC8GzkMBQRMlyxvxyTnd5b73im&c=en-US&ur=in&da=n&logo=n&fmt=png&od=1&shading=hill&pp=22.639757,88.35083;dfp"
  },
  {
    "name": "Dr. Rajkumar Chaturvedi",
    "address": "49/A, Day St, Serampore, Hooghly, Landmark- Battala, Hooghly, West Bengal",
    "phone": "Dr. Rajkumar Chaturvedi",
    "hours": "Closed· Opens 11:00",
    "image_url": "/th?id=OLC.xOwBXmghG03I5A480x360&w=92&h=112&c=8&rs=1&qlt=80&cdv=1&pid=Local"
  },
  {
    "name": "Dr. Agnihotri Chakraborty(MBBS) -General Physician |Best Doctor for Diabetes, Cold&Cough, Fever, Thyroid",
    "address": "Near Kalyan Parishad Club, Atabagan, Purba, Kolkata, West Bengal",
    "phone": "Dr. Agnihotri Chakraborty(MBBS) -General Physician |Best Doctor for Diabetes, Cold&Cough, Fever, Thyroid",
    "hours": null,
    "image_url": "https://www.bing.com/maps/geoplat/REST/v1/Imagery/Map/RoadVibrant?ms=92,112&key=AnTcaqBi2ypp0xI-OZNi4W_ik2KhjgpqioTAtXLC8GzkMBQRMlyxvxyTnd5b73im&c=en-US&ur=in&da=n&logo=n&fmt=png&od=1&shading=hill&pp=22.454916,88.379585;dfp"
  },
  {
    "name": "Dr. pulak Mukherjee Homoeopathy in konnagar",
    "address": "Chinsurah, Hooghly, Farm Side Road, 3rd Lane, 2-Konnagar, Near Tarun dol Club, Konnagar, West Beng…",
    "phone": "Dr. pulak Mukherjee Homoeopathy in konnagar",
    "hours": "Closed· Opens 18:30",
    "image_url": "https://www.bing.com/maps/geoplat/REST/v1/Imagery/Map/RoadVibrant?ms=92,134&key=AnTcaqBi2ypp0xI-OZNi4W_ik2KhjgpqioTAtXLC8GzkMBQRMlyxvxyTnd5b73im&c=en-US&ur=in&da=n&logo=n&fmt=png&od=1&shading=hill&pp=22.897385,88.37294;dfp"
  },
  {
    "name": "Dr Kausik Datta",
    "address": "71 Prasanta Datta Sarani, PO, Bhadrakali, Uttarpara, West Bengal",
    "phone": "Dr Kausik Datta",
    "hours": null,
    "image_url": "https://www.bing.com/maps/geoplat/REST/v1/Imagery/Map/RoadVibrant?ms=92,112&key=AnTcaqBi2ypp0xI-OZNi4W_ik2KhjgpqioTAtXLC8GzkMBQRMlyxvxyTnd5b73im&c=en-US&ur=in&da=n&logo=n&fmt=png&od=1&shading=hill&pp=22.67474,88.347214;dfp"
  },
  {
    "name": "Dr. Satyaki Ghosh, General Physician",
    "address": "R K Pharmacy, Jalchak, Near Jalchak Nateswari Netaji Vidyayatan, Midnapur, West Bengal 721155",
    "phone": "Dr. Satyaki Ghosh, General Physician",
    "hours": "Closed· Opens Thu 11:00",
    "image_url": "https://www.bing.com/maps/geoplat/REST/v1/Imagery/Map/RoadVibrant?ms=92,134&key=AnTcaqBi2ypp0xI-OZNi4W_ik2KhjgpqioTAtXLC8GzkMBQRMlyxvxyTnd5b73im&c=en-US&ur=in&da=n&logo=n&fmt=png&od=1&shading=hill&pp=22.241264,87.672462;dfp"
  },
  {
    "name": "Doctor Roys Clinic",
    "address": "Opp. K.c.Choudhury Jewelers & Sons, Jeliapara, Kolkata, West Bengal 700117",
    "phone": "Doctor Roys Clinic",
    "hours": "Opens in 9 mins",
    "image_url": null
  },
  {
    "name": "Joint Replacement & Orthopaedic Clinic - Dr. Kalyan Guha - Best Orthopedic Doctor  | Top Orthopedic Surgeon",
    "address": "21/B Rajani Sen Road, Kolkata, West Bengal 700026",
    "phone": "Joint Replacement & Orthopaedic Clinic - Dr. Kalyan Guha - Best Orthopedic Doctor  | Top Orthopedic Surgeon",
    "hours": "Open· Closes 20:00",
    "image_url": null
  },
  {
    "name": "Dr.Paulami Ghosh Best General Physician on Apollo 24|7 Treated 7000+ Patients|Diabetes, Cold&Cough, Fever, …",
    "address": "472, Garia Main Rd, Ramkrishna Nagar, Garia Gardens, Garia, Kolkata, West Bengal",
    "phone": "Dr.Paulami Ghosh Best General Physician on Apollo 24|7 Treated 7000+ Patients|Diabetes, Cold&Cough, Fever, …",
    "hours": null,
    "image_url": "https://www.bing.com/maps/geoplat/REST/v1/Imagery/Map/RoadVibrant?ms=92,112&key=AnTcaqBi2ypp0xI-OZNi4W_ik2KhjgpqioTAtXLC8GzkMBQRMlyxvxyTnd5b73im&c=en-US&ur=in&da=n&logo=n&fmt=png&od=1&shading=hill&pp=22.458252,88.383743;dfp"
  },
  {
    "name": "Nidan Polyclinic / Best doctors clinic in naktala",
    "address": "No.1/269, Naktala, Bansdroni, Kolkata, West Bengal",
    "phone": "Nidan Polyclinic / Best doctors clinic in naktala",
    "hours": null,
    "image_url": "https://www.bing.com/maps/geoplat/REST/v1/Imagery/Map/RoadVibrant?ms=92,112&key=AnTcaqBi2ypp0xI-OZNi4W_ik2KhjgpqioTAtXLC8GzkMBQRMlyxvxyTnd5b73im&c=en-US&ur=in&da=n&logo=n&fmt=png&od=1&shading=hill&pp=22.472458,88.366547;dfp"
  },
  {
    "name": "Dr. Prattay Ghosh, MD(medicine) - Best Medicine Doctor  | Best general physician",
    "address": "EA 31, Deshbandhu Nagar, Desh Bandhu Nagar, Baguiati, Kolkata, West Bengal",
    "phone": "Dr. Prattay Ghosh, MD(medicine) - Best Medicine Doctor  | Best general physician",
    "hours": null,
    "image_url": "https://www.bing.com/maps/geoplat/REST/v1/Imagery/Map/RoadVibrant?ms=92,112&key=AnTcaqBi2ypp0xI-OZNi4W_ik2KhjgpqioTAtXLC8GzkMBQRMlyxvxyTnd5b73im&c=en-US&ur=in&da=n&logo=n&fmt=png&od=1&shading=hill&pp=22.472309,88.352608;dfp"
  },
  {
    "name": "Dr. surojit manna | Arogya clinic",
    "address": "Kolaghat, Jaguli Bazar, Haldia, Madhya Pradesh 721151",
    "phone": "Dr. surojit manna | Arogya clinic",
    "hours": "Open· Closes 12:00",
    "image_url": null
  },
  {
    "name": "Dr Partha's Homoeo Clinic",
    "address": "Sutahata, Haldia Sutahata, Kukrahati - Sutahata Rd, Near Amlat Abhijan Club AND Gita Homeo Pharmacy, Haldia…",
    "phone": "Dr Partha's Homoeo Clinic",
    "hours": null,
    "image_url": "https://www.bing.com/maps/geoplat/REST/v1/Imagery/Map/RoadVibrant?ms=92,112&key=AnTcaqBi2ypp0xI-OZNi4W_ik2KhjgpqioTAtXLC8GzkMBQRMlyxvxyTnd5b73im&c=en-US&ur=in&da=n&logo=n&fmt=png&od=1&shading=hill&pp=22.066795,88.072517;dfp"
  },
  {
    "name": "Best General Physician - Dr. Mukul Kanti Bhattacharya, 10+ yrs of Exp | Fever & Diabetes Doctor | Kolkata",
    "address": "28/G, Raja SC Mullick Rd, Jadavpur, Kolkata, West Bengal",
    "phone": "Best General Physician - Dr. Mukul Kanti Bhattacharya, 10+ yrs of Exp | Fever & Diabetes Doctor | Kolkata",
    "hours": null,
    "image_url": "https://www.bing.com/maps/geoplat/REST/v1/Imagery/Map/RoadVibrant?ms=92,112&key=AnTcaqBi2ypp0xI-OZNi4W_ik2KhjgpqioTAtXLC8GzkMBQRMlyxvxyTnd5b73im&c=en-US&ur=in&da=n&logo=n&fmt=png&od=1&shading=hill&pp=22.496742,88.370636;dfp"
  },
  {
    "name": "Dr Swarup Kumar Halder Clinic",
    "address": "Kakdwip Road, Kulpi, Diamond Harbour, West Bengal 743351",
    "phone": "Dr Swarup Kumar Halder Clinic",
    "hours": null,
    "image_url": "https://www.bing.com/maps/geoplat/REST/v1/Imagery/Map/RoadVibrant?ms=92,112&key=AnTcaqBi2ypp0xI-OZNi4W_ik2KhjgpqioTAtXLC8GzkMBQRMlyxvxyTnd5b73im&c=en-US&ur=in&da=n&logo=n&fmt=png&od=1&shading=hill&pp=22.084654,88.244339;dfp"
  }
]