[
  {
    "name": "Aarna Medical & Clinic Centre",
    "address": "Hoshangabad, MP, India, Hoshangabad, Madhya Pradesh 461001",
    "phone": "Aarna Medical & Clinic Centre",
    "hours": null,
    "image_url": "/th?id=OLC.nHmt3MvswMMxRg480x360&w=92&h=112&c=8&rs=1&qlt=80&cdv=1&pid=Local"
  },
  {
    "name": "Tripathi's jeeva clinic hoshangabad",
    "address": "Housing Board Colony Hoshangabad, Hoshangabad, Madhya Pradesh 461001",
    "phone": "Tripathi's jeeva clinic hoshangabad",
    "hours": null,
    "image_url": "/th?id=OLC.1ER%2fPE%2bZwGF1Ew480x360&w=92&h=112&c=8&rs=1&qlt=80&cdv=1&pid=Local"
  },
  {
    "name": "Dr Anurag Tiwari",
    "address": "Housing Board Colony, Hoshangabad, Madhya Pradesh 461001",
    "phone": "Dr Anurag Tiwari",
    "hours": null,
    "image_url": "/th?id=OLC.9w0nPv68j7leNg480x360&w=92&h=112&c=8&rs=1&qlt=80&cdv=1&pid=Local"
  },
  {
    "name": "Dr. A K Tiwari",
    "address": "Collectorate Main Road, Near Sardar Patel Chouraha, Sadar Bazar, Hoshangabad, Madhya Pradesh 461001",
    "phone": "Dr. A K Tiwari",
    "hours": null,
    "image_url": "/th?id=OLC.0hnnALSrOE3FVw480x360&w=92&h=112&c=8&rs=1&qlt=80&cdv=1&pid=Local"
  },
  {
    "name": "Dr. Rajesh Patil",
    "address": "Sh22, Sadar Bazar, Hoshangabad, Madhya Pradesh 461001",
    "phone": "Dr. Rajesh Patil",
    "hours": null,
    "image_url": "https://www.bing.com/maps/geoplat/REST/v1/Imagery/Map/RoadVibrant?ms=92,112&key=AnTcaqBi2ypp0xI-OZNi4W_ik2KhjgpqioTAtXLC8GzkMBQRMlyxvxyTnd5b73im&c=en-US&ur=in&da=n&logo=n&fmt=png&od=1&shading=hill&pp=22.752657,77.726051;dfp"
  },
  {
    "name": "Dr. Vasudha Tiwari",
    "address": "Collectorate Main Road, Near Sardar Patel Chouraha, Sadar Bazar, Hoshangabad, Madhya Pradesh 461001",
    "phone": "Dr. Vasudha Tiwari",
    "hours": "Open· Closes 16:00",
    "image_url": "https://www.bing.com/maps/geoplat/REST/v1/Imagery/Map/RoadVibrant?ms=92,112&key=AnTcaqBi2ypp0xI-OZNi4W_ik2KhjgpqioTAtXLC8GzkMBQRMlyxvxyTnd5b73im&c=en-US&ur=in&da=n&logo=n&fmt=png&od=1&shading=hill&pp=22.755125,77.726906;dfp"
  },
  {
    "name": "Vikas Clinic",
    "address": "Malakhedi Road, Mitra Vihar, Near Yash Medical, Hoshangabad, Madhya Pradesh 461001",
    "phone": "Vikas Clinic",
    "hours": null,
    "image_url": "https://www.bing.com/maps/geoplat/REST/v1/Imagery/Map/RoadVibrant?ms=92,112&key=AnTcaqBi2ypp0xI-OZNi4W_ik2KhjgpqioTAtXLC8GzkMBQRMlyxvxyTnd5b73im&c=en-US&ur=in&da=n&logo=n&fmt=png&od=1&shading=hill&pp=22.746956,77.743156;dfp"
  },
  {
    "name": "Dr Anita Dehariya",
    "address": "Ward NO. 19, Ishan Parisar Phase 1, Hoshangabad, ITI Road, Hoshangabad, Madhya Pradesh 461001",
    "phone": "Dr Anita Dehariya",
    "hours": null,
    "image_url": "https://www.bing.com/maps/geoplat/REST/v1/Imagery/Map/RoadVibrant?ms=92,112&key=AnTcaqBi2ypp0xI-OZNi4W_ik2KhjgpqioTAtXLC8GzkMBQRMlyxvxyTnd5b73im&c=en-US&ur=in&da=n&logo=n&fmt=png&od=1&shading=hill&pp=22.740299,77.720566;dfp"
  },
  {
    "name": "Dr Yogesh Verma",
    "address": "Jalalabad, Hoshangabad, Madhya Pradesh 461001",
    "phone": "Dr Yogesh Verma",
    "hours": null,
    "image_url": "https://www.bing.com/maps/geoplat/REST/v1/Imagery/Map/RoadVibrant?ms=92,112&key=AnTcaqBi2ypp0xI-OZNi4W_ik2KhjgpqioTAtXLC8GzkMBQRMlyxvxyTnd5b73im&c=en-US&ur=in&da=n&logo=n&fmt=png&od=1&shading=hill&pp=22.751104,77.75106;dfp"
  },
  {
    "name": "Sai Shyam Ayurvedic Panchkarm Hospital",
    "address": "Anand Nagar, Hoshangabad, Madhya Pradesh 461001",
    "phone": "Sai Shyam Ayurvedic Panchkarm Hospital",
    "hours": null,
    "image_url": null
  },
  {
    "name": "Dr.Apoorv Shakti Nigam, ENT Specialist",
    "address": "National Chemist, Near Pandey Nursing Home, Ekta Chowk, Narmadapuram, Madhya Pradesh",
    "phone": "Dr.Apoorv Shakti Nigam, ENT Specialist",
    "hours": null,
    "image_url": "https://www.bing.com/maps/geoplat/REST/v1/Imagery/Map/RoadVibrant?ms=92,112&key=AnTcaqBi2ypp0xI-OZNi4W_ik2KhjgpqioTAtXLC8GzkMBQRMlyxvxyTnd5b73im&c=en-US&ur=in&da=n&logo=n&fmt=png&od=1&shading=hill&pp=22.760824,77.718147;dfp"
  },
  {
    "name": "Dr Ashish Gour Clinic",
    "address": "Shivaji Nagar, Hoshangabad, Nh-69, Hoshangabad Road, Hoshangabad, Madhya Pradesh 461001",
    "phone": "Dr Ashish Gour Clinic",
    "hours": null,
    "image_url": "https://www.bing.com/maps/geoplat/REST/v1/Imagery/Map/RoadVibrant?ms=92,112&key=AnTcaqBi2ypp0xI-OZNi4W_ik2KhjgpqioTAtXLC8GzkMBQRMlyxvxyTnd5b73im&c=en-US&ur=in&da=n&logo=n&fmt=png&od=1&shading=hill&pp=22.728699,77.726585;dfp"
  },
  {
    "name": "Dr.GOYAL Computerized Homoeopathic Clinic",
    "address": "Jagdish Pura, Hoshangabad, Madhya Pradesh 461001",
    "phone": "Dr.GOYAL Computerized Homoeopathic Clinic",
    "hours": null,
    "image_url": "https://www.bing.com/maps/geoplat/REST/v1/Imagery/Map/RoadVibrant?ms=92,112&key=AnTcaqBi2ypp0xI-OZNi4W_ik2KhjgpqioTAtXLC8GzkMBQRMlyxvxyTnd5b73im&c=en-US&ur=in&da=n&logo=n&fmt=png&od=1&shading=hill&pp=22.761057,77.712257;dfp"
  },
  {
    "name": "Dr Abhishek jain/ sankalp child clinic",
    "address": "Blossom Child Care, Hoshangabad, Madhya Pradesh 461001",
    "phone": "Dr Abhishek jain/ sankalp child clinic",
    "hours": "Closed· Opens 14:00",
    "image_url": null
  },
  {
    "name": "Dr Rajesh Tiwari",
    "address": "Circuit House Road, Sai Mandir, Saket Colony, Hoshangabad, Madhya Pradesh 461001",
    "phone": "Dr Rajesh Tiwari",
    "hours": "Open· Closes 15:00",
    "image_url": "https://www.bing.com/maps/geoplat/REST/v1/Imagery/Map/RoadVibrant?ms=92,112&key=AnTcaqBi2ypp0xI-OZNi4W_ik2KhjgpqioTAtXLC8GzkMBQRMlyxvxyTnd5b73im&c=en-US&ur=in&da=n&logo=n&fmt=png&od=1&shading=hill&pp=22.755873,77.723022;dfp"
  },
  {
    "name": "Dr Amit Patil Homoeopathic Clinic",
    "address": "Dr Amit Patil Dr Chandan Patil Iti Road Galla Mandi Hoshangabad, Hoshangabad, Madhya Pradesh 461001",
    "phone": "Dr Amit Patil Homoeopathic Clinic",
    "hours": null,
    "image_url": null
  },
  {
    "name": "Harne Diagnostic Centre",
    "address": "Near Harne Street, Hoshangabad, Madhya Pradesh",
    "phone": "Harne Diagnostic Centre",
    "hours": null,
    "image_url": null
  }
]