[
  {
    "name": "Dr. Gairik Ghosh | Orthopedic surgeon | Narayana, Chunavati",
    "address": "Narayana Hospital Chunavati, Andul Rd, Near Chunabati, Podara, Mourigram, Howrah, West Bengal 711109",
    "phone": "Dr. Gairik Ghosh | Orthopedic surgeon | Narayana, Chunavati",
    "hours": "Open 24 hours",
    "image_url": "/th?id=OLC.pZVR6Wef%2fyvarQ480x360&w=92&h=134&c=8&rs=1&qlt=80&cdv=1&pid=Local"
  },
  {
    "name": "Dr. Mridul Bera | General physician | Narayana Hospital",
    "address": "Narayana Hospital, 120, 1, Andul Rd, Near Nabanna, Shibpur, Howrah, West Bengal 711103",
    "phone": "Dr. Mridul Bera | General physician | Narayana Hospital",
    "hours": "Open· Closes 17:00",
    "image_url": "https://www.bing.com/maps/geoplat/REST/v1/Imagery/Map/RoadVibrant?ms=92,134&key=AnTcaqBi2ypp0xI-OZNi4W_ik2KhjgpqioTAtXLC8GzkMBQRMlyxvxyTnd5b73im&c=en-US&ur=in&da=n&logo=n&fmt=png&od=1&shading=hill&pp=22.562897,88.292686;dfp"
  },
  {
    "name": "Dr. Abhijit Bandyopadhyay",
    "address": "11, 12/5, Mollah Para Lane Howrah, Kajipara, Howrah, West Bengal",
    "phone": "Dr. Abhijit Bandyopadhyay",
    "hours": "Closed· Opens 12:00",
    "image_url": "https://www.bing.com/maps/geoplat/REST/v1/Imagery/Map/RoadVibrant?ms=92,112&key=AnTcaqBi2ypp0xI-OZNi4W_ik2KhjgpqioTAtXLC8GzkMBQRMlyxvxyTnd5b73im&c=en-US&ur=in&da=n&logo=n&fmt=png&od=1&shading=hill&pp=22.565916,88.316597;dfp"
  },
  {
    "name": "Apollo clinic, Ramrajatala",
    "address": "Ram Charan Sett Road, Near Bhanumati School, Santragachi, Ramrajatala, Howrah, West Bengal 711104",
    "phone": "Apollo clinic, Ramrajatala",
    "hours": "Open· Closes 21:00",
    "image_url": "/th?id=OLC.cQ0EolErlRyUqg480x360&w=92&h=134&c=8&rs=1&qlt=80&cdv=1&pid=Local"
  },
  {
    "name": "Dr. Vijay Singh Baid",
    "address": "Near Golbari Thana, Howrah, West Bengal",
    "phone": "Dr. Vijay Singh Baid",
    "hours": "Closed· Opens Sep 29 at 10:45",
    "image_url": "/th?id=OLC.H7LEiZPjvQaqIg480x360&w=92&h=112&c=8&rs=1&qlt=80&cdv=1&pid=Local"
  },
  {
    "name": "Dr Atanu Maji",
    "address": "Bankra Munsidanga Nayabazar Rd, Old Jagacha, Howrah, West Bengal",
    "phone": "Dr Atanu Maji",
    "hours": null,
    "image_url": "https://www.bing.com/maps/geoplat/REST/v1/Imagery/Map/RoadVibrant?ms=92,112&key=AnTcaqBi2ypp0xI-OZNi4W_ik2KhjgpqioTAtXLC8GzkMBQRMlyxvxyTnd5b73im&c=en-US&ur=in&da=n&logo=n&fmt=png&od=1&shading=hill&pp=22.590616,88.279892;dfp"
  },
  {
    "name": "Dr. Devroop Sarkar",
    "address": "34/1/1, Naora, Shibpur, Howrah, West Bengal 711102, India, Howrah, West Bengal",
    "phone": "Dr. Devroop Sarkar",
    "hours": null,
    "image_url": null
  },
  {
    "name": "Dr. Samrat Sandip Bose",
    "address": "20, Round Tank Lane, Shaktikunj Appartment, Howrah-101. Landmark : Near Telephone Exchange, Mallik Pha…",
    "phone": "Dr. Samrat Sandip Bose",
    "hours": "Open· Closes 12:30",
    "image_url": "https://www.bing.com/maps/geoplat/REST/v1/Imagery/Map/RoadVibrant?ms=92,112&key=AnTcaqBi2ypp0xI-OZNi4W_ik2KhjgpqioTAtXLC8GzkMBQRMlyxvxyTnd5b73im&c=en-US&ur=in&da=n&logo=n&fmt=png&od=1&shading=hill&pp=22.593662,88.268547;dfp"
  },
  {
    "name": "Nova Clinic",
    "address": "Kona Express Highway, Santragachhi, Kolkata, West Bengal 711109",
    "phone": "Nova Clinic",
    "hours": "Open· Closes 23:00",
    "image_url": null
  },
  {
    "name": "Long Life Diagnostic Centre  | Best Doctor Clinic",
    "address": "Salap More, Salap High Road, Howrah, Amta, Katlia-Nibra NH-6 Connector Rd, Howrah, West Bengal",
    "phone": "Long Life Diagnostic Centre  | Best Doctor Clinic",
    "hours": null,
    "image_url": null
  },
  {
    "name": "Dr Satyabrta Dirghangi Clinic",
    "address": "Andul, Kolkata, West Bengal 711302",
    "phone": "Dr Satyabrta Dirghangi Clinic",
    "hours": null,
    "image_url": null
  },
  {
    "name": "Wellness Medical Clinic",
    "address": "S.N.N Ganguly Road, Howrah, West Bengal 711104",
    "phone": "Wellness Medical Clinic",
    "hours": "Open· Closes 18:00",
    "image_url": null
  },
  {
    "name": "Modern Health Clinic",
    "address": "Bankra Bazar Road, Near Shikshan Sevak Sangha, Bankra, Howrah, Kolkata, West Bengal 711403",
    "phone": "Modern Health Clinic",
    "hours": null,
    "image_url": "https://www.bing.com/maps/geoplat/REST/v1/Imagery/Map/RoadVibrant?ms=92,112&key=AnTcaqBi2ypp0xI-OZNi4W_ik2KhjgpqioTAtXLC8GzkMBQRMlyxvxyTnd5b73im&c=en-US&ur=in&da=n&logo=n&fmt=png&od=1&shading=hill&pp=22.609453,88.279251;dfp"
  },
  {
    "name": "Dr. Sayan Das",
    "address": "120/1, Junction Of Second Hooghly Bridge, Landmark: Near College Ghat Road, Howrah 711103",
    "phone": "Dr. Sayan Das",
    "hours": "Open· Closes 13:30",
    "image_url": null
  },
  {
    "name": "Dr. Smiti Rani Srivastava",
    "address": "478, Grand Trunk Road, Choura Bustee, Shibpur, Howrah, West Bengal",
    "phone": "Dr. Smiti Rani Srivastava",
    "hours": "Closed· Opens Thu 17:00",
    "image_url": "https://www.bing.com/maps/geoplat/REST/v1/Imagery/Map/RoadVibrant?ms=92,112&key=AnTcaqBi2ypp0xI-OZNi4W_ik2KhjgpqioTAtXLC8GzkMBQRMlyxvxyTnd5b73im&c=en-US&ur=in&da=n&logo=n&fmt=png&od=1&shading=hill&pp=22.568518,88.325211;dfp"
  },
  {
    "name": "West Kolkata Multispeciality Hospital - Diagnostic Centre | Polyclinic | Hospital in Howrah",
    "address": "Munshidanga, Bankra, Howrah, Nibra, West Bengal",
    "phone": "West Kolkata Multispeciality Hospital - Diagnostic Centre | Polyclinic | Hospital in Howrah",
    "hours": null,
    "image_url": "https://www.bing.com/maps/geoplat/REST/v1/Imagery/Map/RoadVibrant?ms=92,112&key=AnTcaqBi2ypp0xI-OZNi4W_ik2KhjgpqioTAtXLC8GzkMBQRMlyxvxyTnd5b73im&c=en-US&ur=in&da=n&logo=n&fmt=png&od=1&shading=hill&pp=22.593315,88.280876;dfp"
  },
  {
    "name": "Narayan Homoeo Clinic",
    "address": "Andul-Bazar, P.O, Dist, Andul Mouri Rd, Andul, Howrah, West Bengal",
    "phone": "Narayan Homoeo Clinic",
    "hours": null,
    "image_url": null
  },
  {
    "name": "Dr Sudeep Das",
    "address": "Medica Superspecialty Hospital 127 Mukundapur, Eastern Metropolitan Bypass, Kolkata, West Bengal",
    "phone": "Dr Sudeep Das",
    "hours": null,
    "image_url": "https://www.bing.com/maps/geoplat/REST/v1/Imagery/Map/RoadVibrant?ms=92,112&key=AnTcaqBi2ypp0xI-OZNi4W_ik2KhjgpqioTAtXLC8GzkMBQRMlyxvxyTnd5b73im&c=en-US&ur=in&da=n&logo=n&fmt=png&od=1&shading=hill&pp=22.589886,88.28833;dfp"
  }
]