[
  {
    "name": "Dr. Reddy Pradeep M",
    "address": "Hyderabad Multispeciality Hospital, 16-2-674/11, Judges Colony, New Malakpet, Amberpet, Telangana 500036",
    "phone": "Dr. Reddy Pradeep M",
    "hours": "Open 24 hours",
    "image_url": "/th?id=OLC.oS5%2fbJWDJ8dJMA480x360&w=92&h=134&c=8&rs=1&qlt=80&cdv=1&pid=Local"
  },
  {
    "name": "Dr. G M Irfan",
    "address": "17-4-392, Dabeerpura Matakhidiki, Hyderabad, Telangana",
    "phone": "Dr. G M Irfan",
    "hours": "Closed· Opens 20:00",
    "image_url": "/th?id=OLC.FqgTdrB%2fXjCpqw480x360&w=92&h=112&c=8&rs=1&qlt=80&cdv=1&pid=Local"
  },
  {
    "name": "Dr VAMSHIDHAR REDDY T",
    "address": "16-10-29, Nalgonda X Roads, Near New Market Metro Station, Yashoda Hospitals, Malakpet, Amberpet, Telan…",
    "phone": "Dr VAMSHIDHAR REDDY T",
    "hours": "Open· Closes 17:00",
    "image_url": "https://www.bing.com/maps/geoplat/REST/v1/Imagery/Map/RoadVibrant?ms=92,134&key=AnTcaqBi2ypp0xI-OZNi4W_ik2KhjgpqioTAtXLC8GzkMBQRMlyxvxyTnd5b73im&c=en-US&ur=in&da=n&logo=n&fmt=png&od=1&shading=hill&pp=17.37488,78.499268;dfp"
  },
  {
    "name": "Dr PAWAN PODDAR",
    "address": "16-10-29, Nalgonda X Roads, Near New Market Metro Station, Yashoda Hospitals, Malakpet, Amberpet, Telan…",
    "phone": "Dr PAWAN PODDAR",
    "hours": "Open· Closes 17:00",
    "image_url": "/th?id=OLC.KsPEjs2FHOyJdA480x360&w=92&h=134&c=8&rs=1&qlt=80&cdv=1&pid=Local"
  },
  {
    "name": "Dr Mohd Vaseem",
    "address": "WE Care Polyclinic. 11-2-553. Opp Masjid Nawaz Jung, Near Alhamdullilah Hotel, Behind Habeeb Nagar PS, A…",
    "phone": "Dr Mohd Vaseem",
    "hours": "Open· Closes 21:00",
    "image_url": "/th?id=OLC.%2bps8EhX9k3s84Q480x360&w=92&h=134&c=8&rs=1&qlt=80&cdv=1&pid=Local"
  },
  {
    "name": "Dr. Syed Hassan | General Physician | Citizen Care Clinic",
    "address": "Citizen Care Clinic, Yammu Colony, Hyderabad, Telangana, India, 500064, Hyderabad, Madhya Prades…",
    "phone": "Dr. Syed Hassan | General Physician | Citizen Care Clinic",
    "hours": "Open· Closes 18:00",
    "image_url": "/th?id=OLC.wZgfs7puXLF%2fCA480x360&w=92&h=134&c=8&rs=1&qlt=80&cdv=1&pid=Local"
  },
  {
    "name": "Dr. Praveen Kumar Saxenaa",
    "address": "st Floor, Mor Chambers, Above Mor Medicals Basheerbagh, Landmark, Hyderabad, Hyderabad 500004",
    "phone": "Dr. Praveen Kumar Saxenaa",
    "hours": "Open· Closes 14:00",
    "image_url": null
  },
  {
    "name": "Koshish Clinic",
    "address": "45-C- OPF Society, Khayaban -e Jinnah, Near Subhan Allah Chowk, Lahore, Lahore",
    "phone": "Koshish Clinic",
    "hours": null,
    "image_url": "https://www.bing.com/maps/geoplat/REST/v1/Imagery/Map/RoadVibrant?ms=92,112&key=AnTcaqBi2ypp0xI-OZNi4W_ik2KhjgpqioTAtXLC8GzkMBQRMlyxvxyTnd5b73im&c=en-US&ur=in&da=n&logo=n&fmt=png&od=1&shading=hill&pp=17.361357,78.476021;dfp"
  },
  {
    "name": "Dr. G M Irfan",
    "address": "22-3-660, Mir Alam Mandi Road, Purana Haveli, Pathar Gatti, Hyderabad, Telangana",
    "phone": "Dr. G M Irfan",
    "hours": "Closed· Opens 16:00",
    "image_url": "https://www.bing.com/maps/geoplat/REST/v1/Imagery/Map/RoadVibrant?ms=92,112&key=AnTcaqBi2ypp0xI-OZNi4W_ik2KhjgpqioTAtXLC8GzkMBQRMlyxvxyTnd5b73im&c=en-US&ur=in&da=n&logo=n&fmt=png&od=1&shading=hill&pp=17.363394,78.480949;dfp"
  },
  {
    "name": "Dr. Ishwar D.Punjabi",
    "address": "Old Station Road, Abids, Landmark: Near Mgbs Chowrastha, Hyderabad, Telangana",
    "phone": "Dr. Ishwar D.Punjabi",
    "hours": "Closed· Opens 12:00",
    "image_url": null
  },
  {
    "name": "Dr. Mir Jawad Zar Khan | Best Orthopedic Doctor  | Knee, Hip Joint Replacement Surgeon",
    "address": "Opp. Pillar No. 150, Pvnr Express Flyover, Attapur, Hyderabad, Telangana 500048",
    "phone": "Dr. Mir Jawad Zar Khan | Best Orthopedic Doctor  | Knee, Hip Joint Replacement Surgeon",
    "hours": "Open 24 hours",
    "image_url": null
  },
  {
    "name": "Dr. Jugal Kishore Kadel",
    "address": "Murgi Chowk, Hyderabad, Telangana",
    "phone": "Dr. Jugal Kishore Kadel",
    "hours": "Closed· Opens tomorrow 08:00",
    "image_url": null
  },
  {
    "name": "Dr. Karun Singla",
    "address": "Kothi Mehal Mubarak, Sangrur, Punjab",
    "phone": "Dr. Karun Singla",
    "hours": "Closed· Opens 11:00",
    "image_url": null
  },
  {
    "name": "Dr. Sandeep Raj Bharma",
    "address": "High Court Road, Hyderabad, Telangana",
    "phone": "Dr. Sandeep Raj Bharma",
    "hours": "Closed· Opens 17:00",
    "image_url": null
  },
  {
    "name": "Dr. Sandeep Raj Bharma",
    "address": "Care Hospital, Exhibition Grounds Road, Nampally, Hyderabad",
    "phone": "Dr. Sandeep Raj Bharma",
    "hours": "Open· Closes 16:00",
    "image_url": "https://www.bing.com/maps/geoplat/REST/v1/Imagery/Map/RoadVibrant?ms=92,112&key=AnTcaqBi2ypp0xI-OZNi4W_ik2KhjgpqioTAtXLC8GzkMBQRMlyxvxyTnd5b73im&c=en-US&ur=in&da=n&logo=n&fmt=png&od=1&shading=hill&pp=17.385651,78.474403;dfp"
  },
  {
    "name": "Dr. Sarvajeet Pal",
    "address": "5-9-94, Nampally, Hyderabad, Telangana 500001",
    "phone": "Dr. Sarvajeet Pal",
    "hours": "Open· Closes 19:00",
    "image_url": "https://www.bing.com/maps/geoplat/REST/v1/Imagery/Map/RoadVibrant?ms=92,112&key=AnTcaqBi2ypp0xI-OZNi4W_ik2KhjgpqioTAtXLC8GzkMBQRMlyxvxyTnd5b73im&c=en-US&ur=in&da=n&logo=n&fmt=png&od=1&shading=hill&pp=17.396824,78.471931;dfp"
  },
  {
    "name": "Dr. Srikant Jawalkar",
    "address": "A-1, View Towers, Hyderabad, Telangana",
    "phone": "Dr. Srikant Jawalkar",
    "hours": "Closed· Opens 17:00",
    "image_url": null
  },
  {
    "name": "Sai Krishna Neuro Hospital",
    "address": "Kachiguda Station Rd, Kachiguda, Himayatnagar, Telangana 500027",
    "phone": "Sai Krishna Neuro Hospital",
    "hours": "Open· Closes 12:00",
    "image_url": null
  }
]