[
  {
    "name": "Imphal Hospital & Research Centre",
    "address": "Rims Road, Imphal, Manipur 795001",
    "phone": "Imphal Hospital & Research Centre",
    "hours": null,
    "image_url": "/th?id=OLC.JbBnomSj3jXxbg480x360&w=92&h=112&c=8&rs=1&qlt=80&cdv=1&pid=Local"
  },
  {
    "name": "Dr C M Dutta Clinic",
    "address": "Indo Myanmar Road, Sika Higher Secondary School, Babupara, Imphal, Manipur 795001",
    "phone": "Dr C M Dutta Clinic",
    "hours": null,
    "image_url": "https://www.bing.com/maps/geoplat/REST/v1/Imagery/Map/RoadVibrant?ms=92,112&key=AnTcaqBi2ypp0xI-OZNi4W_ik2KhjgpqioTAtXLC8GzkMBQRMlyxvxyTnd5b73im&c=en-US&ur=in&da=n&logo=n&fmt=png&od=1&shading=hill&pp=24.790779,93.941841;dfp"
  },
  {
    "name": "Shija Hospitals & Research Institute",
    "address": "Healthcity Langol, Imphal-West, Imphal, Manipur 795004",
    "phone": "Shija Hospitals & Research Institute",
    "hours": null,
    "image_url": "/th?id=OLC.ZihyELvdrhKmDQ480x360&w=92&h=112&c=8&rs=1&qlt=80&cdv=1&pid=Local"
  },
  {
    "name": "Dr. Supriya Naturopathy and Yoga wellness centre ( health clinic)",
    "address": "Dr.Supriya Naturopathy And Yoga Wellness, Opposite to Rohini North Eastern School, Imphal, Manipur 795001",
    "phone": "Dr. Supriya Naturopathy and Yoga wellness centre ( health clinic)",
    "hours": "Open· Closes 16:30",
    "image_url": "/th?id=OLC.mGbeLSfraL3yHA480x360&w=92&h=134&c=8&rs=1&qlt=80&cdv=1&pid=Local"
  },
  {
    "name": "Primary Health Centre",
    "address": "Indo Myanmar Road, Makakmayum Khulakpam Masjid, Lilong, Imphal, Manipur 795009",
    "phone": "Primary Health Centre",
    "hours": null,
    "image_url": "https://www.bing.com/maps/geoplat/REST/v1/Imagery/Map/RoadVibrant?ms=92,112&key=AnTcaqBi2ypp0xI-OZNi4W_ik2KhjgpqioTAtXLC8GzkMBQRMlyxvxyTnd5b73im&c=en-US&ur=in&da=n&logo=n&fmt=png&od=1&shading=hill&pp=24.700914,93.902832;dfp"
  },
  {
    "name": "Dr.r.n.gupta",
    "address": "Rw7q+w39, Khoyathong, Thangal Bazar, Manipur 795001",
    "phone": "Dr.r.n.gupta",
    "hours": null,
    "image_url": "https://www.bing.com/maps/geoplat/REST/v1/Imagery/Map/RoadVibrant?ms=92,112&key=AnTcaqBi2ypp0xI-OZNi4W_ik2KhjgpqioTAtXLC8GzkMBQRMlyxvxyTnd5b73im&c=en-US&ur=in&da=n&logo=n&fmt=png&od=1&shading=hill&pp=24.809361,93.935654;dfp"
  },
  {
    "name": "People Health Clinic",
    "address": "Khurai Khomidok Heikrumakhong, Heingang - Pangei Rd, Imphal, Manipur",
    "phone": "People Health Clinic",
    "hours": null,
    "image_url": "https://www.bing.com/maps/geoplat/REST/v1/Imagery/Map/RoadVibrant?ms=92,112&key=AnTcaqBi2ypp0xI-OZNi4W_ik2KhjgpqioTAtXLC8GzkMBQRMlyxvxyTnd5b73im&c=en-US&ur=in&da=n&logo=n&fmt=png&od=1&shading=hill&pp=24.876877,93.970154;dfp"
  },
  {
    "name": "Regional Research Institute - Homoeopathy",
    "address": "New Checkon, Opposite Tribal Colony, Imphal, Manipur 795001",
    "phone": "Regional Research Institute - Homoeopathy",
    "hours": null,
    "image_url": null
  },
  {
    "name": "Virgo Physicotherapy Clinic",
    "address": "Ah1, Lairembi Lampak, Imphal, Manipur 795008",
    "phone": "Virgo Physicotherapy Clinic",
    "hours": null,
    "image_url": "https://www.bing.com/maps/geoplat/REST/v1/Imagery/Map/RoadVibrant?ms=92,112&key=AnTcaqBi2ypp0xI-OZNi4W_ik2KhjgpqioTAtXLC8GzkMBQRMlyxvxyTnd5b73im&c=en-US&ur=in&da=n&logo=n&fmt=png&od=1&shading=hill&pp=24.776987,93.939117;dfp"
  },
  {
    "name": "Karkinos Manipur Cancer Hospital & Research Centre",
    "address": "RX55+WMJ, Khongnang Makhong, Lairikyengbam Leikai, Pheidekpi, Imphal, Manipur",
    "phone": "Karkinos Manipur Cancer Hospital & Research Centre",
    "hours": null,
    "image_url": "https://www.bing.com/maps/geoplat/REST/v1/Imagery/Map/RoadVibrant?ms=92,112&key=AnTcaqBi2ypp0xI-OZNi4W_ik2KhjgpqioTAtXLC8GzkMBQRMlyxvxyTnd5b73im&c=en-US&ur=in&da=n&logo=n&fmt=png&od=1&shading=hill&pp=24.807056,93.97757;dfp"
  },
  {
    "name": "Dr Lal PathLabs – Patient Service Centre",
    "address": "RW6M88, Kasturi Thong, Boragali Thangal Bazar Imphal West Thangal Bazar, Kasturi Bridge, Imphal, Manipur",
    "phone": "Dr Lal PathLabs – Patient Service Centre",
    "hours": null,
    "image_url": "https://www.bing.com/maps/geoplat/REST/v1/Imagery/Map/RoadVibrant?ms=92,112&key=AnTcaqBi2ypp0xI-OZNi4W_ik2KhjgpqioTAtXLC8GzkMBQRMlyxvxyTnd5b73im&c=en-US&ur=in&da=n&logo=n&fmt=png&od=1&shading=hill&pp=24.788639,93.959862;dfp"
  },
  {
    "name": "Lifespan Diabetes Clinic, Imphal.",
    "address": "New Checkon Rd, Angom Colony, Imphal, Manipur 795005, India, Imphal, Manipur 795005",
    "phone": "Lifespan Diabetes Clinic, Imphal.",
    "hours": null,
    "image_url": null
  },
  {
    "name": "Nazareth Clinic and Diagnostic Center",
    "address": "Stadium Road, Imphal, Manipur 795002",
    "phone": "Nazareth Clinic and Diagnostic Center",
    "hours": null,
    "image_url": "https://www.bing.com/maps/geoplat/REST/v1/Imagery/Map/RoadVibrant?ms=92,112&key=AnTcaqBi2ypp0xI-OZNi4W_ik2KhjgpqioTAtXLC8GzkMBQRMlyxvxyTnd5b73im&c=en-US&ur=in&da=n&logo=n&fmt=png&od=1&shading=hill&pp=24.825947,93.945435;dfp"
  },
  {
    "name": "Shija Ent Hospital",
    "address": "Lamphel Road, Kendriya Vidyalaya, Lamphel, Imphal, Manipur 795004",
    "phone": "Shija Ent Hospital",
    "hours": null,
    "image_url": "https://www.bing.com/maps/geoplat/REST/v1/Imagery/Map/RoadVibrant?ms=92,112&key=AnTcaqBi2ypp0xI-OZNi4W_ik2KhjgpqioTAtXLC8GzkMBQRMlyxvxyTnd5b73im&c=en-US&ur=in&da=n&logo=n&fmt=png&od=1&shading=hill&pp=24.825102,93.931999;dfp"
  },
  {
    "name": "Dr Lal PathLabs – Patient Service Centre",
    "address": "opp. Landmark Hospital, opp. MN Collage, Housing Board Colony, Shahbad, Haryana",
    "phone": "Dr Lal PathLabs – Patient Service Centre",
    "hours": null,
    "image_url": "https://www.bing.com/maps/geoplat/REST/v1/Imagery/Map/RoadVibrant?ms=92,112&key=AnTcaqBi2ypp0xI-OZNi4W_ik2KhjgpqioTAtXLC8GzkMBQRMlyxvxyTnd5b73im&c=en-US&ur=in&da=n&logo=n&fmt=png&od=1&shading=hill&pp=24.810001,93.934097;dfp"
  },
  {
    "name": "Trucare Ent Clinic",
    "address": "1st Floor (Above Marble Selection), Khongnang Ani Karak, Chingmeirong, Imphal, Manipur 795001",
    "phone": "Trucare Ent Clinic",
    "hours": null,
    "image_url": null
  },
  {
    "name": "Neurocare",
    "address": "Uripok Khwai Brahmapur, Near SBI ATM, Imphal, Manipur 795004",
    "phone": "Neurocare",
    "hours": "Open· Closes 16:00",
    "image_url": null
  },
  {
    "name": "Dr. N.Ibemcha Chanu",
    "address": "Eastern Motors Complex Imphal Dimapur Road Chingmeirong West, Imphal, Manipur 795001, Imphal, …",
    "phone": "Dr. N.Ibemcha Chanu",
    "hours": "Open· Closes 12:00",
    "image_url": "https://www.bing.com/maps/geoplat/REST/v1/Imagery/Map/RoadVibrant?ms=92,112&key=AnTcaqBi2ypp0xI-OZNi4W_ik2KhjgpqioTAtXLC8GzkMBQRMlyxvxyTnd5b73im&c=en-US&ur=in&da=n&logo=n&fmt=png&od=1&shading=hill&pp=24.825924,93.944435;dfp"
  }
]