[
  {
    "name": "Jabalpur Hospital & Research Center",
    "address": "Russel Crossing, Napier Town, Jabalpur, Madhya Pradesh 482002",
    "phone": "Jabalpur Hospital & Research Center",
    "hours": null,
    "image_url": "/th?id=OLC.fKDDnUzlG0F2Eg480x360&w=92&h=112&c=8&rs=1&qlt=80&cdv=1&pid=Local"
  },
  {
    "name": "Dr. Ayush Shrivastava ( डॉ. आयुष श्रीवास्तव ) - General Physician and Family Doctor",
    "address": "Healthy Minds Besides Bank of Baroda, Near Shastri Bridge, Napier Town, Jabalpur, Madhya Pradesh 482001",
    "phone": "Dr. Ayush Shrivastava ( डॉ. आयुष श्रीवास्तव ) - General Physician and Family Doctor",
    "hours": "Closed· Opens 12:00",
    "image_url": "/th?id=OLC.kqQqY7pi4XJshA480x360&w=92&h=134&c=8&rs=1&qlt=80&cdv=1&pid=Local"
  },
  {
    "name": "Dr. Anoop Gond- General Physician",
    "address": "Dr. Anoop Clinic, Gole Bazar, Jabalpur, Madhya Pradesh 482001",
    "phone": "Dr. Anoop Gond- General Physician",
    "hours": "Closed· Opens 11:00",
    "image_url": "https://www.bing.com/maps/geoplat/REST/v1/Imagery/Map/RoadVibrant?ms=92,134&key=AnTcaqBi2ypp0xI-OZNi4W_ik2KhjgpqioTAtXLC8GzkMBQRMlyxvxyTnd5b73im&c=en-US&ur=in&da=n&logo=n&fmt=png&od=1&shading=hill&pp=23.163092,79.918625;dfp"
  },
  {
    "name": "Dr.Ghai Clinic",
    "address": "20, Rajul Landmark, Opp Jbp Hospt, Jabalpur, Madhya Pradesh, Madhya Pradesh 482002",
    "phone": "Dr.Ghai Clinic",
    "hours": "Open· Closes 12:00",
    "image_url": "/th?id=OLC.lix4QViq91hy4w480x360&w=92&h=134&c=8&rs=1&qlt=80&cdv=1&pid=Local"
  },
  {
    "name": "Dr. M. K. Maheshwari",
    "address": "Shri Nikunj, Manmohan Nagar, Damoh Road, Landmark: Behind Gayatri Mandir, Jabalpur, Madhya Pradesh",
    "phone": "Dr. M. K. Maheshwari",
    "hours": "Closed· Opens tomorrow 14:00",
    "image_url": "/th?id=OLC.UOf0v4Z5WbTzIg480x360&w=92&h=112&c=8&rs=1&qlt=80&cdv=1&pid=Local"
  },
  {
    "name": "Dr Shailesh Nema (Asthma, TB, Allergy, Chest Clinic )",
    "address": "MP SH 22, Marhatal, Jabalpur, Madhya Pradesh",
    "phone": "Dr Shailesh Nema (Asthma, TB, Allergy, Chest Clinic )",
    "hours": null,
    "image_url": "https://www.bing.com/maps/geoplat/REST/v1/Imagery/Map/RoadVibrant?ms=92,112&key=AnTcaqBi2ypp0xI-OZNi4W_ik2KhjgpqioTAtXLC8GzkMBQRMlyxvxyTnd5b73im&c=en-US&ur=in&da=n&logo=n&fmt=png&od=1&shading=hill&pp=23.166462,79.933792;dfp"
  },
  {
    "name": "Dr. Sunny Bhasin - Aastha Pain Clinic",
    "address": "989, Infront of D.N. Jain School, Jamdar Hospital Road, Golbazar, Jabalpur, Madhya Pradesh",
    "phone": "Dr. Sunny Bhasin - Aastha Pain Clinic",
    "hours": "Closed· Opens 12:00",
    "image_url": null
  },
  {
    "name": "New Shishu Clinic Dr Mohammad Arshi Khan",
    "address": "Shop no 10, New Bahorabag Market, Hazrat Tipu Sultan Rd, in Front of Hanifiya Masjid, Gohalpur, Jabalpur, Ma…",
    "phone": "New Shishu Clinic Dr Mohammad Arshi Khan",
    "hours": null,
    "image_url": "https://www.bing.com/maps/geoplat/REST/v1/Imagery/Map/RoadVibrant?ms=92,112&key=AnTcaqBi2ypp0xI-OZNi4W_ik2KhjgpqioTAtXLC8GzkMBQRMlyxvxyTnd5b73im&c=en-US&ur=in&da=n&logo=n&fmt=png&od=1&shading=hill&pp=23.166128,79.936989;dfp"
  },
  {
    "name": "Dr Anupam Sahni",
    "address": "1352, Napier Town, Home Science College Road, Jabalpur, Madhya Pradesh 482001",
    "phone": "Dr Anupam Sahni",
    "hours": null,
    "image_url": null
  },
  {
    "name": "Dr Asheesh Tandon (डा आशीष टंडन) Chief Neuro Surgeon Advance Neurosurgery Brain and Spine Surge…",
    "address": "Beside Aditya Super Speciality Hospital, MLB School Road, Opp. Little Kingdom School, Napier Town, Jabal…",
    "phone": "Dr Asheesh Tandon (डा आशीष टंडन) Chief Neuro Surgeon Advance Neurosurgery Brain and Spine Surge…",
    "hours": "Closed· Opens 11:00",
    "image_url": "https://www.bing.com/maps/geoplat/REST/v1/Imagery/Map/RoadVibrant?ms=92,134&key=AnTcaqBi2ypp0xI-OZNi4W_ik2KhjgpqioTAtXLC8GzkMBQRMlyxvxyTnd5b73im&c=en-US&ur=in&da=n&logo=n&fmt=png&od=1&shading=hill&pp=23.160583,79.928589;dfp"
  },
  {
    "name": "Dr. Dharmesh Deorhiya (Predictive Homoeopathy)",
    "address": "Floor Wright Town, Jabalpur, Madhya Pradesh 482001",
    "phone": "Dr. Dharmesh Deorhiya (Predictive Homoeopathy)",
    "hours": null,
    "image_url": "https://www.bing.com/maps/geoplat/REST/v1/Imagery/Map/RoadVibrant?ms=92,112&key=AnTcaqBi2ypp0xI-OZNi4W_ik2KhjgpqioTAtXLC8GzkMBQRMlyxvxyTnd5b73im&c=en-US&ur=in&da=n&logo=n&fmt=png&od=1&shading=hill&pp=23.165251,79.924217;dfp"
  },
  {
    "name": "Dr. Ashish Dengra(Diabetes, Thyroid & Obesity Specialist)",
    "address": "1547, Home Science College Rd, Cheevani Phamad Nagar, Napier Town, Jabalpur, Madhya Pradesh",
    "phone": "Dr. Ashish Dengra(Diabetes, Thyroid & Obesity Specialist)",
    "hours": "Closed· Opens 12:00",
    "image_url": "https://www.bing.com/maps/geoplat/REST/v1/Imagery/Map/RoadVibrant?ms=92,134&key=AnTcaqBi2ypp0xI-OZNi4W_ik2KhjgpqioTAtXLC8GzkMBQRMlyxvxyTnd5b73im&c=en-US&ur=in&da=n&logo=n&fmt=png&od=1&shading=hill&pp=23.160614,79.924843;clcp"
  },
  {
    "name": "Dr Batra’s Homeopathy, Hair & Skin Clinic",
    "address": "Ground Floor, Wright Town, Beside Petrol Pump, Jabalpur, Madhya Pradesh 482002",
    "phone": "Dr Batra’s Homeopathy, Hair & Skin Clinic",
    "hours": "Closed· Opens tomorrow 11:30",
    "image_url": null
  },
  {
    "name": "Cosmetic surgery clinic Jabalpur, Liposuction, hymenoplasty, plastic surgery (Dr. Jalaj Shivhare)",
    "address": "4Th Bridge Road, Napier Town, Jabalpur, Madhya Pradesh 482001",
    "phone": "Cosmetic surgery clinic Jabalpur, Liposuction, hymenoplasty, plastic surgery (Dr. Jalaj Shivhare)",
    "hours": null,
    "image_url": null
  },
  {
    "name": "Dr. Ruby Rajak Sanjeevani homoeopathic clinic",
    "address": "1617/1, Yadav Colony Elza School Road, Near Khan Buero Office, Labour Chowk, Jabalpur, Madhya Pradesh",
    "phone": "Dr. Ruby Rajak Sanjeevani homoeopathic clinic",
    "hours": null,
    "image_url": "https://www.bing.com/maps/geoplat/REST/v1/Imagery/Map/RoadVibrant?ms=92,112&key=AnTcaqBi2ypp0xI-OZNi4W_ik2KhjgpqioTAtXLC8GzkMBQRMlyxvxyTnd5b73im&c=en-US&ur=in&da=n&logo=n&fmt=png&od=1&shading=hill&pp=23.170683,79.911545;dfp"
  },
  {
    "name": "Dr. Dilip Pathak",
    "address": "Plot-B, Scheme No. 5, Ahinsha Chowk, Jabalpur, Madhya Pradesh",
    "phone": "Dr. Dilip Pathak",
    "hours": "Open· Closes 13:00",
    "image_url": null
  },
  {
    "name": "Dr Nitin Das Chief consultant cardiac surgery Jabalpur",
    "address": "Jabalpur Hospital and Research Center Russel Chawk, Shalby Hospital Vijay Nagar Jabalpur, Prime Super Spe…",
    "phone": "Dr Nitin Das Chief consultant cardiac surgery Jabalpur",
    "hours": "Open· Closes 20:00",
    "image_url": null
  },
  {
    "name": "Dr.Sanjay",
    "address": "Opposite Beohar Bagh Petrol Pump Near High Court Ghamapur, Jabalpur, Madhya Pradesh 123654",
    "phone": "Dr.Sanjay",
    "hours": null,
    "image_url": null
  }
]