[
  {
    "name": "Dr Himansu sekhar Nanda",
    "address": "SUN Clinic. Infront of District Headquarter Hospital, Jagatsinghpur, Odisha",
    "phone": "Dr Himansu sekhar Nanda",
    "hours": null,
    "image_url": "https://www.bing.com/maps/geoplat/REST/v1/Imagery/Map/RoadVibrant?ms=92,112&key=AnTcaqBi2ypp0xI-OZNi4W_ik2KhjgpqioTAtXLC8GzkMBQRMlyxvxyTnd5b73im&c=en-US&ur=in&da=n&logo=n&fmt=png&od=1&shading=hill&pp=20.252703,86.1791;dfp"
  },
  {
    "name": "Swasti Clinic",
    "address": "Jagatsinghpur Balikuda Road, Balikuda Road, Sanbazar, Jagatsinghapur, Odisha 754103",
    "phone": "Swasti Clinic",
    "hours": null,
    "image_url": "https://www.bing.com/maps/geoplat/REST/v1/Imagery/Map/RoadVibrant?ms=92,112&key=AnTcaqBi2ypp0xI-OZNi4W_ik2KhjgpqioTAtXLC8GzkMBQRMlyxvxyTnd5b73im&c=en-US&ur=in&da=n&logo=n&fmt=png&od=1&shading=hill&pp=20.252272,86.180725;dfp"
  },
  {
    "name": "Khan Nursing Home And Diagnostic Center",
    "address": "Sana Bazar Road, Jagatsinghpur, Odisha 754103, India, Jagatsinghpur, Odisha 754103",
    "phone": "Khan Nursing Home And Diagnostic Center",
    "hours": null,
    "image_url": "/th?id=OLC.H%2bzTecX3UiahzA480x360&w=92&h=112&c=8&rs=1&qlt=80&cdv=1&pid=Local"
  },
  {
    "name": "Dr. Bibhabasu Mani General Physician",
    "address": "Saila Nivas, Raghunathpur, Jagatsinghpur, Raghunathpur 754132",
    "phone": "Dr. Bibhabasu Mani General Physician",
    "hours": "Open· Closes 20:00",
    "image_url": "/th?id=OLC.3OQQudP%2bgI9g5g480x360&w=92&h=134&c=8&rs=1&qlt=80&cdv=1&pid=Local"
  },
  {
    "name": "Sai X-Ray & Ecg",
    "address": "Medical Road Jspur Royal Digital X-REY Panisalia, Jagatsinghpur, Odisha 754103",
    "phone": "Sai X-Ray & Ecg",
    "hours": null,
    "image_url": "https://www.bing.com/maps/geoplat/REST/v1/Imagery/Map/RoadVibrant?ms=92,112&key=AnTcaqBi2ypp0xI-OZNi4W_ik2KhjgpqioTAtXLC8GzkMBQRMlyxvxyTnd5b73im&c=en-US&ur=in&da=n&logo=n&fmt=png&od=1&shading=hill&pp=20.252724,86.179939;dfp"
  },
  {
    "name": "Masterdoctor Clinic - Khordha - Best Diabetes Clinic with Best Diabetologist Dr B Jagadish",
    "address": "Dhwan Medical Center, Plot- 11/4542, Near District Headquarter Hospital, NH, 57, Khordha 752055",
    "phone": "Masterdoctor Clinic - Khordha - Best Diabetes Clinic with Best Diabetologist Dr B Jagadish",
    "hours": "Open· Closes 21:00",
    "image_url": "/th?id=OLC.40BXrdqyibuU4Q480x360&w=92&h=134&c=8&rs=1&qlt=80&cdv=1&pid=Local"
  },
  {
    "name": "Narahari Sahoo Homoeopathic Clinic",
    "address": "Banamalipur, Odisha 752103, India, بوبانسوار 752103",
    "phone": "Narahari Sahoo Homoeopathic Clinic",
    "hours": null,
    "image_url": "https://www.bing.com/maps/geoplat/REST/v1/Imagery/Map/RoadVibrant?ms=92,112&key=AnTcaqBi2ypp0xI-OZNi4W_ik2KhjgpqioTAtXLC8GzkMBQRMlyxvxyTnd5b73im&c=en-US&ur=in&da=n&logo=n&fmt=png&od=1&shading=hill&pp=20.177706,86.007713;dfp"
  },
  {
    "name": "Dr. Pankaj Garg- General Physician",
    "address": "Hi-Tech Medical College And Hospital, Pandra, Rasulgarh, Bhubaneswar 751010",
    "phone": "Dr. Pankaj Garg- General Physician",
    "hours": "Closed· Opens 11:00",
    "image_url": null
  },
  {
    "name": "Jagannath Lab and Clinic",
    "address": "Plot No, CM-15, VSS Nagar Rd, opp. Model English Medium School, B/L Colony, Mancheswar, Saheed Nag…",
    "phone": "Jagannath Lab and Clinic",
    "hours": null,
    "image_url": "https://www.bing.com/maps/geoplat/REST/v1/Imagery/Map/RoadVibrant?ms=92,112&key=AnTcaqBi2ypp0xI-OZNi4W_ik2KhjgpqioTAtXLC8GzkMBQRMlyxvxyTnd5b73im&c=en-US&ur=in&da=n&logo=n&fmt=png&od=1&shading=hill&pp=20.310823,85.847427;dfp"
  },
  {
    "name": "District Veterinary Hospital",
    "address": "Sh43 Cuttack Jagatsinghpur Road, Jagatsinghapur, Odisha 754108",
    "phone": "District Veterinary Hospital",
    "hours": null,
    "image_url": "https://www.bing.com/maps/geoplat/REST/v1/Imagery/Map/RoadVibrant?ms=92,112&key=AnTcaqBi2ypp0xI-OZNi4W_ik2KhjgpqioTAtXLC8GzkMBQRMlyxvxyTnd5b73im&c=en-US&ur=in&da=n&logo=n&fmt=png&od=1&shading=hill&pp=20.2523,86.181999;dfp"
  },
  {
    "name": "Dr. Bhakti Kanta Moharana",
    "address": "High School Front, Medical Road, Kandarpur, Orissa",
    "phone": "Dr. Bhakti Kanta Moharana",
    "hours": "Closed· Opens 17:30",
    "image_url": "https://www.bing.com/maps/geoplat/REST/v1/Imagery/Map/RoadVibrant?ms=92,112&key=AnTcaqBi2ypp0xI-OZNi4W_ik2KhjgpqioTAtXLC8GzkMBQRMlyxvxyTnd5b73im&c=en-US&ur=in&da=n&logo=n&fmt=png&od=1&shading=hill&pp=20.400589,86.017776;dfp"
  },
  {
    "name": "Dr. Pratik Sahoo (Isha Urology Centre) | The best urologist",
    "address": "M-1, Chowk, Near Kalinga Hospital, Samanta Vihar, Chandrasekharpur, Bhubaneswar, Odisha",
    "phone": "Dr. Pratik Sahoo (Isha Urology Centre) | The best urologist",
    "hours": null,
    "image_url": "https://www.bing.com/maps/geoplat/REST/v1/Imagery/Map/RoadVibrant?ms=92,112&key=AnTcaqBi2ypp0xI-OZNi4W_ik2KhjgpqioTAtXLC8GzkMBQRMlyxvxyTnd5b73im&c=en-US&ur=in&da=n&logo=n&fmt=png&od=1&shading=hill&pp=20.303972,85.822685;dfp"
  },
  {
    "name": "Dr. Mohammad Ibrarullah, 25+ yrs of Exp | Best Gastroenterologist  | Stomach Specialist | Gastro Doctor",
    "address": "Plot No. 251, Apollo Hospitals, Sainik School Rd, Doordarshan Colony, Unit 15, Bhubaneswar, Odisha",
    "phone": "Dr. Mohammad Ibrarullah, 25+ yrs of Exp | Best Gastroenterologist  | Stomach Specialist | Gastro Doctor",
    "hours": null,
    "image_url": "https://www.bing.com/maps/geoplat/REST/v1/Imagery/Map/RoadVibrant?ms=92,112&key=AnTcaqBi2ypp0xI-OZNi4W_ik2KhjgpqioTAtXLC8GzkMBQRMlyxvxyTnd5b73im&c=en-US&ur=in&da=n&logo=n&fmt=png&od=1&shading=hill&pp=20.316084,85.834923;dfp"
  }
]