[
  {
    "name": "Dr B K Arya",
    "address": "Near Dr.Rebat Ram Panwar Clinic, Jaisalmer Road, Jaisalmer, Rajasthan 345001",
    "phone": "Dr B K Arya",
    "hours": null,
    "image_url": "https://www.bing.com/maps/geoplat/REST/v1/Imagery/Map/RoadVibrant?ms=92,112&key=AnTcaqBi2ypp0xI-OZNi4W_ik2KhjgpqioTAtXLC8GzkMBQRMlyxvxyTnd5b73im&c=en-US&ur=in&da=n&logo=n&fmt=png&od=1&shading=hill&pp=26.924059,70.908455;dfp"
  },
  {
    "name": "Dr. S R Panwar- General, Laproscopic and trauma specialist surgeon",
    "address": "Dhandev Dental Clinic, Jaisalmer, Rajasthan 345001",
    "phone": "Dr. S R Panwar- General, Laproscopic and trauma specialist surgeon",
    "hours": null,
    "image_url": "https://www.bing.com/maps/geoplat/REST/v1/Imagery/Map/RoadVibrant?ms=92,112&key=AnTcaqBi2ypp0xI-OZNi4W_ik2KhjgpqioTAtXLC8GzkMBQRMlyxvxyTnd5b73im&c=en-US&ur=in&da=n&logo=n&fmt=png&od=1&shading=hill&pp=26.915779,70.908363;dfp"
  },
  {
    "name": "Shri Vijaya Clinic",
    "address": "Fort Road, Jaisalmer, Rajasthan 345001",
    "phone": "Shri Vijaya Clinic",
    "hours": null,
    "image_url": "https://www.bing.com/maps/geoplat/REST/v1/Imagery/Map/RoadVibrant?ms=92,112&key=AnTcaqBi2ypp0xI-OZNi4W_ik2KhjgpqioTAtXLC8GzkMBQRMlyxvxyTnd5b73im&c=en-US&ur=in&da=n&logo=n&fmt=png&od=1&shading=hill&pp=26.913462,70.915009;dfp"
  },
  {
    "name": "Shuddhi Clinic",
    "address": "Shop No 44, Ashri Math, Gadesar Road, Jaisalmer, Rajasthan 345001",
    "phone": "Shuddhi Clinic",
    "hours": null,
    "image_url": "/th?id=OLC.CDdvStc7e%2b5DaQ480x360&w=92&h=112&c=8&rs=1&qlt=80&cdv=1&pid=Local"
  },
  {
    "name": "Dr Rebat Ram Panwar Clinic",
    "address": "Near Dr.Nr Parihar Clinic, Jaisalmer Road, Jaisalmer, Rajasthan 345001",
    "phone": "Dr Rebat Ram Panwar Clinic",
    "hours": null,
    "image_url": "https://www.bing.com/maps/geoplat/REST/v1/Imagery/Map/RoadVibrant?ms=92,112&key=AnTcaqBi2ypp0xI-OZNi4W_ik2KhjgpqioTAtXLC8GzkMBQRMlyxvxyTnd5b73im&c=en-US&ur=in&da=n&logo=n&fmt=png&od=1&shading=hill&pp=26.917805,70.906891;dfp"
  },
  {
    "name": "Dr DD Khichi Clinic",
    "address": "Near Focus Energy Limited, Jaisalmer Road, Jaisalmer, Rajasthan 345001",
    "phone": "Dr DD Khichi Clinic",
    "hours": null,
    "image_url": "https://www.bing.com/maps/geoplat/REST/v1/Imagery/Map/RoadVibrant?ms=92,112&key=AnTcaqBi2ypp0xI-OZNi4W_ik2KhjgpqioTAtXLC8GzkMBQRMlyxvxyTnd5b73im&c=en-US&ur=in&da=n&logo=n&fmt=png&od=1&shading=hill&pp=26.918098,70.906181;dfp"
  },
  {
    "name": "German Healthcare",
    "address": "Near Panchayat Samiti, Opposite Nagar Parishad, Jaisalmer, Rajasthan 345001",
    "phone": "German Healthcare",
    "hours": null,
    "image_url": null
  },
  {
    "name": "Prachi Clinic",
    "address": "Near Hotel Swagatam, Jaisalmer Road, Jaisalmer, Rajasthan 345001",
    "phone": "Prachi Clinic",
    "hours": null,
    "image_url": "https://www.bing.com/maps/geoplat/REST/v1/Imagery/Map/RoadVibrant?ms=92,112&key=AnTcaqBi2ypp0xI-OZNi4W_ik2KhjgpqioTAtXLC8GzkMBQRMlyxvxyTnd5b73im&c=en-US&ur=in&da=n&logo=n&fmt=png&od=1&shading=hill&pp=26.917337,70.907425;dfp"
  },
  {
    "name": "Krishna Diagnostics Centre",
    "address": "Hanuman Circle, Jaisalmer, Rajasthan, Rajasthan 345001",
    "phone": "Krishna Diagnostics Centre",
    "hours": null,
    "image_url": "https://www.bing.com/maps/geoplat/REST/v1/Imagery/Map/RoadVibrant?ms=92,112&key=AnTcaqBi2ypp0xI-OZNi4W_ik2KhjgpqioTAtXLC8GzkMBQRMlyxvxyTnd5b73im&c=en-US&ur=in&da=n&logo=n&fmt=png&od=1&shading=hill&pp=26.9167,70.900002;dfp"
  },
  {
    "name": "Khema Ram",
    "address": "C/O Kishan Agro Salu RAM Bharoniyon KI Dhani Chokhala Baytu, Barmer, Rajasthan 344035",
    "phone": "Khema Ram",
    "hours": null,
    "image_url": "https://www.bing.com/maps/geoplat/REST/v1/Imagery/Map/RoadVibrant?ms=92,112&key=AnTcaqBi2ypp0xI-OZNi4W_ik2KhjgpqioTAtXLC8GzkMBQRMlyxvxyTnd5b73im&c=en-US&ur=in&da=n&logo=n&fmt=png&od=1&shading=hill&pp=25.886871,71.43882;dfp"
  }
]