[
  {
    "name": "Dr. Pratyush Kumar Moharana- Consultant Physician",
    "address": "Dr. Pratyush's Clinic, Jamubania Jaraka, Jajpur 755050",
    "phone": "Dr. Pratyush Kumar Moharana- Consultant Physician",
    "hours": "Closed· Opens 18:00",
    "image_url": "/th?id=OLC.Qx8S6SwKCIVc3A480x360&w=92&h=134&c=8&rs=1&qlt=80&cdv=1&pid=Local"
  },
  {
    "name": "Dr. Pradip Khuntia's Clinic",
    "address": "in Front of LIC Office, Jajpur, Odisha",
    "phone": "Dr. Pradip Khuntia's Clinic",
    "hours": null,
    "image_url": "https://www.bing.com/maps/geoplat/REST/v1/Imagery/Map/RoadVibrant?ms=92,112&key=AnTcaqBi2ypp0xI-OZNi4W_ik2KhjgpqioTAtXLC8GzkMBQRMlyxvxyTnd5b73im&c=en-US&ur=in&da=n&logo=n&fmt=png&od=1&shading=hill&pp=20.849899,86.337196;dfp"
  },
  {
    "name": "Manishree Multispeciality Clinic",
    "address": "Keonjhar Panikoili Rd, Shree Mandir, Vyasanagar Jajpur, Jajapur, Odisha 755019",
    "phone": "Manishree Multispeciality Clinic",
    "hours": null,
    "image_url": "https://www.bing.com/maps/geoplat/REST/v1/Imagery/Map/RoadVibrant?ms=92,112&key=AnTcaqBi2ypp0xI-OZNi4W_ik2KhjgpqioTAtXLC8GzkMBQRMlyxvxyTnd5b73im&c=en-US&ur=in&da=n&logo=n&fmt=png&od=1&shading=hill&pp=20.958452,86.124863;dfp"
  },
  {
    "name": "Dr Parameswar Nayak Clinic",
    "address": "Dr Parameswar Nayak Street, Chorda Chhaka Jajpur, Jajapur, Odisha 755019",
    "phone": "Dr Parameswar Nayak Clinic",
    "hours": null,
    "image_url": "https://www.bing.com/maps/geoplat/REST/v1/Imagery/Map/RoadVibrant?ms=92,112&key=AnTcaqBi2ypp0xI-OZNi4W_ik2KhjgpqioTAtXLC8GzkMBQRMlyxvxyTnd5b73im&c=en-US&ur=in&da=n&logo=n&fmt=png&od=1&shading=hill&pp=20.952751,86.128723;dfp"
  },
  {
    "name": "Dr Batra's Homeopathy",
    "address": "Chorda Chowk, Jajpur Road, Danagadi, Odisha 755019",
    "phone": "Dr Batra's Homeopathy",
    "hours": "Closed· Opens 11:00",
    "image_url": "/th?id=OLC.9mTyxBmE93CjDQ480x360&w=92&h=134&c=8&rs=1&qlt=80&cdv=1&pid=Local"
  },
  {
    "name": "Dr Basant K Tripathy Clinic",
    "address": "Keonjhar Panikoili Rd, Kanheipur Jajpur, Jajapur, Odisha 755019",
    "phone": "Dr Basant K Tripathy Clinic",
    "hours": null,
    "image_url": "https://www.bing.com/maps/geoplat/REST/v1/Imagery/Map/RoadVibrant?ms=92,112&key=AnTcaqBi2ypp0xI-OZNi4W_ik2KhjgpqioTAtXLC8GzkMBQRMlyxvxyTnd5b73im&c=en-US&ur=in&da=n&logo=n&fmt=png&od=1&shading=hill&pp=20.96335,86.125206;dfp"
  },
  {
    "name": "Dr.Ashok Priyadarshi",
    "address": "DR Ashok Priyadarshi Pediatrics Clinic, Jajpur Road, Danagadi, Odisha 755019",
    "phone": "Dr.Ashok Priyadarshi",
    "hours": "Closed· Opens 18:00",
    "image_url": null
  },
  {
    "name": "Dr Mrutyunjaya Behera Clinic",
    "address": "Mahtab Rd, Badambadi Colony, Cuttack, Odisha",
    "phone": "Dr Mrutyunjaya Behera Clinic",
    "hours": null,
    "image_url": null
  },
  {
    "name": "Doctorji clinic",
    "address": "Udula Rd, Madhuvan Sahi, Podaastia, Odisha",
    "phone": "Doctorji clinic",
    "hours": null,
    "image_url": "https://www.bing.com/maps/geoplat/REST/v1/Imagery/Map/RoadVibrant?ms=92,112&key=AnTcaqBi2ypp0xI-OZNi4W_ik2KhjgpqioTAtXLC8GzkMBQRMlyxvxyTnd5b73im&c=en-US&ur=in&da=n&logo=n&fmt=png&od=1&shading=hill&pp=20.468658,85.898003;dfp"
  },
  {
    "name": "Dr Sahoo Clinic",
    "address": "Mundamal Road, Byasanagar, Danagadi, Odisha 755019",
    "phone": "Dr Sahoo Clinic",
    "hours": null,
    "image_url": "https://www.bing.com/maps/geoplat/REST/v1/Imagery/Map/RoadVibrant?ms=92,112&key=AnTcaqBi2ypp0xI-OZNi4W_ik2KhjgpqioTAtXLC8GzkMBQRMlyxvxyTnd5b73im&c=en-US&ur=in&da=n&logo=n&fmt=png&od=1&shading=hill&pp=20.940697,86.129196;dfp"
  },
  {
    "name": "Masterdoctor Clinic - Bhadrak - Best Diabetes Clinic l Best Diabetes Doctor Dr B JAGADISH",
    "address": "Care Diagnostic Center, Nuabazar, Near Subham Hospital, Bhadrak 756100",
    "phone": "Masterdoctor Clinic - Bhadrak - Best Diabetes Clinic l Best Diabetes Doctor Dr B JAGADISH",
    "hours": "Open· Closes 20:00",
    "image_url": null
  },
  {
    "name": "Spandan Homeo Clinic",
    "address": "1, Chorda Chhak, Byasanagar, Danagadi, Odisha 755019",
    "phone": "Spandan Homeo Clinic",
    "hours": "Open· Closes 13:00",
    "image_url": "https://www.bing.com/maps/geoplat/REST/v1/Imagery/Map/RoadVibrant?ms=92,134&key=AnTcaqBi2ypp0xI-OZNi4W_ik2KhjgpqioTAtXLC8GzkMBQRMlyxvxyTnd5b73im&c=en-US&ur=in&da=n&logo=n&fmt=png&od=1&shading=hill&pp=20.955137,86.126251;dfp"
  },
  {
    "name": "Dr. Debasis Jena ENT CLINIC",
    "address": "OMM MAA Medicine Store, Byasanagar, Odisha",
    "phone": "Dr. Debasis Jena ENT CLINIC",
    "hours": null,
    "image_url": "https://www.bing.com/maps/geoplat/REST/v1/Imagery/Map/RoadVibrant?ms=92,112&key=AnTcaqBi2ypp0xI-OZNi4W_ik2KhjgpqioTAtXLC8GzkMBQRMlyxvxyTnd5b73im&c=en-US&ur=in&da=n&logo=n&fmt=png&od=1&shading=hill&pp=20.945999,86.130096;dfp"
  },
  {
    "name": "Dr Dandpat's Surgical Clinic",
    "address": "Near Sreema Hospital, Mahanadi, Ring Rd, Mangalabag, Cuttack, Odisha",
    "phone": "Dr Dandpat's Surgical Clinic",
    "hours": null,
    "image_url": null
  },
  {
    "name": "Dr. Shanta Kumar Panda",
    "address": "Room # 2 Nuapada, Orissa",
    "phone": "Dr. Shanta Kumar Panda",
    "hours": "Closed· Opens 16:30",
    "image_url": null
  },
  {
    "name": "Dr. Suresh Chandra Mohanty",
    "address": "36, Cda Sector 7 Road, Jayaprakash Park, Cda Sector 7 Cuttack, Cuttack, Odisha 753015",
    "phone": "Dr. Suresh Chandra Mohanty",
    "hours": "Open· Closes 13:00",
    "image_url": null
  }
]