[
  {
    "name": "Dr Hirani Clinic",
    "address": "1 Sindhi Colony, Jalgaon, Maharashtra 425001",
    "phone": "Dr Hirani Clinic",
    "hours": "Closed· Opens 11:00",
    "image_url": "/th?id=OLC.2NVF3K3xpyYf2A480x360&w=92&h=134&c=8&rs=1&qlt=80&cdv=1&pid=Local"
  },
  {
    "name": "Dr. Sandeep Patil- General Physician",
    "address": "Atharva Clinic, Bus Stop, Hari Vitthal Nagar, Jaikisan Wadi, Jalgaon, Maharashtra",
    "phone": "Dr. Sandeep Patil- General Physician",
    "hours": null,
    "image_url": "https://www.bing.com/maps/geoplat/REST/v1/Imagery/Map/RoadVibrant?ms=92,112&key=AnTcaqBi2ypp0xI-OZNi4W_ik2KhjgpqioTAtXLC8GzkMBQRMlyxvxyTnd5b73im&c=en-US&ur=in&da=n&logo=n&fmt=png&od=1&shading=hill&pp=21.009157,75.565315;dfp"
  },
  {
    "name": "Dr. Rajesh Jain",
    "address": "Kasamwadi, Old Mehrun Road, Jalgaon, Maharashtra",
    "phone": "Dr. Rajesh Jain",
    "hours": "Closed· Opens 15:00",
    "image_url": "https://www.bing.com/maps/geoplat/REST/v1/Imagery/Map/RoadVibrant?ms=92,112&key=AnTcaqBi2ypp0xI-OZNi4W_ik2KhjgpqioTAtXLC8GzkMBQRMlyxvxyTnd5b73im&c=en-US&ur=in&da=n&logo=n&fmt=png&od=1&shading=hill&pp=20.991795,75.575829;dfp"
  },
  {
    "name": "Ramnanda Clinic",
    "address": "6, A Wing, Basement, Stadium Complex, Jalgaon, Maharashtra, Inde, Maharashtra 425001",
    "phone": "Ramnanda Clinic",
    "hours": "Closed· Opens 11:00",
    "image_url": "/th?id=OLC.0M1UPdbliLDIgw480x360&w=92&h=134&c=8&rs=1&qlt=80&cdv=1&pid=Local"
  },
  {
    "name": "Dr. Anjali K Bhirud",
    "address": "MJ College Road, Near Bhaskar Market, Jalgaon, Maharashtra 425001",
    "phone": "Dr. Anjali K Bhirud",
    "hours": "Open· Closes 15:00",
    "image_url": "https://www.bing.com/maps/geoplat/REST/v1/Imagery/Map/RoadVibrant?ms=92,134&key=AnTcaqBi2ypp0xI-OZNi4W_ik2KhjgpqioTAtXLC8GzkMBQRMlyxvxyTnd5b73im&c=en-US&ur=in&da=n&logo=n&fmt=png&od=1&shading=hill&pp=21.002337,75.56044;dfp"
  },
  {
    "name": "Dr. Kalpesh Jainendrakumar Gandhi",
    "address": "373, M M Chambers, Jalgaon, Maharashtra",
    "phone": "Dr. Kalpesh Jainendrakumar Gandhi",
    "hours": "Closed· Opens 17:00",
    "image_url": "/th?id=OLC.IV5nhJPGHKrezQ480x360&w=92&h=112&c=8&rs=1&qlt=80&cdv=1&pid=Local"
  },
  {
    "name": "Dr. Varun V Sarode",
    "address": "Gandhi Nagar. Landmark: Behind New Bus Stand, Jalgaon, Maharashtra",
    "phone": "Dr. Varun V Sarode",
    "hours": "Open· Closes 14:00",
    "image_url": null
  },
  {
    "name": "Dr Bhagwat Rane",
    "address": "Bharat Krushak Bhavan, Navi Peth, Jalgaon, Maharashtra 425001",
    "phone": "Dr Bhagwat Rane",
    "hours": "Closed· Opens Sep 29 at 09:00",
    "image_url": null
  },
  {
    "name": "Atharva Speciality Clinic",
    "address": "Flat No 22-B, Tagore Nagar, Beside Shree Classes Behind Jilha Peth Police Station, Bhaskar Market, Jalga…",
    "phone": "Atharva Speciality Clinic",
    "hours": "Open· Closes 14:00",
    "image_url": null
  },
  {
    "name": "Ganga Clinic-health Management Centre",
    "address": "24, First Floor, Old B. J. Market, Jalgaon, Maharashtra, Maharashtra 425001",
    "phone": "Ganga Clinic-health Management Centre",
    "hours": null,
    "image_url": "https://www.bing.com/maps/geoplat/REST/v1/Imagery/Map/RoadVibrant?ms=92,112&key=AnTcaqBi2ypp0xI-OZNi4W_ik2KhjgpqioTAtXLC8GzkMBQRMlyxvxyTnd5b73im&c=en-US&ur=in&da=n&logo=n&fmt=png&od=1&shading=hill&pp=21.008013,75.563126;dfp"
  },
  {
    "name": "Punarvasu Ayurvedic & Panchakarma Clinic",
    "address": "Opposite Khajamiya Darga, Ganesh Colony Road, Jalgaon, Maharashtra, Maharashtra 425001",
    "phone": "Punarvasu Ayurvedic & Panchakarma Clinic",
    "hours": null,
    "image_url": null
  },
  {
    "name": "Anubhuti Hospital ( Ear Nose Throat & Skin Hair LASER - cosmetic clinic ) Dr Mahajan",
    "address": "20, Ring Road, Near Jalgaon Peoples Bank, in Front of State Bank OF India, Jalgaon, Maharashtra",
    "phone": "Anubhuti Hospital ( Ear Nose Throat & Skin Hair LASER - cosmetic clinic ) Dr Mahajan",
    "hours": null,
    "image_url": null
  },
  {
    "name": "Dr.Jyotsna Patil",
    "address": "D-Mart, Shirsoli Rd, Near Petrol Pump, Jalgaon, Maharashtra",
    "phone": "Dr.Jyotsna Patil",
    "hours": null,
    "image_url": "https://www.bing.com/maps/geoplat/REST/v1/Imagery/Map/RoadVibrant?ms=92,112&key=AnTcaqBi2ypp0xI-OZNi4W_ik2KhjgpqioTAtXLC8GzkMBQRMlyxvxyTnd5b73im&c=en-US&ur=in&da=n&logo=n&fmt=png&od=1&shading=hill&pp=20.991997,75.563629;dfp"
  },
  {
    "name": "Dr Sagar Nyati Clinic",
    "address": "Golani Market, Jalgaon, Maharashtra 425001",
    "phone": "Dr Sagar Nyati Clinic",
    "hours": null,
    "image_url": "https://www.bing.com/maps/geoplat/REST/v1/Imagery/Map/RoadVibrant?ms=92,112&key=AnTcaqBi2ypp0xI-OZNi4W_ik2KhjgpqioTAtXLC8GzkMBQRMlyxvxyTnd5b73im&c=en-US&ur=in&da=n&logo=n&fmt=png&od=1&shading=hill&pp=21.014559,75.56501;dfp"
  },
  {
    "name": "Dr Vijayashree",
    "address": "Visanji Nagar, to, Ganesh Colony-Civil Ct Rd, Jilha Peth, Ganesh Colony, Jalgaon, Maharashtra",
    "phone": "Dr Vijayashree",
    "hours": null,
    "image_url": "https://www.bing.com/maps/geoplat/REST/v1/Imagery/Map/RoadVibrant?ms=92,112&key=AnTcaqBi2ypp0xI-OZNi4W_ik2KhjgpqioTAtXLC8GzkMBQRMlyxvxyTnd5b73im&c=en-US&ur=in&da=n&logo=n&fmt=png&od=1&shading=hill&pp=21.012774,75.566719;dfp"
  },
  {
    "name": "Dr. Anupam R. Dandgavhal",
    "address": "22-B, Tagore Nagar, Beside Shree Classes, Behind Jilha Peth Police Station, Near Bhaskar Market, Jalgaon, Ma…",
    "phone": "Dr. Anupam R. Dandgavhal",
    "hours": "Open· Closes 13:00",
    "image_url": "https://www.bing.com/maps/geoplat/REST/v1/Imagery/Map/RoadVibrant?ms=92,112&key=AnTcaqBi2ypp0xI-OZNi4W_ik2KhjgpqioTAtXLC8GzkMBQRMlyxvxyTnd5b73im&c=en-US&ur=in&da=n&logo=n&fmt=png&od=1&shading=hill&pp=21.011095,75.555191;dfp"
  },
  {
    "name": "Renukai general and ayurvedic clinic",
    "address": "Renukai Clinic, Near Asha Baba Temple, Aasha Baba Nagar, Jalgaon, Maharashtra",
    "phone": "Renukai general and ayurvedic clinic",
    "hours": null,
    "image_url": "https://www.bing.com/maps/geoplat/REST/v1/Imagery/Map/RoadVibrant?ms=92,112&key=AnTcaqBi2ypp0xI-OZNi4W_ik2KhjgpqioTAtXLC8GzkMBQRMlyxvxyTnd5b73im&c=en-US&ur=in&da=n&logo=n&fmt=png&od=1&shading=hill&pp=20.998638,75.564926;dfp"
  },
  {
    "name": "Dr Niranjan Chavan's Joint Replacement Clinic & Chavan Netralay",
    "address": "Swatantra Chowk, Opp Gandhi Udyan, Jilha Peth, Jalgaon, Maharashtra 425001",
    "phone": "Dr Niranjan Chavan's Joint Replacement Clinic & Chavan Netralay",
    "hours": "Open· Closes 20:00",
    "image_url": null
  }
]