[
  {
    "name": "Vipul Jain Kucheriya Clinic",
    "address": "Shivaji Putla Road, Jalna, Maharashtra 431203",
    "phone": "Vipul Jain Kucheriya Clinic",
    "hours": null,
    "image_url": "https://www.bing.com/maps/geoplat/REST/v1/Imagery/Map/RoadVibrant?ms=92,112&key=AnTcaqBi2ypp0xI-OZNi4W_ik2KhjgpqioTAtXLC8GzkMBQRMlyxvxyTnd5b73im&c=en-US&ur=in&da=n&logo=n&fmt=png&od=1&shading=hill&pp=19.843849,75.905846;dfp"
  },
  {
    "name": "Vyakantesh Clinic",
    "address": "Ambad Road, Jalna, Maharashtra 431203",
    "phone": "Vyakantesh Clinic",
    "hours": null,
    "image_url": "https://www.bing.com/maps/geoplat/REST/v1/Imagery/Map/RoadVibrant?ms=92,112&key=AnTcaqBi2ypp0xI-OZNi4W_ik2KhjgpqioTAtXLC8GzkMBQRMlyxvxyTnd5b73im&c=en-US&ur=in&da=n&logo=n&fmt=png&od=1&shading=hill&pp=19.829544,75.886192;dfp"
  },
  {
    "name": "Dr. Zafar Iqbal Khan- General Physician",
    "address": "Dr. Zafar Iqbal Khan's Clinic, Mahyco Road, Mahyco Colony, Jalna, Maharashtra 431203",
    "phone": "Dr. Zafar Iqbal Khan- General Physician",
    "hours": "Open· Closes 13:00",
    "image_url": "https://www.bing.com/maps/geoplat/REST/v1/Imagery/Map/RoadVibrant?ms=92,134&key=AnTcaqBi2ypp0xI-OZNi4W_ik2KhjgpqioTAtXLC8GzkMBQRMlyxvxyTnd5b73im&c=en-US&ur=in&da=n&logo=n&fmt=png&od=1&shading=hill&pp=19.841736,75.854546;dfp"
  },
  {
    "name": "Dr. Pralhad Govind Dharurkar - Neurosurgeon",
    "address": "Parinika Neurocare Brain & Accident Hospital Jijabai Maya Chaowk, opp. Srpf Road, Jalna, Maharashtra",
    "phone": "Dr. Pralhad Govind Dharurkar - Neurosurgeon",
    "hours": null,
    "image_url": "https://www.bing.com/maps/geoplat/REST/v1/Imagery/Map/RoadVibrant?ms=92,112&key=AnTcaqBi2ypp0xI-OZNi4W_ik2KhjgpqioTAtXLC8GzkMBQRMlyxvxyTnd5b73im&c=en-US&ur=in&da=n&logo=n&fmt=png&od=1&shading=hill&pp=19.832926,75.8918;dfp"
  },
  {
    "name": "Dr. Charusmita Hawaldar- Gynaecologist & Obstetrician",
    "address": "Vivekanand Hospital, Devgaon Raja Road, Shivaji Nagar, Near Santoshi Mata Mandir, Jalna, Maharashtra 431203",
    "phone": "Dr. Charusmita Hawaldar- Gynaecologist & Obstetrician",
    "hours": "Open· Closes 18:00",
    "image_url": "/th?id=OLC.4H7jlY5GClLxVg480x360&w=92&h=134&c=8&rs=1&qlt=80&cdv=1&pid=Local"
  },
  {
    "name": "Runwal Accident & Maternity Hospital, Jalna",
    "address": "305, Priyadarshani Colony, Jalna, Maharashtra 431203",
    "phone": "Runwal Accident & Maternity Hospital, Jalna",
    "hours": null,
    "image_url": "/th?id=OLC.UgLnSuNYwtJhiA480x360&w=92&h=112&c=8&rs=1&qlt=80&cdv=1&pid=Local"
  },
  {
    "name": "Dr. Gajanan Pathak- Gynecologist and Fertility Specialist",
    "address": "Matoshree Hospital, Behind Ambekar Hospital, Mantha Choufuli, In Front of Jalna Critical, Hospital, Jalna, Mah…",
    "phone": "Dr. Gajanan Pathak- Gynecologist and Fertility Specialist",
    "hours": "Open· Closes 19:00",
    "image_url": "https://www.bing.com/maps/geoplat/REST/v1/Imagery/Map/RoadVibrant?ms=92,134&key=AnTcaqBi2ypp0xI-OZNi4W_ik2KhjgpqioTAtXLC8GzkMBQRMlyxvxyTnd5b73im&c=en-US&ur=in&da=n&logo=n&fmt=png&od=1&shading=hill&pp=19.843748,75.919044;dfp"
  },
  {
    "name": "Dr. Sagar Gangwal",
    "address": "Aurangabad Road, Sangram Nagar, Landmark, Jalna Mondha, Maharashtra 431203",
    "phone": "Dr. Sagar Gangwal",
    "hours": "Open· Closes 20:00",
    "image_url": null
  },
  {
    "name": "Dr. Krish Korde | Best Cardiologist near me Ambad Chaufuli Jalna",
    "address": "Kalawati Heart Care, Suyesha Lawns, Satkar Nagar Rishi Park, Ambad Rd, Chaufuli, Jalna, Maharashtra",
    "phone": "Dr. Krish Korde | Best Cardiologist near me Ambad Chaufuli Jalna",
    "hours": null,
    "image_url": "https://www.bing.com/maps/geoplat/REST/v1/Imagery/Map/RoadVibrant?ms=92,112&key=AnTcaqBi2ypp0xI-OZNi4W_ik2KhjgpqioTAtXLC8GzkMBQRMlyxvxyTnd5b73im&c=en-US&ur=in&da=n&logo=n&fmt=png&od=1&shading=hill&pp=19.831121,75.88147;dfp"
  },
  {
    "name": "Dr. Sagar Gangwal- ENT Surgeon",
    "address": "Gangwal Hospital, Beside Shri Raosaheb Patil Danve Niwas, (Astha Hospital Point), Balaji Chowk Bhokardha…",
    "phone": "Dr. Sagar Gangwal- ENT Surgeon",
    "hours": "Closed· Opens 11:00",
    "image_url": null
  },
  {
    "name": "Samadhan Baburao Sangle Clinic",
    "address": "At Post Akola, Tq Ghansawangi Dist Jalna, Jalna, Maharashtra 431203",
    "phone": "Samadhan Baburao Sangle Clinic",
    "hours": null,
    "image_url": "https://www.bing.com/maps/geoplat/REST/v1/Imagery/Map/RoadVibrant?ms=92,112&key=AnTcaqBi2ypp0xI-OZNi4W_ik2KhjgpqioTAtXLC8GzkMBQRMlyxvxyTnd5b73im&c=en-US&ur=in&da=n&logo=n&fmt=png&od=1&shading=hill&pp=19.838442,75.882172;dfp"
  },
  {
    "name": "Samyak Nus Clinic and Spine Care Centre",
    "address": "560, Jalna, Pushpak Nagar, Jalna, Maharashtra 431203",
    "phone": "Samyak Nus Clinic and Spine Care Centre",
    "hours": null,
    "image_url": "https://www.bing.com/maps/geoplat/REST/v1/Imagery/Map/RoadVibrant?ms=92,112&key=AnTcaqBi2ypp0xI-OZNi4W_ik2KhjgpqioTAtXLC8GzkMBQRMlyxvxyTnd5b73im&c=en-US&ur=in&da=n&logo=n&fmt=png&od=1&shading=hill&pp=19.836819,75.880241;dfp"
  },
  {
    "name": "NephroPlus Dialysis & Kidney Care Centre",
    "address": "Vivekanand Hospital, Kannad - Deulgaon Raja Rd, opp. Jilha Madhyavarti Sahakari Bank, Gyatri Nagar, Jalna, …",
    "phone": "NephroPlus Dialysis & Kidney Care Centre",
    "hours": null,
    "image_url": null
  },
  {
    "name": "Dr. Rajkar Hair & Skin Clinic",
    "address": "431203, MH, India, Jalna, Maharashtra",
    "phone": "Dr. Rajkar Hair & Skin Clinic",
    "hours": null,
    "image_url": null
  },
  {
    "name": "Laptop Clinic, Jalna",
    "address": "Opp. Mission Hospital, Durga Mata Road, Jalna, Maharashtra 431203",
    "phone": "Laptop Clinic, Jalna",
    "hours": "Opens in 9 mins",
    "image_url": null
  },
  {
    "name": "Dr. Vedprakash Patil Ayurved College And Research Center",
    "address": "clg Code, Rohanwadi, Maharashtra",
    "phone": "Dr. Vedprakash Patil Ayurved College And Research Center",
    "hours": null,
    "image_url": "https://www.bing.com/maps/geoplat/REST/v1/Imagery/Map/RoadVibrant?ms=92,112&key=AnTcaqBi2ypp0xI-OZNi4W_ik2KhjgpqioTAtXLC8GzkMBQRMlyxvxyTnd5b73im&c=en-US&ur=in&da=n&logo=n&fmt=png&od=1&shading=hill&pp=19.841457,75.900635;dfp"
  },
  {
    "name": "Jerath Path Labs & Allergy Testing Centre",
    "address": "Shri Sainath Clinical Laboratory Shivnagar, Civil Hospital Rd, Guru Ganesh Nagar, Kanchan Nagar, Old, Jalna, …",
    "phone": "Jerath Path Labs & Allergy Testing Centre",
    "hours": null,
    "image_url": null
  },
  {
    "name": "Indrayani Pathology Lab",
    "address": "Amarchhya Talkis, Dhangarpura, Jalna, Maharashtra 431203, India, Jalna 431203",
    "phone": "Indrayani Pathology Lab",
    "hours": null,
    "image_url": "https://www.bing.com/maps/geoplat/REST/v1/Imagery/Map/RoadVibrant?ms=92,112&key=AnTcaqBi2ypp0xI-OZNi4W_ik2KhjgpqioTAtXLC8GzkMBQRMlyxvxyTnd5b73im&c=en-US&ur=in&da=n&logo=n&fmt=png&od=1&shading=hill&pp=19.846575,75.903687;dfp"
  }
]