[
  {
    "name": "Dr Rajesh Upadhyay",
    "address": "Thana Rd, Babupara, Falakata, West Bengal",
    "phone": "Dr Rajesh Upadhyay",
    "hours": null,
    "image_url": "https://www.bing.com/maps/geoplat/REST/v1/Imagery/Map/RoadVibrant?ms=92,112&key=AnTcaqBi2ypp0xI-OZNi4W_ik2KhjgpqioTAtXLC8GzkMBQRMlyxvxyTnd5b73im&c=en-US&ur=in&da=n&logo=n&fmt=png&od=1&shading=hill&pp=26.521145,88.727341;dfp"
  },
  {
    "name": "Dr Amitesh Kumar Chatterjee",
    "address": "Prafulla Niketan Race Course Para Jalpaiguri 735101 West Bengal",
    "phone": "Dr Amitesh Kumar Chatterjee",
    "hours": null,
    "image_url": "https://www.bing.com/maps/geoplat/REST/v1/Imagery/Map/RoadVibrant?ms=92,112&key=AnTcaqBi2ypp0xI-OZNi4W_ik2KhjgpqioTAtXLC8GzkMBQRMlyxvxyTnd5b73im&c=en-US&ur=in&da=n&logo=n&fmt=png&od=1&shading=hill&pp=26.52858,88.715172;dfp"
  },
  {
    "name": "Dr R N Chowdhury",
    "address": "Dbc Road, Kadamtala Chowk, Kadamtala, Jalpaiguri, West Bengal 735101",
    "phone": "Dr R N Chowdhury",
    "hours": null,
    "image_url": "https://www.bing.com/maps/geoplat/REST/v1/Imagery/Map/RoadVibrant?ms=92,112&key=AnTcaqBi2ypp0xI-OZNi4W_ik2KhjgpqioTAtXLC8GzkMBQRMlyxvxyTnd5b73im&c=en-US&ur=in&da=n&logo=n&fmt=png&od=1&shading=hill&pp=26.526361,88.721817;dfp"
  },
  {
    "name": "Dr. Dipali Bhaumik",
    "address": "Raikat Paraentry Through Ganguly More, Central Bank Regional Office And Umagati School, Jalpaiguri, West …",
    "phone": "Dr. Dipali Bhaumik",
    "hours": "Open· Closes 12:00",
    "image_url": "https://www.bing.com/maps/geoplat/REST/v1/Imagery/Map/RoadVibrant?ms=92,112&key=AnTcaqBi2ypp0xI-OZNi4W_ik2KhjgpqioTAtXLC8GzkMBQRMlyxvxyTnd5b73im&c=en-US&ur=in&da=n&logo=n&fmt=png&od=1&shading=hill&pp=26.534456,88.722519;dfp"
  },
  {
    "name": "Dr Dipali Bhaumik - Pulmonologist & Chest Medicine",
    "address": "Raikat Para, Netaji Subhash Chandra Bose Road, Jalpaiguri, West Bengal 735101",
    "phone": "Dr Dipali Bhaumik - Pulmonologist & Chest Medicine",
    "hours": "Open· Closes 12:30",
    "image_url": "/th?id=OLC.MV3AW%2bPTTY0vsg480x360&w=92&h=112&c=8&rs=1&qlt=80&cdv=1&pid=Local"
  },
  {
    "name": "Infertility Care Bangladesh- Dr. Nargis Sumi",
    "address": "Shantinagar, New Circular Rd, 1000, জলপাইগুড়ি, West Bengal 735101",
    "phone": "Infertility Care Bangladesh- Dr. Nargis Sumi",
    "hours": null,
    "image_url": "https://www.bing.com/maps/geoplat/REST/v1/Imagery/Map/RoadVibrant?ms=92,112&key=AnTcaqBi2ypp0xI-OZNi4W_ik2KhjgpqioTAtXLC8GzkMBQRMlyxvxyTnd5b73im&c=en-US&ur=in&da=n&logo=n&fmt=png&od=1&shading=hill&pp=26.525837,88.719261;dfp"
  },
  {
    "name": "Dr. Sudipta Nandi",
    "address": "Billpara, Sirishtala, Jalpaiguri, West Bengal",
    "phone": "Dr. Sudipta Nandi",
    "hours": "Closed· Opens 17:00",
    "image_url": "https://www.bing.com/maps/geoplat/REST/v1/Imagery/Map/RoadVibrant?ms=92,112&key=AnTcaqBi2ypp0xI-OZNi4W_ik2KhjgpqioTAtXLC8GzkMBQRMlyxvxyTnd5b73im&c=en-US&ur=in&da=n&logo=n&fmt=png&od=1&shading=hill&pp=26.532099,88.69799;dfp"
  },
  {
    "name": "RCTC Clinic",
    "address": "Bazrapara, Near Prince Bekari, Jalpaiguri, West Bengal 735121",
    "phone": "RCTC Clinic",
    "hours": "Open· Closes 19:00",
    "image_url": null
  },
  {
    "name": "Dr Enterprize",
    "address": "N35, Sadar Block, Adar Para, Jalpaiguri, West Bengal 735101",
    "phone": "Dr Enterprize",
    "hours": null,
    "image_url": "https://www.bing.com/maps/geoplat/REST/v1/Imagery/Map/RoadVibrant?ms=92,112&key=AnTcaqBi2ypp0xI-OZNi4W_ik2KhjgpqioTAtXLC8GzkMBQRMlyxvxyTnd5b73im&c=en-US&ur=in&da=n&logo=n&fmt=png&od=1&shading=hill&pp=26.522066,88.716843;dfp"
  },
  {
    "name": "Dr. Sudip Haldar - Best Cancer Surgeon | Top Cancer Doctor | Best Surgical Oncologist",
    "address": "Jchr+Q4R, Jotia, Kali, Binnaguri, Beside Jio Petrol Pump, Jalpaiguri, West Bengal 735203",
    "phone": "Dr. Sudip Haldar - Best Cancer Surgeon | Top Cancer Doctor | Best Surgical Oncologist",
    "hours": "Open· Closes 17:00",
    "image_url": null
  },
  {
    "name": "RNRX Ray Clinic",
    "address": "Netaji Subhash Chandra Boss Rd, Babu Para, Jalpaiguri, West Bengal 735101",
    "phone": "RNRX Ray Clinic",
    "hours": null,
    "image_url": null
  },
  {
    "name": "Vita Nuova Homoeopathic Infertility Clinic",
    "address": "Mohitnagar, Jalpaiguri, West Bengal",
    "phone": "Vita Nuova Homoeopathic Infertility Clinic",
    "hours": null,
    "image_url": "https://www.bing.com/maps/geoplat/REST/v1/Imagery/Map/RoadVibrant?ms=92,112&key=AnTcaqBi2ypp0xI-OZNi4W_ik2KhjgpqioTAtXLC8GzkMBQRMlyxvxyTnd5b73im&c=en-US&ur=in&da=n&logo=n&fmt=png&od=1&shading=hill&pp=26.527452,88.707062;dfp"
  },
  {
    "name": "Orchid Diagnostic Centre",
    "address": "Thana Road, Jalpaiguri, West Bengal 735101",
    "phone": "Orchid Diagnostic Centre",
    "hours": null,
    "image_url": "https://www.bing.com/maps/geoplat/REST/v1/Imagery/Map/RoadVibrant?ms=92,112&key=AnTcaqBi2ypp0xI-OZNi4W_ik2KhjgpqioTAtXLC8GzkMBQRMlyxvxyTnd5b73im&c=en-US&ur=in&da=n&logo=n&fmt=png&od=1&shading=hill&pp=26.533501,88.714966;dfp"
  },
  {
    "name": "Dr Parijats Dental Care",
    "address": "73 Jasodanga, Alipurduar Block 2, Jalpaiguri, West Bengal 736208",
    "phone": "Dr Parijats Dental Care",
    "hours": null,
    "image_url": "https://www.bing.com/maps/geoplat/REST/v1/Imagery/Map/RoadVibrant?ms=92,112&key=AnTcaqBi2ypp0xI-OZNi4W_ik2KhjgpqioTAtXLC8GzkMBQRMlyxvxyTnd5b73im&c=en-US&ur=in&da=n&logo=n&fmt=png&od=1&shading=hill&pp=26.52,88.730003;dfp"
  },
  {
    "name": "Hope & Heal Cancer Hospital",
    "address": "Jatiakhali, Fulbari, Jalpaiguri 735203",
    "phone": "Hope & Heal Cancer Hospital",
    "hours": null,
    "image_url": null
  },
  {
    "name": "Dr Hcmms Hostel",
    "address": "Nh27, Jalpaiguri, West Bengal 735102",
    "phone": "Dr Hcmms Hostel",
    "hours": null,
    "image_url": "https://www.bing.com/maps/geoplat/REST/v1/Imagery/Map/RoadVibrant?ms=92,112&key=AnTcaqBi2ypp0xI-OZNi4W_ik2KhjgpqioTAtXLC8GzkMBQRMlyxvxyTnd5b73im&c=en-US&ur=in&da=n&logo=n&fmt=png&od=1&shading=hill&pp=26.549746,88.700653;dfp"
  }
]