[
  {
    "name": "Dr. Pratik Patel | General Physician | Guru Gobind Singh hospital",
    "address": "G G Hospital, Pandit Nehru Marg, Jamnagar, Gujarat 361008, Jamnagar, Madhya Pradesh 361008",
    "phone": "Dr. Pratik Patel | General Physician | Guru Gobind Singh hospital",
    "hours": "Closed· Opens tomorrow 09:00",
    "image_url": "/th?id=OLC.ZkxXKie76QkY4Q480x360&w=92&h=134&c=8&rs=1&qlt=80&cdv=1&pid=Local"
  },
  {
    "name": "Galaiya Nilesh Keshavji Dr",
    "address": "Manikunj, 50, Digvijay Plot, Gujarat 361005",
    "phone": "Galaiya Nilesh Keshavji Dr",
    "hours": null,
    "image_url": "https://www.bing.com/maps/geoplat/REST/v1/Imagery/Map/RoadVibrant?ms=92,112&key=AnTcaqBi2ypp0xI-OZNi4W_ik2KhjgpqioTAtXLC8GzkMBQRMlyxvxyTnd5b73im&c=en-US&ur=in&da=n&logo=n&fmt=png&od=1&shading=hill&pp=22.461121,70.063042;dfp"
  },
  {
    "name": "Dr L.S.Vora",
    "address": "Samair Club Road, Jamnagar, Gujarat 361005",
    "phone": "Dr L.S.Vora",
    "hours": null,
    "image_url": "https://www.bing.com/maps/geoplat/REST/v1/Imagery/Map/RoadVibrant?ms=92,112&key=AnTcaqBi2ypp0xI-OZNi4W_ik2KhjgpqioTAtXLC8GzkMBQRMlyxvxyTnd5b73im&c=en-US&ur=in&da=n&logo=n&fmt=png&od=1&shading=hill&pp=22.464437,70.061043;dfp"
  },
  {
    "name": "Dr. Marisha Vithalani (pt)",
    "address": "100, Divayam Park, Shak Market, Khodiar Colony. Landmark: Near Umiyaji School, Jamnagar",
    "phone": "Dr. Marisha Vithalani (pt)",
    "hours": "Open· Closes 13:00",
    "image_url": "https://www.bing.com/maps/geoplat/REST/v1/Imagery/Map/RoadVibrant?ms=92,112&key=AnTcaqBi2ypp0xI-OZNi4W_ik2KhjgpqioTAtXLC8GzkMBQRMlyxvxyTnd5b73im&c=en-US&ur=in&da=n&logo=n&fmt=png&od=1&shading=hill&pp=22.471478,70.050179;dfp"
  },
  {
    "name": "Dr. Chirag Gangajalia Md. Ddm. Fccs - (chest Care Centre)",
    "address": "201 Aum Complex Opp Jolly Bunglow Complex Summair Club Road, Jamnagar, Gujarat 361005",
    "phone": "Dr. Chirag Gangajalia Md. Ddm. Fccs - (chest Care Centre)",
    "hours": "Closed· Opens 18:00",
    "image_url": "/th?id=OLC.4DglwX35Xkk20Q480x360&w=92&h=134&c=8&rs=1&qlt=80&cdv=1&pid=Local"
  },
  {
    "name": "Param Clinic, Dr.viral Vyas",
    "address": "301, aum Complex, Oppo.Jolly Bungalow, Summair Club Road, Jamnagar, Gujarat 361005",
    "phone": "Param Clinic, Dr.viral Vyas",
    "hours": null,
    "image_url": "/th?id=OLC.GHzv5B1Sa3BRWw480x360&w=92&h=112&c=8&rs=1&qlt=80&cdv=1&pid=Local"
  },
  {
    "name": "Shri Ram Surgical Hospital (dr. Kalpesh Faldu)",
    "address": "5th Floor, Adeshwar Plaza, Near Oswal Hospital, Dijvijay Plot, Circle, Summair Club Rd, Jamnagar, Gujarat",
    "phone": "Shri Ram Surgical Hospital (dr. Kalpesh Faldu)",
    "hours": "Open· Closes 14:00",
    "image_url": null
  },
  {
    "name": "Dr Ramesh R Panara",
    "address": "Summair Club Road, Jamnagar, Jamnagar 361005",
    "phone": "Dr Ramesh R Panara",
    "hours": null,
    "image_url": "https://www.bing.com/maps/geoplat/REST/v1/Imagery/Map/RoadVibrant?ms=92,112&key=AnTcaqBi2ypp0xI-OZNi4W_ik2KhjgpqioTAtXLC8GzkMBQRMlyxvxyTnd5b73im&c=en-US&ur=in&da=n&logo=n&fmt=png&od=1&shading=hill&pp=22.466043,70.059967;dfp"
  },
  {
    "name": "Dr Cr Malde",
    "address": "58, Digvijay Plot, Jamnagar, Jamnagar 361005",
    "phone": "Dr Cr Malde",
    "hours": null,
    "image_url": "https://www.bing.com/maps/geoplat/REST/v1/Imagery/Map/RoadVibrant?ms=92,112&key=AnTcaqBi2ypp0xI-OZNi4W_ik2KhjgpqioTAtXLC8GzkMBQRMlyxvxyTnd5b73im&c=en-US&ur=in&da=n&logo=n&fmt=png&od=1&shading=hill&pp=22.460854,70.059761;dfp"
  },
  {
    "name": "Dr. Alpa Patel",
    "address": "Sheetal Apartment, Shop No 1, Sunshine School Road, Valkeshwarnagri, Jamnagar, Gujarat",
    "phone": "Dr. Alpa Patel",
    "hours": null,
    "image_url": null
  },
  {
    "name": "Shukla Ayurvedic Clinic",
    "address": "201 Madhav Darshan Complex Lalbaunglow Road, Jamnagar, Gujarat, Gujarat 361001",
    "phone": "Shukla Ayurvedic Clinic",
    "hours": null,
    "image_url": null
  },
  {
    "name": "Dr. Viral Vyas",
    "address": "301, Aum Complex, Summair Club Road, Landmark: Opposite Jolly Bungalow, Jamnagar, Gujarat",
    "phone": "Dr. Viral Vyas",
    "hours": "Closed· Opens 11:00",
    "image_url": "https://www.bing.com/maps/geoplat/REST/v1/Imagery/Map/RoadVibrant?ms=92,112&key=AnTcaqBi2ypp0xI-OZNi4W_ik2KhjgpqioTAtXLC8GzkMBQRMlyxvxyTnd5b73im&c=en-US&ur=in&da=n&logo=n&fmt=png&od=1&shading=hill&pp=22.463329,70.062584;dfp"
  },
  {
    "name": "Dr. Ms. Keya Mukherjee",
    "address": "5/1, Patel Colony (Near St. Ann’s High School) Jamnagar, Jamnagar, Gujarat",
    "phone": "Dr. Ms. Keya Mukherjee",
    "hours": "Closed· Opens tomorrow 08:00",
    "image_url": null
  },
  {
    "name": "Dr. Kalpanaben Khanderiya",
    "address": "Gurudwara Road, Jamnagar, Gujarat 361001",
    "phone": "Dr. Kalpanaben Khanderiya",
    "hours": null,
    "image_url": "https://www.bing.com/maps/geoplat/REST/v1/Imagery/Map/RoadVibrant?ms=92,112&key=AnTcaqBi2ypp0xI-OZNi4W_ik2KhjgpqioTAtXLC8GzkMBQRMlyxvxyTnd5b73im&c=en-US&ur=in&da=n&logo=n&fmt=png&od=1&shading=hill&pp=22.472822,70.065353;dfp"
  },
  {
    "name": "Dr. Manish L. Bhatt",
    "address": "Sh27, Jolly Bunglow Complex, Oshwal Colony, Jamnagar, Gujarat 361005",
    "phone": "Dr. Manish L. Bhatt",
    "hours": null,
    "image_url": null
  },
  {
    "name": "Darshil Oswal colony",
    "address": "Galleria Complex K P Shah Road, Jamnagar, Gujarat 361008",
    "phone": "Darshil Oswal colony",
    "hours": "Open· Closes 15:00",
    "image_url": "https://www.bing.com/maps/geoplat/REST/v1/Imagery/Map/RoadVibrant?ms=92,134&key=AnTcaqBi2ypp0xI-OZNi4W_ik2KhjgpqioTAtXLC8GzkMBQRMlyxvxyTnd5b73im&c=en-US&ur=in&da=n&logo=n&fmt=png&od=1&shading=hill&pp=22.483145,70.059639;dfp"
  },
  {
    "name": "Dr Batra's Homeopathy",
    "address": "12 & 13, 1st Flr, Jamnagar, Gujarat 361008",
    "phone": "Dr Batra's Homeopathy",
    "hours": "Closed· Opens 11:00",
    "image_url": null
  },
  {
    "name": "Brahmani Clinic",
    "address": "Prop DR Kishankumar Gondaliya, Dared, Gidc Phase-II, Near Patel Samaj, Jamnagar, Gujarat 361004",
    "phone": "Brahmani Clinic",
    "hours": null,
    "image_url": "https://www.bing.com/maps/geoplat/REST/v1/Imagery/Map/RoadVibrant?ms=92,112&key=AnTcaqBi2ypp0xI-OZNi4W_ik2KhjgpqioTAtXLC8GzkMBQRMlyxvxyTnd5b73im&c=en-US&ur=in&da=n&logo=n&fmt=png&od=1&shading=hill&pp=22.412254,70.053635;dfp"
  }
]