[
  {
    "name": "Dr. Ranjeet Rawat | Sanjeevan health clinic",
    "address": "Bypas Road Near Atithi Palace, Jamui, Bihar, India, 811307, Jamui, Madhya Pradesh 811307",
    "phone": "Dr. Ranjeet Rawat | Sanjeevan health clinic",
    "hours": "Open· Closes 15:00",
    "image_url": "/th?id=OLC.8n%2bfbVSSyECqNA480x360&w=92&h=134&c=8&rs=1&qlt=80&cdv=1&pid=Local"
  },
  {
    "name": "Dr.imtiyaz Khan",
    "address": "Unnamed Road, Bihar 811307, India, Jamui, Bihar 811307",
    "phone": "Dr.imtiyaz Khan",
    "hours": null,
    "image_url": "https://www.bing.com/maps/geoplat/REST/v1/Imagery/Map/RoadVibrant?ms=92,112&key=AnTcaqBi2ypp0xI-OZNi4W_ik2KhjgpqioTAtXLC8GzkMBQRMlyxvxyTnd5b73im&c=en-US&ur=in&da=n&logo=n&fmt=png&od=1&shading=hill&pp=24.929399,86.227402;dfp"
  },
  {
    "name": "Maa Jagdamba Clinic",
    "address": "Station Road, Jamui, Bihar - 811307, Jamui, Bihar 811307",
    "phone": "Maa Jagdamba Clinic",
    "hours": null,
    "image_url": "https://www.bing.com/maps/geoplat/REST/v1/Imagery/Map/RoadVibrant?ms=92,112&key=AnTcaqBi2ypp0xI-OZNi4W_ik2KhjgpqioTAtXLC8GzkMBQRMlyxvxyTnd5b73im&c=en-US&ur=in&da=n&logo=n&fmt=png&od=1&shading=hill&pp=24.937918,86.229446;dfp"
  },
  {
    "name": "Dr Surya Nandan Singh",
    "address": "Sikandra Road, Mahisouri, Jamui, Bihar 811307",
    "phone": "Dr Surya Nandan Singh",
    "hours": null,
    "image_url": "https://www.bing.com/maps/geoplat/REST/v1/Imagery/Map/RoadVibrant?ms=92,112&key=AnTcaqBi2ypp0xI-OZNi4W_ik2KhjgpqioTAtXLC8GzkMBQRMlyxvxyTnd5b73im&c=en-US&ur=in&da=n&logo=n&fmt=png&od=1&shading=hill&pp=24.921803,86.223824;dfp"
  },
  {
    "name": "Dr Sinhas' Healthcare & Research Foundation",
    "address": "1, Life Campus, Patsanda, Gidhaur, Prince Market, Jamui, Bihar 811305",
    "phone": "Dr Sinhas' Healthcare & Research Foundation",
    "hours": null,
    "image_url": "https://www.bing.com/maps/geoplat/REST/v1/Imagery/Map/RoadVibrant?ms=92,112&key=AnTcaqBi2ypp0xI-OZNi4W_ik2KhjgpqioTAtXLC8GzkMBQRMlyxvxyTnd5b73im&c=en-US&ur=in&da=n&logo=n&fmt=png&od=1&shading=hill&pp=24.93055,86.225929;dfp"
  },
  {
    "name": "Dr a P J Abdul Kalam Ct Scan Centre",
    "address": "Y P Pharma, 73, Jamui, Babu Tola, Mahisauri, Munger, Bihar 811307",
    "phone": "Dr a P J Abdul Kalam Ct Scan Centre",
    "hours": null,
    "image_url": "/th?id=OLC.gMoHwMQ6pJdsJA480x360&w=92&h=112&c=8&rs=1&qlt=80&cdv=1&pid=Local"
  },
  {
    "name": "Lucky Clinic",
    "address": "M\\S Lucky Clinic, Thana Road Jamui, Jamui, Bihar 811307",
    "phone": "Lucky Clinic",
    "hours": null,
    "image_url": "https://www.bing.com/maps/geoplat/REST/v1/Imagery/Map/RoadVibrant?ms=92,112&key=AnTcaqBi2ypp0xI-OZNi4W_ik2KhjgpqioTAtXLC8GzkMBQRMlyxvxyTnd5b73im&c=en-US&ur=in&da=n&logo=n&fmt=png&od=1&shading=hill&pp=24.932978,86.219421;dfp"
  },
  {
    "name": "Dr Nilay Children Hospital",
    "address": "Pathan Chowk Near, Lav Khush Gas Agency, Panch Mandir Road, Jamui, Bihar 811307",
    "phone": "Dr Nilay Children Hospital",
    "hours": null,
    "image_url": "https://www.bing.com/maps/geoplat/REST/v1/Imagery/Map/RoadVibrant?ms=92,112&key=AnTcaqBi2ypp0xI-OZNi4W_ik2KhjgpqioTAtXLC8GzkMBQRMlyxvxyTnd5b73im&c=en-US&ur=in&da=n&logo=n&fmt=png&od=1&shading=hill&pp=24.921803,86.223824;dfp"
  },
  {
    "name": "Star Ultrasound Centre",
    "address": "Jamui Bypass, Jamui, Bihar 811307",
    "phone": "Star Ultrasound Centre",
    "hours": null,
    "image_url": "https://www.bing.com/maps/geoplat/REST/v1/Imagery/Map/RoadVibrant?ms=92,112&key=AnTcaqBi2ypp0xI-OZNi4W_ik2KhjgpqioTAtXLC8GzkMBQRMlyxvxyTnd5b73im&c=en-US&ur=in&da=n&logo=n&fmt=png&od=1&shading=hill&pp=24.931511,86.224068;dfp"
  },
  {
    "name": "Dr. Satyendra Kumar",
    "address": "Middle School Badildih Gharhi, Jamui, Bihar, India, 811317, Jamui, Madhya Pradesh 811317",
    "phone": "Dr. Satyendra Kumar",
    "hours": "Open· Closes 18:00",
    "image_url": null
  },
  {
    "name": "Primary Health Centre",
    "address": "Aliganj, Sh8 Gaya Road, Jamui, Bihar 811307",
    "phone": "Primary Health Centre",
    "hours": null,
    "image_url": "https://www.bing.com/maps/geoplat/REST/v1/Imagery/Map/RoadVibrant?ms=92,112&key=AnTcaqBi2ypp0xI-OZNi4W_ik2KhjgpqioTAtXLC8GzkMBQRMlyxvxyTnd5b73im&c=en-US&ur=in&da=n&logo=n&fmt=png&od=1&shading=hill&pp=24.945719,85.925873;dfp"
  },
  {
    "name": "Gaurav Ultrasound Center",
    "address": "Jamui, Jail Road, Jamui, Bihar 811307",
    "phone": "Gaurav Ultrasound Center",
    "hours": null,
    "image_url": "https://www.bing.com/maps/geoplat/REST/v1/Imagery/Map/RoadVibrant?ms=92,112&key=AnTcaqBi2ypp0xI-OZNi4W_ik2KhjgpqioTAtXLC8GzkMBQRMlyxvxyTnd5b73im&c=en-US&ur=in&da=n&logo=n&fmt=png&od=1&shading=hill&pp=24.937695,86.229477;dfp"
  },
  {
    "name": "Rajdhani Diagnostic Centre",
    "address": "Panch Mandir Road, Mahisouri, Jamui, Bihar 811307",
    "phone": "Rajdhani Diagnostic Centre",
    "hours": null,
    "image_url": "https://www.bing.com/maps/geoplat/REST/v1/Imagery/Map/RoadVibrant?ms=92,112&key=AnTcaqBi2ypp0xI-OZNi4W_ik2KhjgpqioTAtXLC8GzkMBQRMlyxvxyTnd5b73im&c=en-US&ur=in&da=n&logo=n&fmt=png&od=1&shading=hill&pp=24.937695,86.229477;dfp"
  }
]