[
  {
    "name": "Dr. Divya Prakash Dewangan- General Practitioner",
    "address": "M D M Clinic, Lions School Road, Janjgir, Near Lions Dav Public School, Champa, Chhattisgarh 495671",
    "phone": "Dr. Divya Prakash Dewangan- General Practitioner",
    "hours": "Open· Closes 21:00",
    "image_url": "https://www.bing.com/maps/geoplat/REST/v1/Imagery/Map/RoadVibrant?ms=92,134&key=AnTcaqBi2ypp0xI-OZNi4W_ik2KhjgpqioTAtXLC8GzkMBQRMlyxvxyTnd5b73im&c=en-US&ur=in&da=n&logo=n&fmt=png&od=1&shading=hill&pp=22.035793,82.648018;dfp"
  },
  {
    "name": "Dr. Yogendra Kumar Sharma- General Physician",
    "address": "Dr. Y K Sharma Clinic, Birra Road, Near Railway Phatak, Dist. Janjgir, Champa, Chhattisgarh 495671",
    "phone": "Dr. Yogendra Kumar Sharma- General Physician",
    "hours": "Open· Closes 13:00",
    "image_url": "https://www.bing.com/maps/geoplat/REST/v1/Imagery/Map/RoadVibrant?ms=92,134&key=AnTcaqBi2ypp0xI-OZNi4W_ik2KhjgpqioTAtXLC8GzkMBQRMlyxvxyTnd5b73im&c=en-US&ur=in&da=n&logo=n&fmt=png&od=1&shading=hill&pp=21.896378,82.730209;dfp"
  },
  {
    "name": "PATEL/Gupta hospital",
    "address": "Lions Chowk Station Rd, Champa Basti, Champa, Chhattisgarh, India, 495671, Champa, Madhya Prades…",
    "phone": "PATEL/Gupta hospital",
    "hours": "Open· Closes 18:00",
    "image_url": "/th?id=OLC.GWwTwU4F%2beA5Ew480x360&w=92&h=134&c=8&rs=1&qlt=80&cdv=1&pid=Local"
  },
  {
    "name": "Esic Clinic",
    "address": "2MP5+XXJ, Champa, Chhattisgarh",
    "phone": "Esic Clinic",
    "hours": null,
    "image_url": "https://www.bing.com/maps/geoplat/REST/v1/Imagery/Map/RoadVibrant?ms=92,112&key=AnTcaqBi2ypp0xI-OZNi4W_ik2KhjgpqioTAtXLC8GzkMBQRMlyxvxyTnd5b73im&c=en-US&ur=in&da=n&logo=n&fmt=png&od=1&shading=hill&pp=22.034201,82.667198;dfp"
  },
  {
    "name": "Dr Jiwanlal Gulabani Memorial Hospital",
    "address": "Bamhnidih, Tehsil Road, Barpali Chowk, Champa, Janjgir-Champa, Chhattisgarh 495671",
    "phone": "Dr Jiwanlal Gulabani Memorial Hospital",
    "hours": null,
    "image_url": "https://www.bing.com/maps/geoplat/REST/v1/Imagery/Map/RoadVibrant?ms=92,112&key=AnTcaqBi2ypp0xI-OZNi4W_ik2KhjgpqioTAtXLC8GzkMBQRMlyxvxyTnd5b73im&c=en-US&ur=in&da=n&logo=n&fmt=png&od=1&shading=hill&pp=22.035019,82.65123;dfp"
  },
  {
    "name": "DR. Bais Clinic",
    "address": "DR Bais Clinic Sheetal Chhaya Main Road Bilaspur Korba Baloda, Janjgir-Champa, Chhattisgarh 495559",
    "phone": "DR. Bais Clinic",
    "hours": null,
    "image_url": "https://www.bing.com/maps/geoplat/REST/v1/Imagery/Map/RoadVibrant?ms=92,112&key=AnTcaqBi2ypp0xI-OZNi4W_ik2KhjgpqioTAtXLC8GzkMBQRMlyxvxyTnd5b73im&c=en-US&ur=in&da=n&logo=n&fmt=png&od=1&shading=hill&pp=22.086935,82.144516;dfp"
  },
  {
    "name": "Dr Ram Kumar Agrawal Dant Chikitsalaya",
    "address": "Dr Ram Kumar Agrawal, Dr R K Agrawal, Besides Krishna Computers And, In Front Of Axis Bank, Akaltar…",
    "phone": "Dr Ram Kumar Agrawal Dant Chikitsalaya",
    "hours": null,
    "image_url": "https://www.bing.com/maps/geoplat/REST/v1/Imagery/Map/RoadVibrant?ms=92,112&key=AnTcaqBi2ypp0xI-OZNi4W_ik2KhjgpqioTAtXLC8GzkMBQRMlyxvxyTnd5b73im&c=en-US&ur=in&da=n&logo=n&fmt=png&od=1&shading=hill&pp=22.0275,82.426598;dfp"
  },
  {
    "name": "Bareth Clinic and General Practicener",
    "address": "Ward No 2, Dumar Para, Sakti, Baradwar, Janjgir-Champa, Chhattisgarh 495687",
    "phone": "Bareth Clinic and General Practicener",
    "hours": null,
    "image_url": "https://www.bing.com/maps/geoplat/REST/v1/Imagery/Map/RoadVibrant?ms=92,112&key=AnTcaqBi2ypp0xI-OZNi4W_ik2KhjgpqioTAtXLC8GzkMBQRMlyxvxyTnd5b73im&c=en-US&ur=in&da=n&logo=n&fmt=png&od=1&shading=hill&pp=22.371317,82.727867;dfp"
  },
  {
    "name": "Mahamaya Clinic",
    "address": "Sipat Road, मोप्का, Chhattisgarh 495006",
    "phone": "Mahamaya Clinic",
    "hours": null,
    "image_url": "https://www.bing.com/maps/geoplat/REST/v1/Imagery/Map/RoadVibrant?ms=92,112&key=AnTcaqBi2ypp0xI-OZNi4W_ik2KhjgpqioTAtXLC8GzkMBQRMlyxvxyTnd5b73im&c=en-US&ur=in&da=n&logo=n&fmt=png&od=1&shading=hill&pp=22.0877,82.2034;dfp"
  },
  {
    "name": "Multi Care Clinic",
    "address": "Phase-1, A/41, Near Telephone Exchange, Rajkishore Nagar, Bilaspur, Chhattisgarh 495001",
    "phone": "Multi Care Clinic",
    "hours": "Open· Closes 13:00",
    "image_url": null
  },
  {
    "name": "Venus Diagnostic Center",
    "address": "Gurunanak Marg, Champa, Chhattisgarh 495671",
    "phone": "Venus Diagnostic Center",
    "hours": null,
    "image_url": "https://www.bing.com/maps/geoplat/REST/v1/Imagery/Map/RoadVibrant?ms=92,112&key=AnTcaqBi2ypp0xI-OZNi4W_ik2KhjgpqioTAtXLC8GzkMBQRMlyxvxyTnd5b73im&c=en-US&ur=in&da=n&logo=n&fmt=png&od=1&shading=hill&pp=22.038212,82.655853;dfp"
  },
  {
    "name": "ENT Clinic CCH, नाक कान गला क्लिनिक, मिशन अस्पताल",
    "address": "Mission Rd, Barpali Chowk, Champa, Chhattisgarh",
    "phone": "ENT Clinic CCH, नाक कान गला क्लिनिक, मिशन अस्पताल",
    "hours": null,
    "image_url": null
  },
  {
    "name": "Sai Clinic Bilaspur - Dr. Siddharth Kumar Orthopedic | Joint Replacement | Arthroscopy Surgeon",
    "address": "HIG A23, Seepat Rd, Near Science College Road, Songanga Colony, Sarkanda, Bilaspur, Chhattisgarh",
    "phone": "Sai Clinic Bilaspur - Dr. Siddharth Kumar Orthopedic | Joint Replacement | Arthroscopy Surgeon",
    "hours": null,
    "image_url": "https://www.bing.com/maps/geoplat/REST/v1/Imagery/Map/RoadVibrant?ms=92,112&key=AnTcaqBi2ypp0xI-OZNi4W_ik2KhjgpqioTAtXLC8GzkMBQRMlyxvxyTnd5b73im&c=en-US&ur=in&da=n&logo=n&fmt=png&od=1&shading=hill&pp=22.0966,82.166237;dfp"
  }
]