[
  {
    "name": "Dr. Madan Mohan Verma- General Physician",
    "address": "Varma Clinic, Malik Chowk, Jaunpur, Uttar Pradesh 222001",
    "phone": "Dr. Madan Mohan Verma- General Physician",
    "hours": "Open· Closes 16:00",
    "image_url": "https://www.bing.com/maps/geoplat/REST/v1/Imagery/Map/RoadVibrant?ms=92,134&key=AnTcaqBi2ypp0xI-OZNi4W_ik2KhjgpqioTAtXLC8GzkMBQRMlyxvxyTnd5b73im&c=en-US&ur=in&da=n&logo=n&fmt=png&od=1&shading=hill&pp=25.757492,82.692123;dfp"
  },
  {
    "name": "Dr. Spriha Singh MD. Medicine clinic",
    "address": "Tribhuvan Singh Memorial Hospital, Jaunpur, Uttar Pradesh",
    "phone": "Dr. Spriha Singh MD. Medicine clinic",
    "hours": null,
    "image_url": "https://www.bing.com/maps/geoplat/REST/v1/Imagery/Map/RoadVibrant?ms=92,112&key=AnTcaqBi2ypp0xI-OZNi4W_ik2KhjgpqioTAtXLC8GzkMBQRMlyxvxyTnd5b73im&c=en-US&ur=in&da=n&logo=n&fmt=png&od=1&shading=hill&pp=25.735725,82.673843;dfp"
  },
  {
    "name": "Dr PRASHANT SINGH",
    "address": "Gomti River Bridge Golaghat, Near Gomtinagar, Sultanpur, Uttar Pradesh",
    "phone": "Dr PRASHANT SINGH",
    "hours": null,
    "image_url": "https://www.bing.com/maps/geoplat/REST/v1/Imagery/Map/RoadVibrant?ms=92,112&key=AnTcaqBi2ypp0xI-OZNi4W_ik2KhjgpqioTAtXLC8GzkMBQRMlyxvxyTnd5b73im&c=en-US&ur=in&da=n&logo=n&fmt=png&od=1&shading=hill&pp=25.753721,82.678513;dfp"
  },
  {
    "name": "Om Sai Bal Chikitsalya Dr. Abhishek Mishra",
    "address": "Ruhatta Polytechnic Chauraha - Olandganj Road, Uttar Pradesh 222002, India, Jaunpur, Uttar Pradesh, Uttar P…",
    "phone": "Om Sai Bal Chikitsalya Dr. Abhishek Mishra",
    "hours": null,
    "image_url": "/th?id=OLC.bjqftcrgx8wo6A480x360&w=92&h=112&c=8&rs=1&qlt=80&cdv=1&pid=Local"
  },
  {
    "name": "Dr Javed Akthar Clinic",
    "address": "Suthatti, Jaunpur, Uttar Pradesh 222001",
    "phone": "Dr Javed Akthar Clinic",
    "hours": null,
    "image_url": "https://www.bing.com/maps/geoplat/REST/v1/Imagery/Map/RoadVibrant?ms=92,112&key=AnTcaqBi2ypp0xI-OZNi4W_ik2KhjgpqioTAtXLC8GzkMBQRMlyxvxyTnd5b73im&c=en-US&ur=in&da=n&logo=n&fmt=png&od=1&shading=hill&pp=25.756144,82.690208;dfp"
  },
  {
    "name": "Dr. R K Singh Clinic",
    "address": "Kacheri Road, Jkbs School, Sheikhpur, Jaunpur, Uttar Pradesh 222002",
    "phone": "Dr. R K Singh Clinic",
    "hours": null,
    "image_url": "/th?id=OLC.cO94Y12Xgj6lVQ480x360&w=92&h=112&c=8&rs=1&qlt=80&cdv=1&pid=Local"
  },
  {
    "name": "Dr. Ravi Chauhan- General & Laparoscopic Surgeon",
    "address": "Sahara Hospital, Kalichabad, Near Dubey Dhaba, Lucknow Rd, Jaunpur, Uttar Pradesh 222002",
    "phone": "Dr. Ravi Chauhan- General & Laparoscopic Surgeon",
    "hours": "Open· Closes 16:00",
    "image_url": "https://www.bing.com/maps/geoplat/REST/v1/Imagery/Map/RoadVibrant?ms=92,134&key=AnTcaqBi2ypp0xI-OZNi4W_ik2KhjgpqioTAtXLC8GzkMBQRMlyxvxyTnd5b73im&c=en-US&ur=in&da=n&logo=n&fmt=png&od=1&shading=hill&pp=25.742117,82.660576;dfp"
  },
  {
    "name": "Dr. P K Singh Clinic",
    "address": "Nawab Yousuf Road, Apex Hospital, Haribandhanpur, Jaunpur, Uttar Pradesh 222002",
    "phone": "Dr. P K Singh Clinic",
    "hours": null,
    "image_url": "https://www.bing.com/maps/geoplat/REST/v1/Imagery/Map/RoadVibrant?ms=92,112&key=AnTcaqBi2ypp0xI-OZNi4W_ik2KhjgpqioTAtXLC8GzkMBQRMlyxvxyTnd5b73im&c=en-US&ur=in&da=n&logo=n&fmt=png&od=1&shading=hill&pp=25.736361,82.674423;dfp"
  },
  {
    "name": "Saroj Clinic",
    "address": "Kachehari Rd, Mainpur, Jaunpur, Uttar Pradesh",
    "phone": "Saroj Clinic",
    "hours": null,
    "image_url": "https://www.bing.com/maps/geoplat/REST/v1/Imagery/Map/RoadVibrant?ms=92,112&key=AnTcaqBi2ypp0xI-OZNi4W_ik2KhjgpqioTAtXLC8GzkMBQRMlyxvxyTnd5b73im&c=en-US&ur=in&da=n&logo=n&fmt=png&od=1&shading=hill&pp=25.728077,82.700226;dfp"
  },
  {
    "name": "Jaunpur City Hospital",
    "address": "Naiganj, Prayagraj Road, Jaunpur, Uttar Pradesh 222002",
    "phone": "Jaunpur City Hospital",
    "hours": null,
    "image_url": "https://www.bing.com/maps/geoplat/REST/v1/Imagery/Map/RoadVibrant?ms=92,112&key=AnTcaqBi2ypp0xI-OZNi4W_ik2KhjgpqioTAtXLC8GzkMBQRMlyxvxyTnd5b73im&c=en-US&ur=in&da=n&logo=n&fmt=png&od=1&shading=hill&pp=25.735031,82.672478;dfp"
  },
  {
    "name": "Dr M N Tripathi Clinic",
    "address": "Mirjapur Road, Polytechnic Chauraha, Jaunpur, Uttar Pradesh 222002",
    "phone": "Dr M N Tripathi Clinic",
    "hours": null,
    "image_url": "https://www.bing.com/maps/geoplat/REST/v1/Imagery/Map/RoadVibrant?ms=92,112&key=AnTcaqBi2ypp0xI-OZNi4W_ik2KhjgpqioTAtXLC8GzkMBQRMlyxvxyTnd5b73im&c=en-US&ur=in&da=n&logo=n&fmt=png&od=1&shading=hill&pp=25.737268,82.675095;dfp"
  },
  {
    "name": "Kesarwani Clinic (Dr. Hiralal Kesarwani Clinic)",
    "address": "Dr. Hiralal Kesarwani Clinic Nakhas, Near Kaali maa Mandir, Olandganj, Jaunpur, Uttar Pradesh",
    "phone": "Kesarwani Clinic (Dr. Hiralal Kesarwani Clinic)",
    "hours": null,
    "image_url": "https://www.bing.com/maps/geoplat/REST/v1/Imagery/Map/RoadVibrant?ms=92,112&key=AnTcaqBi2ypp0xI-OZNi4W_ik2KhjgpqioTAtXLC8GzkMBQRMlyxvxyTnd5b73im&c=en-US&ur=in&da=n&logo=n&fmt=png&od=1&shading=hill&pp=25.73201,82.672897;dfp"
  },
  {
    "name": "Shivangi Clinic",
    "address": "Sh36, Parmanatpur, Olandganj, Jaunpur, Uttar Pradesh 222002, India, Jaunpur, Uttar Pradesh, Uttar Pradesh 2…",
    "phone": "Shivangi Clinic",
    "hours": null,
    "image_url": "https://www.bing.com/maps/geoplat/REST/v1/Imagery/Map/RoadVibrant?ms=92,112&key=AnTcaqBi2ypp0xI-OZNi4W_ik2KhjgpqioTAtXLC8GzkMBQRMlyxvxyTnd5b73im&c=en-US&ur=in&da=n&logo=n&fmt=png&od=1&shading=hill&pp=25.736597,82.683083;dfp"
  },
  {
    "name": "J.D Memorial Nursing Stationroad Jaunpur",
    "address": "Near State Bank Subzimandi, Jaunpur, Uttar Pradesh, Uttar Pradesh 222002",
    "phone": "J.D Memorial Nursing Stationroad Jaunpur",
    "hours": null,
    "image_url": null
  },
  {
    "name": "Deep Children Hospital Dr Lalji Prasad",
    "address": "Deep Children Hospital DR Lalji Prasad Polytechnic Chowra, Jaunpur, Uttar Pradesh 222002",
    "phone": "Deep Children Hospital Dr Lalji Prasad",
    "hours": null,
    "image_url": null
  },
  {
    "name": "Shree Radha Homoeopathic clinic. Dr.Saujanya R.Maurya",
    "address": "Gyanpur, Gyanpur Rd, Pali Bazar, Bhadohi Nagar Palika, Uttar Pradesh",
    "phone": "Shree Radha Homoeopathic clinic. Dr.Saujanya R.Maurya",
    "hours": null,
    "image_url": "https://www.bing.com/maps/geoplat/REST/v1/Imagery/Map/RoadVibrant?ms=92,112&key=AnTcaqBi2ypp0xI-OZNi4W_ik2KhjgpqioTAtXLC8GzkMBQRMlyxvxyTnd5b73im&c=en-US&ur=in&da=n&logo=n&fmt=png&od=1&shading=hill&pp=25.743031,82.68187;dfp"
  },
  {
    "name": "Shivam Homoeo Clinic & Resurch Center",
    "address": "Gaurabadshah Pur, Jaunpur, Uttar Pradesh, Uttar Pradesh 222002",
    "phone": "Shivam Homoeo Clinic & Resurch Center",
    "hours": null,
    "image_url": null
  },
  {
    "name": "amrita Diagnostic centre jaunpur",
    "address": "Allahabad Road, Nai Bazar Colony, Naiganj, Olandganj, Jaunpur, Uttar Pradesh",
    "phone": "amrita Diagnostic centre jaunpur",
    "hours": null,
    "image_url": "https://www.bing.com/maps/geoplat/REST/v1/Imagery/Map/RoadVibrant?ms=92,112&key=AnTcaqBi2ypp0xI-OZNi4W_ik2KhjgpqioTAtXLC8GzkMBQRMlyxvxyTnd5b73im&c=en-US&ur=in&da=n&logo=n&fmt=png&od=1&shading=hill&pp=25.742212,82.687111;dfp"
  }
]