[
  {
    "name": "Dr Pamal Hospital",
    "address": "2nd Floor, Bivha Business Center, nh-106, Bihar 852111",
    "phone": "Dr Pamal Hospital",
    "hours": null,
    "image_url": "https://www.bing.com/maps/geoplat/REST/v1/Imagery/Map/RoadVibrant?ms=92,112&key=AnTcaqBi2ypp0xI-OZNi4W_ik2KhjgpqioTAtXLC8GzkMBQRMlyxvxyTnd5b73im&c=en-US&ur=in&da=n&logo=n&fmt=png&od=1&shading=hill&pp=25.22143,84.996292;dfp"
  },
  {
    "name": "Dr R K Mishra Clinic",
    "address": "Kalpa, Bihar 804417, India, Jehanabad, Bihar 804417",
    "phone": "Dr R K Mishra Clinic",
    "hours": null,
    "image_url": "https://www.bing.com/maps/geoplat/REST/v1/Imagery/Map/RoadVibrant?ms=92,112&key=AnTcaqBi2ypp0xI-OZNi4W_ik2KhjgpqioTAtXLC8GzkMBQRMlyxvxyTnd5b73im&c=en-US&ur=in&da=n&logo=n&fmt=png&od=1&shading=hill&pp=25.232573,84.995064;dfp"
  },
  {
    "name": "Clinic Of Dr. Girijesh Kumar",
    "address": "Patna Gaya Road Jehanabad India 804408, Jehanabad, Bihar 804408",
    "phone": "Clinic Of Dr. Girijesh Kumar",
    "hours": null,
    "image_url": "https://www.bing.com/maps/geoplat/REST/v1/Imagery/Map/RoadVibrant?ms=92,112&key=AnTcaqBi2ypp0xI-OZNi4W_ik2KhjgpqioTAtXLC8GzkMBQRMlyxvxyTnd5b73im&c=en-US&ur=in&da=n&logo=n&fmt=png&od=1&shading=hill&pp=25.208172,84.984718;dfp"
  },
  {
    "name": "Kopal Clinic Dr Anita",
    "address": "P G Road, Reliance Petrol Pump, Korauna Jehanabad, Jehanabad, Bihar 804417",
    "phone": "Kopal Clinic Dr Anita",
    "hours": null,
    "image_url": "https://www.bing.com/maps/geoplat/REST/v1/Imagery/Map/RoadVibrant?ms=92,112&key=AnTcaqBi2ypp0xI-OZNi4W_ik2KhjgpqioTAtXLC8GzkMBQRMlyxvxyTnd5b73im&c=en-US&ur=in&da=n&logo=n&fmt=png&od=1&shading=hill&pp=25.235701,84.997894;dfp"
  },
  {
    "name": "Sakshya Clinic",
    "address": "Arwal Road, Kali Mandir, Raja Bazar, Jehanabad, Bihar 804408",
    "phone": "Sakshya Clinic",
    "hours": null,
    "image_url": "https://www.bing.com/maps/geoplat/REST/v1/Imagery/Map/RoadVibrant?ms=92,112&key=AnTcaqBi2ypp0xI-OZNi4W_ik2KhjgpqioTAtXLC8GzkMBQRMlyxvxyTnd5b73im&c=en-US&ur=in&da=n&logo=n&fmt=png&od=1&shading=hill&pp=25.21158,84.977562;dfp"
  },
  {
    "name": "M S Haque Clinic | Best Sexologist Doctor | Ayurvedic and Unani Treatment |",
    "address": "Murlidhar Guest House 1ST Floor Arwal More Opposite Bank OF India Arwal, More, Jahanabad, Bihar",
    "phone": "M S Haque Clinic | Best Sexologist Doctor | Ayurvedic and Unani Treatment |",
    "hours": null,
    "image_url": "https://www.bing.com/maps/geoplat/REST/v1/Imagery/Map/RoadVibrant?ms=92,112&key=AnTcaqBi2ypp0xI-OZNi4W_ik2KhjgpqioTAtXLC8GzkMBQRMlyxvxyTnd5b73im&c=en-US&ur=in&da=n&logo=n&fmt=png&od=1&shading=hill&pp=25.220718,84.985451;dfp"
  },
  {
    "name": "Dr.s. shekhar neurophysician clinic jehanabad",
    "address": "Near maa Sharda Medical Hall, Rajabazar, Jehanabad, Bihar",
    "phone": "Dr.s. shekhar neurophysician clinic jehanabad",
    "hours": null,
    "image_url": "https://www.bing.com/maps/geoplat/REST/v1/Imagery/Map/RoadVibrant?ms=92,112&key=AnTcaqBi2ypp0xI-OZNi4W_ik2KhjgpqioTAtXLC8GzkMBQRMlyxvxyTnd5b73im&c=en-US&ur=in&da=n&logo=n&fmt=png&od=1&shading=hill&pp=25.220211,84.987167;dfp"
  },
  {
    "name": "Shafa Clinic",
    "address": "Erki ON NH 83 Ward, Shafa Clinic Erki, Jehanabad, NO 27, ON NH 83 Ward NO 27, Jehanabad, Bihar 804408",
    "phone": "Shafa Clinic",
    "hours": null,
    "image_url": "https://www.bing.com/maps/geoplat/REST/v1/Imagery/Map/RoadVibrant?ms=92,112&key=AnTcaqBi2ypp0xI-OZNi4W_ik2KhjgpqioTAtXLC8GzkMBQRMlyxvxyTnd5b73im&c=en-US&ur=in&da=n&logo=n&fmt=png&od=1&shading=hill&pp=25.22571,84.991531;dfp"
  },
  {
    "name": "Dr.Amrendra Kumar German Homoeopathic Clinic Hospital More Jehanabad",
    "address": "Kedar Market Hospital More Jehanabad Bihar, Jehanabad, Bihar 804417",
    "phone": "Dr.Amrendra Kumar German Homoeopathic Clinic Hospital More Jehanabad",
    "hours": null,
    "image_url": null
  },
  {
    "name": "Dr. Rajesh Kumar | Consultant Urologist, Laproscopic & Transplant Surgeon| Maa Super Speciality Hospital",
    "address": "Above SBI Main Branch, 2nd Floor, Patna Gaya Road, Horliganj, Jehanabad, Bihar",
    "phone": "Dr. Rajesh Kumar | Consultant Urologist, Laproscopic & Transplant Surgeon| Maa Super Speciality Hospital",
    "hours": null,
    "image_url": "https://www.bing.com/maps/geoplat/REST/v1/Imagery/Map/RoadVibrant?ms=92,112&key=AnTcaqBi2ypp0xI-OZNi4W_ik2KhjgpqioTAtXLC8GzkMBQRMlyxvxyTnd5b73im&c=en-US&ur=in&da=n&logo=n&fmt=png&od=1&shading=hill&pp=25.223776,84.992378;dfp"
  },
  {
    "name": "Simran Clinic",
    "address": "Fida Hussain Road, Khusboo Market, Mallaha Chak More, Jehanabad, Bihar 804408",
    "phone": "Simran Clinic",
    "hours": null,
    "image_url": "https://www.bing.com/maps/geoplat/REST/v1/Imagery/Map/RoadVibrant?ms=92,112&key=AnTcaqBi2ypp0xI-OZNi4W_ik2KhjgpqioTAtXLC8GzkMBQRMlyxvxyTnd5b73im&c=en-US&ur=in&da=n&logo=n&fmt=png&od=1&shading=hill&pp=25.215607,84.989395;dfp"
  },
  {
    "name": "Shanti Surgical Clinic",
    "address": "National Highway 83, Jehanabad, Bihar 804408, India, Jehanabad, Bihar 804408",
    "phone": "Shanti Surgical Clinic",
    "hours": null,
    "image_url": "https://www.bing.com/maps/geoplat/REST/v1/Imagery/Map/RoadVibrant?ms=92,112&key=AnTcaqBi2ypp0xI-OZNi4W_ik2KhjgpqioTAtXLC8GzkMBQRMlyxvxyTnd5b73im&c=en-US&ur=in&da=n&logo=n&fmt=png&od=1&shading=hill&pp=25.225143,84.991104;dfp"
  },
  {
    "name": "Janta Homoeo Clinic",
    "address": "1St Floor, Nishant Marke, V, Patepur, Nh\\28, Hajipur, Vaishali, Bihar 843114",
    "phone": "Janta Homoeo Clinic",
    "hours": null,
    "image_url": "https://www.bing.com/maps/geoplat/REST/v1/Imagery/Map/RoadVibrant?ms=92,112&key=AnTcaqBi2ypp0xI-OZNi4W_ik2KhjgpqioTAtXLC8GzkMBQRMlyxvxyTnd5b73im&c=en-US&ur=in&da=n&logo=n&fmt=png&od=1&shading=hill&pp=25.215092,84.987213;dfp"
  },
  {
    "name": "Mobile Doctor",
    "address": "SH 17, Kothi Chowk, Bihar",
    "phone": "Mobile Doctor",
    "hours": null,
    "image_url": null
  },
  {
    "name": "Pragya Molecular Diagnostic Centre",
    "address": "Dhamsain - Alinagar Rd, Rupaspur, Bihar",
    "phone": "Pragya Molecular Diagnostic Centre",
    "hours": null,
    "image_url": "https://www.bing.com/maps/geoplat/REST/v1/Imagery/Map/RoadVibrant?ms=92,112&key=AnTcaqBi2ypp0xI-OZNi4W_ik2KhjgpqioTAtXLC8GzkMBQRMlyxvxyTnd5b73im&c=en-US&ur=in&da=n&logo=n&fmt=png&od=1&shading=hill&pp=25.225477,84.991623;dfp"
  },
  {
    "name": "Royal Diagnostic Centre",
    "address": "Jehanabad, Bihar 804408, India, Jehanabad, Jehanabad 804408",
    "phone": "Royal Diagnostic Centre",
    "hours": null,
    "image_url": null
  },
  {
    "name": "Dr. Arun Kumar Keshri",
    "address": "Basudeo Homeo Hall, Hospital Road, Jahanabad, Bihar",
    "phone": "Dr. Arun Kumar Keshri",
    "hours": "Open· Closes 19:00",
    "image_url": null
  },
  {
    "name": "Hayat Pathology Centre",
    "address": "Near Gun Factory, Bahadurganj, Bihar, Bihar 275201",
    "phone": "Hayat Pathology Centre",
    "hours": "Open· Closes 17:00",
    "image_url": null
  }
]