[
  {
    "name": "Manjeet Clinic",
    "address": "Rohtak Jhajjar Road, Jhajjar, Haryana 124103",
    "phone": "Manjeet Clinic",
    "hours": null,
    "image_url": "/th?id=OLC.8krGPq08AY335w480x360&w=92&h=112&c=8&rs=1&qlt=80&cdv=1&pid=Local"
  },
  {
    "name": "Dr. Prince Juneja Ayurvedic clinic - Best sex doctor",
    "address": "Opposite Old bus Stand Near PNB Bank, Jhajjhar, Madhya Pradesh 124102",
    "phone": "Dr. Prince Juneja Ayurvedic clinic - Best sex doctor",
    "hours": "Open· Closes 16:00",
    "image_url": "/th?id=OLC.J6zTDnLN5Lyrlw480x360&w=92&h=134&c=8&rs=1&qlt=80&cdv=1&pid=Local"
  },
  {
    "name": "Dr. Sanjay Gupta",
    "address": "Rohtak Road, MIE Part-B, Sector 9, Jhajjar, Haryana",
    "phone": "Dr. Sanjay Gupta",
    "hours": "Open· Closes 13:00",
    "image_url": "/th?id=OLC.gACohJmbMukQZw480x360&w=92&h=112&c=8&rs=1&qlt=80&cdv=1&pid=Local"
  },
  {
    "name": "Sai Clinic",
    "address": "12, Kheri Khummar, Dadri Road, Jhajjar, Haryana 124103",
    "phone": "Sai Clinic",
    "hours": null,
    "image_url": "https://www.bing.com/maps/geoplat/REST/v1/Imagery/Map/RoadVibrant?ms=92,112&key=AnTcaqBi2ypp0xI-OZNi4W_ik2KhjgpqioTAtXLC8GzkMBQRMlyxvxyTnd5b73im&c=en-US&ur=in&da=n&logo=n&fmt=png&od=1&shading=hill&pp=28.618952,76.623047;dfp"
  },
  {
    "name": "Bharat Clinic",
    "address": "Opposite Sector 9 Police Chowki, Najafgarh Road, Bahadurgarh, Jhajjar, Haryana 124507",
    "phone": "Bharat Clinic",
    "hours": null,
    "image_url": "https://www.bing.com/maps/geoplat/REST/v1/Imagery/Map/RoadVibrant?ms=92,112&key=AnTcaqBi2ypp0xI-OZNi4W_ik2KhjgpqioTAtXLC8GzkMBQRMlyxvxyTnd5b73im&c=en-US&ur=in&da=n&logo=n&fmt=png&od=1&shading=hill&pp=28.681927,76.932037;dfp"
  },
  {
    "name": "Chawla Skin Clinic",
    "address": "Old Bus Stand Road, Near Ambedkar Chowk, Jhajjar, Haryana 124103",
    "phone": "Chawla Skin Clinic",
    "hours": null,
    "image_url": "https://www.bing.com/maps/geoplat/REST/v1/Imagery/Map/RoadVibrant?ms=92,112&key=AnTcaqBi2ypp0xI-OZNi4W_ik2KhjgpqioTAtXLC8GzkMBQRMlyxvxyTnd5b73im&c=en-US&ur=in&da=n&logo=n&fmt=png&od=1&shading=hill&pp=28.610237,76.646851;dfp"
  },
  {
    "name": "Diagnostic Center",
    "address": "Baba, Ramparkash, Kahnaur, Kalanaur, Main Bazar Near SBI Bank, Rohtak, Haryana 124412",
    "phone": "Diagnostic Center",
    "hours": null,
    "image_url": "https://www.bing.com/maps/geoplat/REST/v1/Imagery/Map/RoadVibrant?ms=92,112&key=AnTcaqBi2ypp0xI-OZNi4W_ik2KhjgpqioTAtXLC8GzkMBQRMlyxvxyTnd5b73im&c=en-US&ur=in&da=n&logo=n&fmt=png&od=1&shading=hill&pp=28.607685,76.654335;dfp"
  },
  {
    "name": "Monu Clinic",
    "address": "Mal Godam Road 0 Bahadurgarh 8, Jhajjar, Haryana 114507",
    "phone": "Monu Clinic",
    "hours": null,
    "image_url": "https://www.bing.com/maps/geoplat/REST/v1/Imagery/Map/RoadVibrant?ms=92,112&key=AnTcaqBi2ypp0xI-OZNi4W_ik2KhjgpqioTAtXLC8GzkMBQRMlyxvxyTnd5b73im&c=en-US&ur=in&da=n&logo=n&fmt=png&od=1&shading=hill&pp=28.697308,76.952805;dfp"
  },
  {
    "name": "Riya Khushi Clinic",
    "address": "Main Gali, Jhakudha, Jhakudha(41), Bahadurgarh, Jhajjar, Haryana 124505",
    "phone": "Riya Khushi Clinic",
    "hours": null,
    "image_url": "https://www.bing.com/maps/geoplat/REST/v1/Imagery/Map/RoadVibrant?ms=92,112&key=AnTcaqBi2ypp0xI-OZNi4W_ik2KhjgpqioTAtXLC8GzkMBQRMlyxvxyTnd5b73im&c=en-US&ur=in&da=n&logo=n&fmt=png&od=1&shading=hill&pp=28.677944,76.934937;dfp"
  },
  {
    "name": "Pain Clinic",
    "address": "H.No\\9 Sec\\7, Bahadurgarh, Jhajjar, Haryana 124507",
    "phone": "Pain Clinic",
    "hours": null,
    "image_url": "https://www.bing.com/maps/geoplat/REST/v1/Imagery/Map/RoadVibrant?ms=92,112&key=AnTcaqBi2ypp0xI-OZNi4W_ik2KhjgpqioTAtXLC8GzkMBQRMlyxvxyTnd5b73im&c=en-US&ur=in&da=n&logo=n&fmt=png&od=1&shading=hill&pp=28.682285,76.913208;dfp"
  },
  {
    "name": "Dr. Sumit Arora",
    "address": "Rohtak Road, MIE Part-B, Sector 9, Jhajjar, Haryana",
    "phone": "Dr. Sumit Arora",
    "hours": "Open· Closes 13:00",
    "image_url": null
  },
  {
    "name": "Dr. M Bhavani V Rao",
    "address": "Rohtak Road, MIE Part-B, Sector 9, Jhajjar, Haryana",
    "phone": "Dr. M Bhavani V Rao",
    "hours": "Open· Closes 13:00",
    "image_url": null
  },
  {
    "name": "Dr. Karan Singh",
    "address": "Khera Rd, Khera, Ladwa, Haryana 125006, India, Хисар (город) 125006",
    "phone": "Dr. Karan Singh",
    "hours": null,
    "image_url": "https://www.bing.com/maps/geoplat/REST/v1/Imagery/Map/RoadVibrant?ms=92,112&key=AnTcaqBi2ypp0xI-OZNi4W_ik2KhjgpqioTAtXLC8GzkMBQRMlyxvxyTnd5b73im&c=en-US&ur=in&da=n&logo=n&fmt=png&od=1&shading=hill&pp=28.687851,76.741493;dfp"
  },
  {
    "name": "Dr. Kanta Sharma Ayurvedic clinic",
    "address": "Navjyoti Mahila Clinic Najafgarh Road Bahadurgarh Near Baba Motors, Bahadurgarh, Haryana 124507",
    "phone": "Dr. Kanta Sharma Ayurvedic clinic",
    "hours": "Open· Closes 14:00",
    "image_url": "https://www.bing.com/maps/geoplat/REST/v1/Imagery/Map/RoadVibrant?ms=92,134&key=AnTcaqBi2ypp0xI-OZNi4W_ik2KhjgpqioTAtXLC8GzkMBQRMlyxvxyTnd5b73im&c=en-US&ur=in&da=n&logo=n&fmt=png&od=1&shading=hill&pp=28.650656,76.953491;dfp"
  },
  {
    "name": "Dr. Satish",
    "address": "Dayanand Nagar, Jhajjar, Haryana",
    "phone": "Dr. Satish",
    "hours": "Open· Closes 14:00",
    "image_url": null
  },
  {
    "name": "Dr. Amit Singhal",
    "address": "Delhi - Rohtak Road, Ram Nagar, Jhajjar, Haryana",
    "phone": "Dr. Amit Singhal",
    "hours": "Open· Closes 13:00",
    "image_url": "https://www.bing.com/maps/geoplat/REST/v1/Imagery/Map/RoadVibrant?ms=92,112&key=AnTcaqBi2ypp0xI-OZNi4W_ik2KhjgpqioTAtXLC8GzkMBQRMlyxvxyTnd5b73im&c=en-US&ur=in&da=n&logo=n&fmt=png&od=1&shading=hill&pp=28.690599,76.938599;dfp"
  },
  {
    "name": "Dr. Nikhil Gupta",
    "address": "Nahra Nahri Road, Line Paar, Bahadurgarh, Distrct - Jhajjar, Jhajjar, Haryana",
    "phone": "Dr. Nikhil Gupta",
    "hours": "Open· Closes 17:00",
    "image_url": "https://www.bing.com/maps/geoplat/REST/v1/Imagery/Map/RoadVibrant?ms=92,112&key=AnTcaqBi2ypp0xI-OZNi4W_ik2KhjgpqioTAtXLC8GzkMBQRMlyxvxyTnd5b73im&c=en-US&ur=in&da=n&logo=n&fmt=png&od=1&shading=hill&pp=28.704815,76.937813;dfp"
  },
  {
    "name": "Dr. Shilpi Singh",
    "address": "Medstar Hospital Kalawati Complex, Near Power House Delhi Bypass Road, Dev Colony, Rohtak, Haryana 124…",
    "phone": "Dr. Shilpi Singh",
    "hours": "Closed· Opens 17:00",
    "image_url": "https://www.bing.com/maps/geoplat/REST/v1/Imagery/Map/RoadVibrant?ms=92,134&key=AnTcaqBi2ypp0xI-OZNi4W_ik2KhjgpqioTAtXLC8GzkMBQRMlyxvxyTnd5b73im&c=en-US&ur=in&da=n&logo=n&fmt=png&od=1&shading=hill&pp=28.77314,76.708069;dfp"
  }
]