[
  {
    "name": "Dr Sanjay Porwal Clinic",
    "address": "In Shri Shree Ji Farmaa, Kota Road, Jhalawar, Rajasthan 326001",
    "phone": "Dr Sanjay Porwal Clinic",
    "hours": null,
    "image_url": "https://www.bing.com/maps/geoplat/REST/v1/Imagery/Map/RoadVibrant?ms=92,112&key=AnTcaqBi2ypp0xI-OZNi4W_ik2KhjgpqioTAtXLC8GzkMBQRMlyxvxyTnd5b73im&c=en-US&ur=in&da=n&logo=n&fmt=png&od=1&shading=hill&pp=24.589445,76.160889;dfp"
  },
  {
    "name": "Dr Shakil Ansari Clinic",
    "address": "Near Kalyan Madical, Kota Road, Jhalawar, Rajasthan 326001",
    "phone": "Dr Shakil Ansari Clinic",
    "hours": null,
    "image_url": "https://www.bing.com/maps/geoplat/REST/v1/Imagery/Map/RoadVibrant?ms=92,112&key=AnTcaqBi2ypp0xI-OZNi4W_ik2KhjgpqioTAtXLC8GzkMBQRMlyxvxyTnd5b73im&c=en-US&ur=in&da=n&logo=n&fmt=png&od=1&shading=hill&pp=24.588877,76.16127;dfp"
  },
  {
    "name": "Dr.sandeep Nirmal",
    "address": "1-E 54, Housing Board, Indira Nagar, Jhalawar, Rajasthan",
    "phone": "Dr.sandeep Nirmal",
    "hours": "Closed· Opens 15:15",
    "image_url": "https://www.bing.com/maps/geoplat/REST/v1/Imagery/Map/RoadVibrant?ms=92,134&key=AnTcaqBi2ypp0xI-OZNi4W_ik2KhjgpqioTAtXLC8GzkMBQRMlyxvxyTnd5b73im&c=en-US&ur=in&da=n&logo=n&fmt=png&od=1&shading=hill&pp=24.590456,76.151382;dfp"
  },
  {
    "name": "Dr Rameswar Vijay Hospital",
    "address": "Agrasen Vihar, Jhalawar, Rajasthan 326001",
    "phone": "Dr Rameswar Vijay Hospital",
    "hours": null,
    "image_url": "https://www.bing.com/maps/geoplat/REST/v1/Imagery/Map/RoadVibrant?ms=92,112&key=AnTcaqBi2ypp0xI-OZNi4W_ik2KhjgpqioTAtXLC8GzkMBQRMlyxvxyTnd5b73im&c=en-US&ur=in&da=n&logo=n&fmt=png&od=1&shading=hill&pp=24.586025,76.165886;dfp"
  },
  {
    "name": "Malawa Clinic",
    "address": "Near Rajora Classes, Mangalpura Road, Jhalawar, Rajasthan 326001",
    "phone": "Malawa Clinic",
    "hours": null,
    "image_url": "https://www.bing.com/maps/geoplat/REST/v1/Imagery/Map/RoadVibrant?ms=92,112&key=AnTcaqBi2ypp0xI-OZNi4W_ik2KhjgpqioTAtXLC8GzkMBQRMlyxvxyTnd5b73im&c=en-US&ur=in&da=n&logo=n&fmt=png&od=1&shading=hill&pp=24.597729,76.163406;dfp"
  },
  {
    "name": "Dr. Pulkit Kumar Diwakar | General Physician | Diwakar Hospital",
    "address": "Diwakar Hospital, 44 AR Nagar Jhalawar, Jhalawar, Rajasthan, India, 326001, Jhalawar, Madhya Pradesh 3…",
    "phone": "Dr. Pulkit Kumar Diwakar | General Physician | Diwakar Hospital",
    "hours": "Open· Closes 20:00",
    "image_url": "/th?id=OLC.ykKipBCu2%2bGfSw480x360&w=92&h=134&c=8&rs=1&qlt=80&cdv=1&pid=Local"
  },
  {
    "name": "Dr. Hemraj Meena- Pulmonologist",
    "address": "Dr. Hemraj Meena's Clinic, Patidar Sadan, Bharat Medical Street, Jhalawar Collectorate, Near Amibika Medical, J…",
    "phone": "Dr. Hemraj Meena- Pulmonologist",
    "hours": "Open· Closes 20:00",
    "image_url": "https://www.bing.com/maps/geoplat/REST/v1/Imagery/Map/RoadVibrant?ms=92,134&key=AnTcaqBi2ypp0xI-OZNi4W_ik2KhjgpqioTAtXLC8GzkMBQRMlyxvxyTnd5b73im&c=en-US&ur=in&da=n&logo=n&fmt=png&od=1&shading=hill&pp=24.590948,76.149391;dfp"
  },
  {
    "name": "AGRAWAL HOMEO CLINIC (Dr.Arpit Agrawal)",
    "address": "OLD Jail Road, Jhalawar, Rajasthan 326001",
    "phone": "AGRAWAL HOMEO CLINIC (Dr.Arpit Agrawal)",
    "hours": "Open· Closes 13:00",
    "image_url": null
  },
  {
    "name": "Dr. Shail Agrawal - Dermatologist  | Skin Treatment | Hair Loss Treatment",
    "address": "House No. 11, Durga Vihar Colony, Opposite Medical College, Behind Chirayu Hospital, Jhalawar, Rajasthan …",
    "phone": "Dr. Shail Agrawal - Dermatologist  | Skin Treatment | Hair Loss Treatment",
    "hours": "Closed· Opens 14:00",
    "image_url": null
  },
  {
    "name": "Shri Sai Keshav Homoe Clinic",
    "address": "Jain Mandir, Ghur Pura Mohalla, Jhalawar, Rajasthan 326001",
    "phone": "Shri Sai Keshav Homoe Clinic",
    "hours": null,
    "image_url": "https://www.bing.com/maps/geoplat/REST/v1/Imagery/Map/RoadVibrant?ms=92,112&key=AnTcaqBi2ypp0xI-OZNi4W_ik2KhjgpqioTAtXLC8GzkMBQRMlyxvxyTnd5b73im&c=en-US&ur=in&da=n&logo=n&fmt=png&od=1&shading=hill&pp=24.596319,76.170059;dfp"
  },
  {
    "name": "Dr. Arun kumar Patel- ENT Surgeon",
    "address": "Arun Clinic, Medical College Campus, Quarter No- 4, Site No- 3, Jhalawar, Rajasthan 326001",
    "phone": "Dr. Arun kumar Patel- ENT Surgeon",
    "hours": "Closed· Opens 14:00",
    "image_url": "https://www.bing.com/maps/geoplat/REST/v1/Imagery/Map/RoadVibrant?ms=92,112&key=AnTcaqBi2ypp0xI-OZNi4W_ik2KhjgpqioTAtXLC8GzkMBQRMlyxvxyTnd5b73im&c=en-US&ur=in&da=n&logo=n&fmt=png&od=1&shading=hill&pp=24.588579,76.140205;dfp"
  },
  {
    "name": "Dr. Sundeep Goyal - Best Gastroenterologist  | Jaundice Treatment | Endoccopy",
    "address": "SRG हॉस्पिटल के सामने, Indra Colony, Jhalawar, Rajasthan 326001",
    "phone": "Dr. Sundeep Goyal - Best Gastroenterologist  | Jaundice Treatment | Endoccopy",
    "hours": "Open· Closes 20:00",
    "image_url": "https://www.bing.com/maps/geoplat/REST/v1/Imagery/Map/RoadVibrant?ms=92,134&key=AnTcaqBi2ypp0xI-OZNi4W_ik2KhjgpqioTAtXLC8GzkMBQRMlyxvxyTnd5b73im&c=en-US&ur=in&da=n&logo=n&fmt=png&od=1&shading=hill&pp=24.588236,76.164604;dfp"
  },
  {
    "name": "Patanjali Clinic",
    "address": "Moothy Churai Road, Jhalawar, Rajasthan 326001",
    "phone": "Patanjali Clinic",
    "hours": null,
    "image_url": "https://www.bing.com/maps/geoplat/REST/v1/Imagery/Map/RoadVibrant?ms=92,112&key=AnTcaqBi2ypp0xI-OZNi4W_ik2KhjgpqioTAtXLC8GzkMBQRMlyxvxyTnd5b73im&c=en-US&ur=in&da=n&logo=n&fmt=png&od=1&shading=hill&pp=24.592806,76.160706;dfp"
  },
  {
    "name": "Shree Phalodhi Children Clinic",
    "address": "Nh12 Road, Jhalawar, Rajasthan 326001",
    "phone": "Shree Phalodhi Children Clinic",
    "hours": null,
    "image_url": "https://www.bing.com/maps/geoplat/REST/v1/Imagery/Map/RoadVibrant?ms=92,112&key=AnTcaqBi2ypp0xI-OZNi4W_ik2KhjgpqioTAtXLC8GzkMBQRMlyxvxyTnd5b73im&c=en-US&ur=in&da=n&logo=n&fmt=png&od=1&shading=hill&pp=24.585428,76.16703;dfp"
  },
  {
    "name": "Sai Dental Hospital & Orthodontic centre (Dr. Badal Sharma)",
    "address": "Sai Dental Hospital, Near Post Office, Kotputli, Rajasthan",
    "phone": "Sai Dental Hospital & Orthodontic centre (Dr. Badal Sharma)",
    "hours": null,
    "image_url": null
  }
]