[
  {
    "name": "Dr. PRIYANKA SHARMA",
    "address": "No 97 3E, Jhansi, Uttar Pradesh 284001",
    "phone": "Dr. PRIYANKA SHARMA",
    "hours": null,
    "image_url": "https://www.bing.com/maps/geoplat/REST/v1/Imagery/Map/RoadVibrant?ms=92,112&key=AnTcaqBi2ypp0xI-OZNi4W_ik2KhjgpqioTAtXLC8GzkMBQRMlyxvxyTnd5b73im&c=en-US&ur=in&da=n&logo=n&fmt=png&od=1&shading=hill&pp=25.447231,78.56707;dfp"
  },
  {
    "name": "Shuddhi Clinic Jhansi",
    "address": "Shop No. 2 (First Floor), PNB Bank Building, Mission Gate No. 500-B, Opposite Sarwariya Sweet House, BK…",
    "phone": "Shuddhi Clinic Jhansi",
    "hours": "Open· Closes 18:00",
    "image_url": "/th?id=OLC.%2fs5MoxBhk0fB4w480x360&w=92&h=134&c=8&rs=1&qlt=80&cdv=1&pid=Local"
  },
  {
    "name": "Dr. Shashank singhal",
    "address": "Christian Hospital, Jhokan Bagh, Jhansi, Uttar Pradesh",
    "phone": "Dr. Shashank singhal",
    "hours": null,
    "image_url": "https://www.bing.com/maps/geoplat/REST/v1/Imagery/Map/RoadVibrant?ms=92,112&key=AnTcaqBi2ypp0xI-OZNi4W_ik2KhjgpqioTAtXLC8GzkMBQRMlyxvxyTnd5b73im&c=en-US&ur=in&da=n&logo=n&fmt=png&od=1&shading=hill&pp=25.44672,78.574463;dfp"
  },
  {
    "name": "Dr Sanya Agarwal",
    "address": "Savita Traders, Sharda Hills Colony, Sharda Hills, Aantia Talab, Jhansi, Uttar Pradesh",
    "phone": "Dr Sanya Agarwal",
    "hours": null,
    "image_url": "https://www.bing.com/maps/geoplat/REST/v1/Imagery/Map/RoadVibrant?ms=92,112&key=AnTcaqBi2ypp0xI-OZNi4W_ik2KhjgpqioTAtXLC8GzkMBQRMlyxvxyTnd5b73im&c=en-US&ur=in&da=n&logo=n&fmt=png&od=1&shading=hill&pp=25.459221,78.564743;dfp"
  },
  {
    "name": "Anand Clinic",
    "address": "H. No. 173, Talpura, Near New Bus Stand, Abbot Market, Infront of Nehru Park, Jhansi 284001",
    "phone": "Anand Clinic",
    "hours": null,
    "image_url": "/th?id=OLC.DrCczkCc99X8ww480x360&w=92&h=112&c=8&rs=1&qlt=80&cdv=1&pid=Local"
  },
  {
    "name": "Jhansi Orthopedic Hospital & Research Centre",
    "address": "08 Orth Hospital & Reserch Center K P Road, Kamasan Nagar, Jhansi, Uttar Pradesh 284128",
    "phone": "Jhansi Orthopedic Hospital & Research Centre",
    "hours": null,
    "image_url": "/th?id=OLC.RCy9e2CgG7BMXw480x360&w=92&h=112&c=8&rs=1&qlt=80&cdv=1&pid=Local"
  },
  {
    "name": "Dr. Tara Nigam",
    "address": "Gate no. 2, Omkar Bhawan, Karguan Road, in Front of MLB Medical College, Jhansi, Uttar Pradesh",
    "phone": "Dr. Tara Nigam",
    "hours": null,
    "image_url": "https://www.bing.com/maps/geoplat/REST/v1/Imagery/Map/RoadVibrant?ms=92,112&key=AnTcaqBi2ypp0xI-OZNi4W_ik2KhjgpqioTAtXLC8GzkMBQRMlyxvxyTnd5b73im&c=en-US&ur=in&da=n&logo=n&fmt=png&od=1&shading=hill&pp=25.45887,78.572121;dfp"
  },
  {
    "name": "Dr. Abhishek Jain",
    "address": "Kanpur Road, Landmark: Near Sun Internationall School & Near RTO Office, Jhansi, Uttar Pradesh",
    "phone": "Dr. Abhishek Jain",
    "hours": "Open· Closes 17:00",
    "image_url": "https://www.bing.com/maps/geoplat/REST/v1/Imagery/Map/RoadVibrant?ms=92,112&key=AnTcaqBi2ypp0xI-OZNi4W_ik2KhjgpqioTAtXLC8GzkMBQRMlyxvxyTnd5b73im&c=en-US&ur=in&da=n&logo=n&fmt=png&od=1&shading=hill&pp=25.450207,78.589157;dfp"
  },
  {
    "name": "Dr. Arun Gupta : Paediatric Surgeon Jhansi",
    "address": "Chunmun Child Surgery Centre, Veerangana Nagar, Jhansi, Uttar Pradesh, Uttar Pradesh 284001",
    "phone": "Dr. Arun Gupta : Paediatric Surgeon Jhansi",
    "hours": null,
    "image_url": null
  },
  {
    "name": "Dr Sachan's Homoeopathic Clinic",
    "address": "First Floor, Sipri Awas Vikas Road, Mubarak Market, Jhansi, Uttar Pradesh 284003",
    "phone": "Dr Sachan's Homoeopathic Clinic",
    "hours": "Open· Closes 13:30",
    "image_url": null
  },
  {
    "name": "Dr Ravikant's Madhav NICU and children's hospital",
    "address": "Nh39, Bundelkhand University, Jhansi, Uttar Pradesh 284128, India, Jhansi, Uttar Pradesh 284128",
    "phone": "Dr Ravikant's Madhav NICU and children's hospital",
    "hours": "Closed· Opens 11:00",
    "image_url": null
  },
  {
    "name": "Dr Batra’s Homeopathy Clinic, Civil Lines",
    "address": "No 97/3E, Manaswin Towers, Civil Lines, Jhansi, Uttar Pradesh 284001",
    "phone": "Dr Batra’s Homeopathy Clinic, Civil Lines",
    "hours": "Closed· Opens 11:00",
    "image_url": null
  },
  {
    "name": "Dr khare homeopathic clinic",
    "address": "Dr. Surendra Kumar Khare, Outside Unnao Gate, PM-88, Beside Rajendra Agnihotri Park, J.D.A Colony, Pitambr…",
    "phone": "Dr khare homeopathic clinic",
    "hours": null,
    "image_url": "https://www.bing.com/maps/geoplat/REST/v1/Imagery/Map/RoadVibrant?ms=92,112&key=AnTcaqBi2ypp0xI-OZNi4W_ik2KhjgpqioTAtXLC8GzkMBQRMlyxvxyTnd5b73im&c=en-US&ur=in&da=n&logo=n&fmt=png&od=1&shading=hill&pp=25.463329,78.578934;dfp"
  },
  {
    "name": "Akshat fracture, joint replacement and pain clinic",
    "address": "A Life Hospital Opposite M.L.B.Medical College Gate no.3, Jhansi, Madhya Pradesh 284002",
    "phone": "Akshat fracture, joint replacement and pain clinic",
    "hours": null,
    "image_url": "https://www.bing.com/maps/geoplat/REST/v1/Imagery/Map/RoadVibrant?ms=92,112&key=AnTcaqBi2ypp0xI-OZNi4W_ik2KhjgpqioTAtXLC8GzkMBQRMlyxvxyTnd5b73im&c=en-US&ur=in&da=n&logo=n&fmt=png&od=1&shading=hill&pp=25.454901,78.584702;dfp"
  },
  {
    "name": "Vishwas Ayurved Clinic",
    "address": "Narayan Bagh Road, Jhansi, Uttar Pradesh 284003",
    "phone": "Vishwas Ayurved Clinic",
    "hours": "Closed· Opens 17:30",
    "image_url": null
  },
  {
    "name": "Siddharth Medical Care Centre",
    "address": "Barua Sagar, Uttar Pradesh 284201, India, Barua Sagar, Uttar Pradesh 284201",
    "phone": "Siddharth Medical Care Centre",
    "hours": null,
    "image_url": "https://www.bing.com/maps/geoplat/REST/v1/Imagery/Map/RoadVibrant?ms=92,112&key=AnTcaqBi2ypp0xI-OZNi4W_ik2KhjgpqioTAtXLC8GzkMBQRMlyxvxyTnd5b73im&c=en-US&ur=in&da=n&logo=n&fmt=png&od=1&shading=hill&pp=25.370617,78.732544;dfp"
  }
]