[
  {
    "name": "Dr Batra’s Homeopathy, Hair & Skin Clinic",
    "address": "Narayani Kunj, Beside Westside, Sarbahal Road, Jharsuguda 768201",
    "phone": "Dr Batra’s Homeopathy, Hair & Skin Clinic",
    "hours": "Closed· Opens 11:00",
    "image_url": "/th?id=OLC.xceBxdP7xcKDUw480x360&w=92&h=134&c=8&rs=1&qlt=80&cdv=1&pid=Local"
  },
  {
    "name": "Dr G N Patel Clinic",
    "address": "Sh10, Purani Basti, Jharsuguda, Odisha 768201",
    "phone": "Dr G N Patel Clinic",
    "hours": null,
    "image_url": "https://www.bing.com/maps/geoplat/REST/v1/Imagery/Map/RoadVibrant?ms=92,112&key=AnTcaqBi2ypp0xI-OZNi4W_ik2KhjgpqioTAtXLC8GzkMBQRMlyxvxyTnd5b73im&c=en-US&ur=in&da=n&logo=n&fmt=png&od=1&shading=hill&pp=21.862705,84.021004;dfp"
  },
  {
    "name": "Dr P K Jain Clinic",
    "address": "Mangal Bazar Road, Jhasuguda, Jharsuguda, Odisha 768201",
    "phone": "Dr P K Jain Clinic",
    "hours": null,
    "image_url": "https://www.bing.com/maps/geoplat/REST/v1/Imagery/Map/RoadVibrant?ms=92,112&key=AnTcaqBi2ypp0xI-OZNi4W_ik2KhjgpqioTAtXLC8GzkMBQRMlyxvxyTnd5b73im&c=en-US&ur=in&da=n&logo=n&fmt=png&od=1&shading=hill&pp=21.8615,84.017601;dfp"
  },
  {
    "name": "Apollo Clinic",
    "address": "Sarbahal Road, Below Canara Bank ( SME Branch), Marwari Para, Jharsuguda 768201",
    "phone": "Apollo Clinic",
    "hours": "Open· Closes 20:00",
    "image_url": "/th?id=OLC.UjM2uP%2fA2E%2fXOg480x360&w=92&h=134&c=8&rs=1&qlt=80&cdv=1&pid=Local"
  },
  {
    "name": "Dr.Jitesh Sharma M.D.(Homoeopath)",
    "address": "Power House Road, Sarbahal, Jharsuguda, Odisha",
    "phone": "Dr.Jitesh Sharma M.D.(Homoeopath)",
    "hours": "Open· Closes 13:00",
    "image_url": "/th?id=OLC.C4NTteM%2f2pSiGQ480x360&w=92&h=134&c=8&rs=1&qlt=80&cdv=1&pid=Local"
  },
  {
    "name": "Dr. Deepak Kumar Pradhan",
    "address": "Besides Shiva Multiplex, Orissa",
    "phone": "Dr. Deepak Kumar Pradhan",
    "hours": "Closed· Opens Sep 29 at 10:00",
    "image_url": "https://www.bing.com/maps/geoplat/REST/v1/Imagery/Map/RoadVibrant?ms=92,112&key=AnTcaqBi2ypp0xI-OZNi4W_ik2KhjgpqioTAtXLC8GzkMBQRMlyxvxyTnd5b73im&c=en-US&ur=in&da=n&logo=n&fmt=png&od=1&shading=hill&pp=21.870399,84.025299;dfp"
  },
  {
    "name": "Pandit Medical Hall",
    "address": "Ward NO-18, Puranabasti Chowk, Main Road, Jharsuguda, Odisha 768201",
    "phone": "Pandit Medical Hall",
    "hours": null,
    "image_url": null
  },
  {
    "name": "Dr. Shankar Jaykisan Patel- Obstetrician & Gynecologist",
    "address": "Jagyaseni Hospital, Collectrate Road, O M P Line, Opposite New Lic Building, Jharsuguda 768204",
    "phone": "Dr. Shankar Jaykisan Patel- Obstetrician & Gynecologist",
    "hours": "Open· Closes 18:00",
    "image_url": "https://www.bing.com/maps/geoplat/REST/v1/Imagery/Map/RoadVibrant?ms=92,134&key=AnTcaqBi2ypp0xI-OZNi4W_ik2KhjgpqioTAtXLC8GzkMBQRMlyxvxyTnd5b73im&c=en-US&ur=in&da=n&logo=n&fmt=png&od=1&shading=hill&pp=21.884905,84.024597;dfp"
  },
  {
    "name": "Community Clinic",
    "address": "Kh No 497\\974, Plot No 2465\\6519, Rengali, Railway Station Road, Sambalpur, Odisha 768212",
    "phone": "Community Clinic",
    "hours": null,
    "image_url": "https://www.bing.com/maps/geoplat/REST/v1/Imagery/Map/RoadVibrant?ms=92,112&key=AnTcaqBi2ypp0xI-OZNi4W_ik2KhjgpqioTAtXLC8GzkMBQRMlyxvxyTnd5b73im&c=en-US&ur=in&da=n&logo=n&fmt=png&od=1&shading=hill&pp=21.866711,84.03199;dfp"
  },
  {
    "name": "Shukla Clinic & Diagnostic Centre",
    "address": "V227+v75, Sarbahal Rd, Jharsuguda, Odisha 768201",
    "phone": "Shukla Clinic & Diagnostic Centre",
    "hours": null,
    "image_url": "https://www.bing.com/maps/geoplat/REST/v1/Imagery/Map/RoadVibrant?ms=92,112&key=AnTcaqBi2ypp0xI-OZNi4W_ik2KhjgpqioTAtXLC8GzkMBQRMlyxvxyTnd5b73im&c=en-US&ur=in&da=n&logo=n&fmt=png&od=1&shading=hill&pp=21.835472,84.004967;dfp"
  },
  {
    "name": "Homoeopathic Clinic",
    "address": "Pahadimandir, Jharsuguda, Odisha 768201",
    "phone": "Homoeopathic Clinic",
    "hours": null,
    "image_url": "https://www.bing.com/maps/geoplat/REST/v1/Imagery/Map/RoadVibrant?ms=92,112&key=AnTcaqBi2ypp0xI-OZNi4W_ik2KhjgpqioTAtXLC8GzkMBQRMlyxvxyTnd5b73im&c=en-US&ur=in&da=n&logo=n&fmt=png&od=1&shading=hill&pp=21.840845,84.004265;dfp"
  },
  {
    "name": "Dr Lal PathLabs - Patient Service Centre",
    "address": "Dr GN Patel Building, Purani Basti Chowk, Purani Basti, Jharsuguda 768201",
    "phone": "Dr Lal PathLabs - Patient Service Centre",
    "hours": "Open· Closes 19:30",
    "image_url": null
  },
  {
    "name": "Om Sai Medicines",
    "address": "Boxi Chowk, Nh 49, Jharsuguda, Odisha 768202",
    "phone": "Om Sai Medicines",
    "hours": null,
    "image_url": "https://www.bing.com/maps/geoplat/REST/v1/Imagery/Map/RoadVibrant?ms=92,112&key=AnTcaqBi2ypp0xI-OZNi4W_ik2KhjgpqioTAtXLC8GzkMBQRMlyxvxyTnd5b73im&c=en-US&ur=in&da=n&logo=n&fmt=png&od=1&shading=hill&pp=21.872751,83.995964;dfp"
  },
  {
    "name": "Pradhan Clinic",
    "address": "Belpahar Road, Jharsuguda 768217",
    "phone": "Pradhan Clinic",
    "hours": null,
    "image_url": "https://www.bing.com/maps/geoplat/REST/v1/Imagery/Map/RoadVibrant?ms=92,112&key=AnTcaqBi2ypp0xI-OZNi4W_ik2KhjgpqioTAtXLC8GzkMBQRMlyxvxyTnd5b73im&c=en-US&ur=in&da=n&logo=n&fmt=png&od=1&shading=hill&pp=21.803772,83.829803;dfp"
  },
  {
    "name": "Sai Krishna Ultra Sound Clinic",
    "address": "At Nuapada, Nuapada, Beheramal, Jharsuguda, Odisha 768203",
    "phone": "Sai Krishna Ultra Sound Clinic",
    "hours": null,
    "image_url": "https://www.bing.com/maps/geoplat/REST/v1/Imagery/Map/RoadVibrant?ms=92,112&key=AnTcaqBi2ypp0xI-OZNi4W_ik2KhjgpqioTAtXLC8GzkMBQRMlyxvxyTnd5b73im&c=en-US&ur=in&da=n&logo=n&fmt=png&od=1&shading=hill&pp=21.87472,84.024193;dfp"
  },
  {
    "name": "Dr. Deoshlok Sharma, Town Clinic",
    "address": "Jds Homeopathic Hospital, Jharsuguda, Odisha, Odisha 768201",
    "phone": "Dr. Deoshlok Sharma, Town Clinic",
    "hours": "Open· Closes 17:00",
    "image_url": null
  }
]