[
  {
    "name": "Dr Ramesh Jakhar Physician",
    "address": "House No- 96Sector - C Near Pnt CircleShastri NagerJodhpur Rajasthan, Jodhpur City, Rajasthan, Raj…",
    "phone": "Dr Ramesh Jakhar Physician",
    "hours": "Open· Closes 20:00",
    "image_url": "/th?id=OLC.lX3w8NenrvltiQ480x360&w=92&h=134&c=8&rs=1&qlt=80&cdv=1&pid=Local"
  },
  {
    "name": "Shuddhi Clinic",
    "address": "Plot No-1 & 2, Ridmal Nagar, Aiims Road, Samrat Ashok Udhyan (Park), Jodhpur, Rajasthan, 342008, Jodhpur, …",
    "phone": "Shuddhi Clinic",
    "hours": null,
    "image_url": "/th?id=OLC.sid%2bVpwxZJ1CAw480x360&w=92&h=112&c=8&rs=1&qlt=80&cdv=1&pid=Local"
  },
  {
    "name": "Dr. Pawan Sarada",
    "address": "3/3, MDM Quarters, Gate No. 3, Shastri Nagar, Jodhpur, Rajasthan",
    "phone": "Dr. Pawan Sarada",
    "hours": "Closed· Opens 16:00",
    "image_url": "https://www.bing.com/maps/geoplat/REST/v1/Imagery/Map/RoadVibrant?ms=92,112&key=AnTcaqBi2ypp0xI-OZNi4W_ik2KhjgpqioTAtXLC8GzkMBQRMlyxvxyTnd5b73im&c=en-US&ur=in&da=n&logo=n&fmt=png&od=1&shading=hill&pp=26.261995,73.007423;dfp"
  },
  {
    "name": "Dr. Jagdish Singh Shekhawat",
    "address": "High Court Colony, Ratanada, Jodhpur, Rajasthan",
    "phone": "Dr. Jagdish Singh Shekhawat",
    "hours": "Open· Closes 14:00",
    "image_url": "/th?id=OLC.D9V7YOoeXC0vaQ480x360&w=92&h=112&c=8&rs=1&qlt=80&cdv=1&pid=Local"
  },
  {
    "name": "Dr Rajat Arora",
    "address": "House No 9, Shikargarh Rd, Near Janta Sweet, Tirupati Vihar, Shikargarh Enclave, Cantt Area, Jodhpur, Rajast…",
    "phone": "Dr Rajat Arora",
    "hours": null,
    "image_url": "https://www.bing.com/maps/geoplat/REST/v1/Imagery/Map/RoadVibrant?ms=92,112&key=AnTcaqBi2ypp0xI-OZNi4W_ik2KhjgpqioTAtXLC8GzkMBQRMlyxvxyTnd5b73im&c=en-US&ur=in&da=n&logo=n&fmt=png&od=1&shading=hill&pp=26.278788,73.037666;dfp"
  },
  {
    "name": "Dr. Rajesh Soni",
    "address": "Police Line, 2nd Gate, Ratanada, Landmark: Near Tarang Electronics, Jodhpur, Rajasthan 342001",
    "phone": "Dr. Rajesh Soni",
    "hours": "Closed· Opens 15:00",
    "image_url": "/th?id=OLC.CYYw14Rxnp4a0A480x360&w=92&h=134&c=8&rs=1&qlt=80&cdv=1&pid=Local"
  },
  {
    "name": "Dr. Pt. Jitendra Vyas",
    "address": "Matra Aashirwad Jyotish Sansthan' Jai Narayan Vyas Colony, Jodhpur, Rajasthan 342001",
    "phone": "Dr. Pt. Jitendra Vyas",
    "hours": null,
    "image_url": null
  },
  {
    "name": "Dr Amit Bhandari Clinic",
    "address": "Bhandari Bhawan, Umaid Hospital Road, Jodhpur, Rajasthan 342001",
    "phone": "Dr Amit Bhandari Clinic",
    "hours": "Open· Closes 12:00",
    "image_url": null
  },
  {
    "name": "Dr. Ramesh Sethia",
    "address": "9, Amrit Nagar, Pal Road, Landmark: Opp Preksha Hospital, Jodhpur, Jodhpur 342008",
    "phone": "Dr. Ramesh Sethia",
    "hours": "Closed· Opens 18:00",
    "image_url": null
  },
  {
    "name": "Dr Arvind Mathur",
    "address": "462 B Road, Jodhpur, Rajasthan 342003",
    "phone": "Dr Arvind Mathur",
    "hours": "Open· Closes 13:00",
    "image_url": "https://www.bing.com/maps/geoplat/REST/v1/Imagery/Map/RoadVibrant?ms=92,134&key=AnTcaqBi2ypp0xI-OZNi4W_ik2KhjgpqioTAtXLC8GzkMBQRMlyxvxyTnd5b73im&c=en-US&ur=in&da=n&logo=n&fmt=png&od=1&shading=hill&pp=26.279554,73.005173;dfp"
  },
  {
    "name": "Dr. Ashok Rathi Best Physician Jodhpur",
    "address": "109, Sector E, Shastri Nagar, Jodhpur, Jodhpur 342003",
    "phone": "Dr. Ashok Rathi Best Physician Jodhpur",
    "hours": null,
    "image_url": "https://www.bing.com/maps/geoplat/REST/v1/Imagery/Map/RoadVibrant?ms=92,112&key=AnTcaqBi2ypp0xI-OZNi4W_ik2KhjgpqioTAtXLC8GzkMBQRMlyxvxyTnd5b73im&c=en-US&ur=in&da=n&logo=n&fmt=png&od=1&shading=hill&pp=26.266581,73.015427;dfp"
  },
  {
    "name": "Dr. Manju Lohiya",
    "address": "B-103, Shastri Nagar, Landmark, Jodhpur, Rajasthan 342001",
    "phone": "Dr. Manju Lohiya",
    "hours": "Closed· Opens 17:00",
    "image_url": "https://www.bing.com/maps/geoplat/REST/v1/Imagery/Map/RoadVibrant?ms=92,134&key=AnTcaqBi2ypp0xI-OZNi4W_ik2KhjgpqioTAtXLC8GzkMBQRMlyxvxyTnd5b73im&c=en-US&ur=in&da=n&logo=n&fmt=png&od=1&shading=hill&pp=26.26708,73.012466;dfp"
  },
  {
    "name": "Dr Dinesh Jangeed (durga's Homoeopathic Care Centre) - Homeopathic Clinic",
    "address": "60 A, Laddha Colony, Ratanada, Rajasthan 342011",
    "phone": "Dr Dinesh Jangeed (durga's Homoeopathic Care Centre) - Homeopathic Clinic",
    "hours": "Closed· Opens 18:00",
    "image_url": null
  },
  {
    "name": "Dr Bhupendra Vaishnav, Rheumatologist in Jodhpur: Arthritis| Rheumatoid | Gout | specialist doctor",
    "address": "Asha Medical Store, C-6, Shastri Nagar, Jodhpur, Rajasthan",
    "phone": "Dr Bhupendra Vaishnav, Rheumatologist in Jodhpur: Arthritis| Rheumatoid | Gout | specialist doctor",
    "hours": null,
    "image_url": "https://www.bing.com/maps/geoplat/REST/v1/Imagery/Map/RoadVibrant?ms=92,112&key=AnTcaqBi2ypp0xI-OZNi4W_ik2KhjgpqioTAtXLC8GzkMBQRMlyxvxyTnd5b73im&c=en-US&ur=in&da=n&logo=n&fmt=png&od=1&shading=hill&pp=26.265762,73.012077;dfp"
  },
  {
    "name": "Dr.Abhay Singh Rajpurohit",
    "address": "Bhagat ki Kothi, Jodhpur, Rajasthan 342001",
    "phone": "Dr.Abhay Singh Rajpurohit",
    "hours": null,
    "image_url": null
  },
  {
    "name": "Dr. Pradeep Jain",
    "address": "A-5, Raj Pushp, Landmark: Near Hanwant School., Landmark, Jodhpur, Jodhpur 342003",
    "phone": "Dr. Pradeep Jain",
    "hours": "Closed· Opens 16:00",
    "image_url": null
  },
  {
    "name": "Dr Nitesh Jangid Md Homoeopathy",
    "address": "629, 12th B Road Sardarpura Jodhpur, Jodhpur, Rajasthan, Rajasthan 342001",
    "phone": "Dr Nitesh Jangid Md Homoeopathy",
    "hours": null,
    "image_url": null
  },
  {
    "name": "Dr. Naveen Seervi (Neurologist)",
    "address": "7 New Power House Road, Jodhpur, Rajasthan 342003",
    "phone": "Dr. Naveen Seervi (Neurologist)",
    "hours": "Closed· Opens 15:00",
    "image_url": null
  }
]