[
  {
    "name": "Apollo Clinic",
    "address": "J.R. Complex, A.T Road, Near SBI Moran Branch, Peoli Nagar, Moranhat, Assam 785670",
    "phone": "Apollo Clinic",
    "hours": "Open· Closes 20:00",
    "image_url": "https://www.bing.com/maps/geoplat/REST/v1/Imagery/Map/RoadVibrant?ms=92,134&key=AnTcaqBi2ypp0xI-OZNi4W_ik2KhjgpqioTAtXLC8GzkMBQRMlyxvxyTnd5b73im&c=en-US&ur=in&da=n&logo=n&fmt=png&od=1&shading=hill&pp=26.759817,94.209778;dfp"
  },
  {
    "name": "Dr. Bishal Agarwalla- Nephrologist",
    "address": "Sanjivani Hospital, Q53V+P3R, Assam Trunk Rd, Sonali Jayanti Nagar, Bapuji Nagar, Jorhat, Assam 785001",
    "phone": "Dr. Bishal Agarwalla- Nephrologist",
    "hours": "Closed· Opens Wed 09:00",
    "image_url": "https://www.bing.com/maps/geoplat/REST/v1/Imagery/Map/RoadVibrant?ms=92,134&key=AnTcaqBi2ypp0xI-OZNi4W_ik2KhjgpqioTAtXLC8GzkMBQRMlyxvxyTnd5b73im&c=en-US&ur=in&da=n&logo=n&fmt=png&od=1&shading=hill&pp=26.754335,94.192619;dfp"
  },
  {
    "name": "Dr. Bhaskar Bhagawati Chamber",
    "address": "Malow Ali, Jorhat, Assam 785001, Jorhat, Assam 785001",
    "phone": "Dr. Bhaskar Bhagawati Chamber",
    "hours": null,
    "image_url": "https://www.bing.com/maps/geoplat/REST/v1/Imagery/Map/RoadVibrant?ms=92,112&key=AnTcaqBi2ypp0xI-OZNi4W_ik2KhjgpqioTAtXLC8GzkMBQRMlyxvxyTnd5b73im&c=en-US&ur=in&da=n&logo=n&fmt=png&od=1&shading=hill&pp=26.765652,94.199539;dfp"
  },
  {
    "name": "CNS Clinic",
    "address": "Choladhara, Jorhat, Assam",
    "phone": "CNS Clinic",
    "hours": null,
    "image_url": "https://www.bing.com/maps/geoplat/REST/v1/Imagery/Map/RoadVibrant?ms=92,112&key=AnTcaqBi2ypp0xI-OZNi4W_ik2KhjgpqioTAtXLC8GzkMBQRMlyxvxyTnd5b73im&c=en-US&ur=in&da=n&logo=n&fmt=png&od=1&shading=hill&pp=26.763582,94.195747;dfp"
  },
  {
    "name": "Dr. Pragya Bora | Obstetrician And Gynaecologist",
    "address": "Near old Public bus Stop, Jorhat, Assam, India, 785001, Jorhat, Madhya Pradesh 785001",
    "phone": "Dr. Pragya Bora | Obstetrician And Gynaecologist",
    "hours": "Open· Closes 18:00",
    "image_url": "/th?id=OLC.btXNr5gkwkUvlg480x360&w=92&h=134&c=8&rs=1&qlt=80&cdv=1&pid=Local"
  },
  {
    "name": "Dr Devojit Sharma (medical Specialist)",
    "address": "New Balibat Bg Rd, Babupatty, Jorhat, Assam 785001, India, Jorhat, Assam 785001",
    "phone": "Dr Devojit Sharma (medical Specialist)",
    "hours": null,
    "image_url": "https://www.bing.com/maps/geoplat/REST/v1/Imagery/Map/RoadVibrant?ms=92,112&key=AnTcaqBi2ypp0xI-OZNi4W_ik2KhjgpqioTAtXLC8GzkMBQRMlyxvxyTnd5b73im&c=en-US&ur=in&da=n&logo=n&fmt=png&od=1&shading=hill&pp=26.759409,94.212311;dfp"
  },
  {
    "name": "DR.Abdul Hye Clinic",
    "address": "Thana Road, OPP. Rupahi Jame Majid, Rupahi, Assam",
    "phone": "DR.Abdul Hye Clinic",
    "hours": null,
    "image_url": "https://www.bing.com/maps/geoplat/REST/v1/Imagery/Map/RoadVibrant?ms=92,112&key=AnTcaqBi2ypp0xI-OZNi4W_ik2KhjgpqioTAtXLC8GzkMBQRMlyxvxyTnd5b73im&c=en-US&ur=in&da=n&logo=n&fmt=png&od=1&shading=hill&pp=26.754549,94.211678;dfp"
  },
  {
    "name": "Drug House(Poddar's Doctors' Clinic & Pharmacy)",
    "address": "A.T. Road, Morigaon Syndicate, Khutikatia, Haibargaon, Nagaon, Assam",
    "phone": "Drug House(Poddar's Doctors' Clinic & Pharmacy)",
    "hours": null,
    "image_url": null
  },
  {
    "name": "City Orthopaedic Hospital & Research Centre",
    "address": "J B Road, Jorhat, Assam 785001",
    "phone": "City Orthopaedic Hospital & Research Centre",
    "hours": null,
    "image_url": null
  },
  {
    "name": "Dr Murchana Khound Sharma, Pediatrician and Lactation Consultant",
    "address": "Sanjivani Hospital, Tarajan, Jorhat, Assam",
    "phone": "Dr Murchana Khound Sharma, Pediatrician and Lactation Consultant",
    "hours": null,
    "image_url": "https://www.bing.com/maps/geoplat/REST/v1/Imagery/Map/RoadVibrant?ms=92,112&key=AnTcaqBi2ypp0xI-OZNi4W_ik2KhjgpqioTAtXLC8GzkMBQRMlyxvxyTnd5b73im&c=en-US&ur=in&da=n&logo=n&fmt=png&od=1&shading=hill&pp=26.758238,94.19268;dfp"
  },
  {
    "name": "Dr Ankit Sharma - Diabetologist & Best Diabetes Specialist",
    "address": "Baruah Chariali A.T Road, Tarajan, Jorhat, Assam",
    "phone": "Dr Ankit Sharma - Diabetologist & Best Diabetes Specialist",
    "hours": null,
    "image_url": "https://www.bing.com/maps/geoplat/REST/v1/Imagery/Map/RoadVibrant?ms=92,112&key=AnTcaqBi2ypp0xI-OZNi4W_ik2KhjgpqioTAtXLC8GzkMBQRMlyxvxyTnd5b73im&c=en-US&ur=in&da=n&logo=n&fmt=png&od=1&shading=hill&pp=26.751007,94.182304;dfp"
  },
  {
    "name": "North East Medical",
    "address": "NE Medical AT, Jorhat, Assam 785001",
    "phone": "North East Medical",
    "hours": null,
    "image_url": "https://www.bing.com/maps/geoplat/REST/v1/Imagery/Map/RoadVibrant?ms=92,112&key=AnTcaqBi2ypp0xI-OZNi4W_ik2KhjgpqioTAtXLC8GzkMBQRMlyxvxyTnd5b73im&c=en-US&ur=in&da=n&logo=n&fmt=png&od=1&shading=hill&pp=26.75721,94.215179;dfp"
  },
  {
    "name": "Orthocare & Rehab clinic - A Dr. Swapna Pran Saikia's Orthopedic and joint replacement clinic",
    "address": "Zenith Drugs, New Balibat BG Rd, Babupatty, Jorhat, Assam",
    "phone": "Orthocare & Rehab clinic - A Dr. Swapna Pran Saikia's Orthopedic and joint replacement clinic",
    "hours": null,
    "image_url": "https://www.bing.com/maps/geoplat/REST/v1/Imagery/Map/RoadVibrant?ms=92,112&key=AnTcaqBi2ypp0xI-OZNi4W_ik2KhjgpqioTAtXLC8GzkMBQRMlyxvxyTnd5b73im&c=en-US&ur=in&da=n&logo=n&fmt=png&od=1&shading=hill&pp=26.759409,94.212311;dfp"
  },
  {
    "name": "Dr A.P.J Abdul Kalam Vidyapith, Dighaljhar",
    "address": "19 State Highway Nilbagan Rd. Near Akchek Gaon, Nagaon, Assam 782439",
    "phone": "Dr A.P.J Abdul Kalam Vidyapith, Dighaljhar",
    "hours": null,
    "image_url": null
  },
  {
    "name": "AG Hospital and City Orthopaedic Hospital",
    "address": "Chamber 1, JB Rd, Macharhaat, Jorhat, Assam, India, 785001, Jorhat, Madhya Pradesh 785001",
    "phone": "AG Hospital and City Orthopaedic Hospital",
    "hours": "Open· Closes 18:00",
    "image_url": null
  },
  {
    "name": "JORHAT HOMOEO SBL sponsored homoeo clinic",
    "address": "New B, Jorhat, Assam",
    "phone": "JORHAT HOMOEO SBL sponsored homoeo clinic",
    "hours": null,
    "image_url": "https://www.bing.com/maps/geoplat/REST/v1/Imagery/Map/RoadVibrant?ms=92,112&key=AnTcaqBi2ypp0xI-OZNi4W_ik2KhjgpqioTAtXLC8GzkMBQRMlyxvxyTnd5b73im&c=en-US&ur=in&da=n&logo=n&fmt=png&od=1&shading=hill&pp=26.767492,94.206711;dfp"
  },
  {
    "name": "Dr.sarma's X-ray Clinic & Lab",
    "address": "A.t.Road; Marwaripatty, Nagaon, Assam, Assam 782001",
    "phone": "Dr.sarma's X-ray Clinic & Lab",
    "hours": "Open· Closes 19:30",
    "image_url": null
  },
  {
    "name": "Apollo Dialysis Clinics",
    "address": "Jorhat Medical College & Hospital, Jorhat, Borbheta, Jail Road, Jorhat, Assam 785001",
    "phone": "Apollo Dialysis Clinics",
    "hours": "Open· Closes 21:00",
    "image_url": "https://www.bing.com/maps/geoplat/REST/v1/Imagery/Map/RoadVibrant?ms=92,134&key=AnTcaqBi2ypp0xI-OZNi4W_ik2KhjgpqioTAtXLC8GzkMBQRMlyxvxyTnd5b73im&c=en-US&ur=in&da=n&logo=n&fmt=png&od=1&shading=hill&pp=26.741776,94.197235;dfp"
  }
]