[
  {
    "name": "Dr. Sanjay Kubavat Hospital",
    "address": "Lal Bahadur Shashtri Society, Near s t Stand, Junagadh, Gujarat, India, 362001, Junagadh, Madhya Pradesh 36…",
    "phone": "Dr. Sanjay Kubavat Hospital",
    "hours": "Open· Closes 18:00",
    "image_url": "https://www.bing.com/maps/geoplat/REST/v1/Imagery/Map/RoadVibrant?ms=92,134&key=AnTcaqBi2ypp0xI-OZNi4W_ik2KhjgpqioTAtXLC8GzkMBQRMlyxvxyTnd5b73im&c=en-US&ur=in&da=n&logo=n&fmt=png&od=1&shading=hill&pp=21.512819,70.461044;dfp"
  },
  {
    "name": "Dr Nirav Satasia",
    "address": "Satasia Surgical Hospital, Junagadh, Gujarat 362001",
    "phone": "Dr Nirav Satasia",
    "hours": null,
    "image_url": "/th?id=OLC.JdVnLBrYXWsz2Q480x360&w=92&h=112&c=8&rs=1&qlt=80&cdv=1&pid=Local"
  },
  {
    "name": "Dr JAGDISH SUREJA",
    "address": "Shivam X-RAY & Sono. Clinic, Star Comp Near Vanthali Gate Railway Crossing, S. T. Road, opp. Amar Medical …",
    "phone": "Dr JAGDISH SUREJA",
    "hours": null,
    "image_url": "https://www.bing.com/maps/geoplat/REST/v1/Imagery/Map/RoadVibrant?ms=92,112&key=AnTcaqBi2ypp0xI-OZNi4W_ik2KhjgpqioTAtXLC8GzkMBQRMlyxvxyTnd5b73im&c=en-US&ur=in&da=n&logo=n&fmt=png&od=1&shading=hill&pp=21.522045,70.45668;dfp"
  },
  {
    "name": "Dr. Bhartiben's Clinic",
    "address": "Jagmal Chowk Rd, Mullawada, Junagadh, Gujarat",
    "phone": "Dr. Bhartiben's Clinic",
    "hours": null,
    "image_url": "https://www.bing.com/maps/geoplat/REST/v1/Imagery/Map/RoadVibrant?ms=92,112&key=AnTcaqBi2ypp0xI-OZNi4W_ik2KhjgpqioTAtXLC8GzkMBQRMlyxvxyTnd5b73im&c=en-US&ur=in&da=n&logo=n&fmt=png&od=1&shading=hill&pp=21.518799,70.464676;dfp"
  },
  {
    "name": "Dr A S KHAN",
    "address": "Shriji Complex, Opposite Old Bus Stand, Junagadh, Gujarat 362001",
    "phone": "Dr A S KHAN",
    "hours": "Open· Closes 22:00",
    "image_url": "https://www.bing.com/maps/geoplat/REST/v1/Imagery/Map/RoadVibrant?ms=92,134&key=AnTcaqBi2ypp0xI-OZNi4W_ik2KhjgpqioTAtXLC8GzkMBQRMlyxvxyTnd5b73im&c=en-US&ur=in&da=n&logo=n&fmt=png&od=1&shading=hill&pp=21.517326,70.460922;dfp"
  },
  {
    "name": "Dr. Girish Lalwani",
    "address": "2, Vasundhara Apartment, Sindhi Society Road, Junagadh, Gujarat",
    "phone": "Dr. Girish Lalwani",
    "hours": "Closed· Opens 19:00",
    "image_url": "/th?id=OLC.FyyCLLMtRJ8aVQ480x360&w=92&h=112&c=8&rs=1&qlt=80&cdv=1&pid=Local"
  },
  {
    "name": "Savaliya Clinic",
    "address": "2Nd Floor, Prizam Complex, 2, Bus Station Road, Junagadh, Gujarat 362001",
    "phone": "Savaliya Clinic",
    "hours": null,
    "image_url": null
  },
  {
    "name": "Dr. Shreyas Gopalbhai Bhalodia",
    "address": "304, Platinum 2, Girnara Co-Operative Housing Society College Road, Motibag, Junagadh, Gujarat",
    "phone": "Dr. Shreyas Gopalbhai Bhalodia",
    "hours": "Open· Closes 13:30",
    "image_url": null
  },
  {
    "name": "Dr.kalpesh Bakhalakiya - Pediatrician",
    "address": "Shubham Hospital, Zanzarda Chowkdi, Opp Reliance Trends, Bypass Road, Junagadh, Gujarat 362001",
    "phone": "Dr.kalpesh Bakhalakiya - Pediatrician",
    "hours": null,
    "image_url": null
  },
  {
    "name": "Dr.s.a.agravat Clinic (vanthali Vala)",
    "address": "Jawahar Road, Junagadh, Gujarat 362001",
    "phone": "Dr.s.a.agravat Clinic (vanthali Vala)",
    "hours": null,
    "image_url": "https://www.bing.com/maps/geoplat/REST/v1/Imagery/Map/RoadVibrant?ms=92,112&key=AnTcaqBi2ypp0xI-OZNi4W_ik2KhjgpqioTAtXLC8GzkMBQRMlyxvxyTnd5b73im&c=en-US&ur=in&da=n&logo=n&fmt=png&od=1&shading=hill&pp=21.519257,70.46611;dfp"
  },
  {
    "name": "Dr. Piyush Borkhatariya",
    "address": "Balaji Complex, 1st Floor, Junagadh, Gujarat",
    "phone": "Dr. Piyush Borkhatariya",
    "hours": "Open· Closes 13:30",
    "image_url": null
  },
  {
    "name": "DR. Kharod Superspeciality Dental & Skin Hospital",
    "address": "First Floor Balaji Complex, 1 Bhavnaben Chikhaliya Marg, Junagadh, Gujarat 362001",
    "phone": "DR. Kharod Superspeciality Dental & Skin Hospital",
    "hours": null,
    "image_url": null
  },
  {
    "name": "Ayush ayurved and panchkarma clinic",
    "address": "Near Pavan Hospital, Junagadh, Gujarat, India, 362560, Junagadh, Madhya Pradesh 362560",
    "phone": "Ayush ayurved and panchkarma clinic",
    "hours": "Open· Closes 18:00",
    "image_url": null
  },
  {
    "name": "Dr. Vachhani's Homeopathy Clinic",
    "address": "164, 1st Floor, Prism Complex, Junagadh, Junagadh 362001",
    "phone": "Dr. Vachhani's Homeopathy Clinic",
    "hours": "Open· Closes 13:00",
    "image_url": null
  },
  {
    "name": "Doshi Ent Hospital",
    "address": "Astha Plus Complex, Sardar Baug, Gujarat 362001, India, Junagadh, Gujarat 362001",
    "phone": "Doshi Ent Hospital",
    "hours": null,
    "image_url": null
  },
  {
    "name": "Shreeji Orthopaedic Hospital",
    "address": "27, Lal Bahadur Shastri Society, Near Bus Stand, Junagadh, Gujarat, Gujarat 362001",
    "phone": "Shreeji Orthopaedic Hospital",
    "hours": null,
    "image_url": null
  },
  {
    "name": "Government Ayurveda Hospital Junagadh",
    "address": "Pancheswar Road, Near Kadiyavad, Kadiyavad, Junagadh, Gujarat",
    "phone": "Government Ayurveda Hospital Junagadh",
    "hours": null,
    "image_url": "https://www.bing.com/maps/geoplat/REST/v1/Imagery/Map/RoadVibrant?ms=92,112&key=AnTcaqBi2ypp0xI-OZNi4W_ik2KhjgpqioTAtXLC8GzkMBQRMlyxvxyTnd5b73im&c=en-US&ur=in&da=n&logo=n&fmt=png&od=1&shading=hill&pp=21.505333,70.464279;dfp"
  },
  {
    "name": "Kayakalp Skin Clinic Junagadh",
    "address": "Kayakalp Skin Laser Cosmetic Clinic, 1st Floor, Balaji Complex Near Trimurti Hospital, Junagadh, Gujarat 362…",
    "phone": "Kayakalp Skin Clinic Junagadh",
    "hours": "Open· Closes 19:00",
    "image_url": null
  }
]