[
  {
    "name": "Best General Physician - Dr Maveen Mujaddady, Treated 15K+ Patients | Fever & Diabetes Doctor | K.V.Rangare…",
    "address": "AIG Hospitals, NO 136, Plot NO 2/3/4/5 Survey, 1, Mindspace Road, K.V.Rangareddy, Telangana 500032",
    "phone": "Best General Physician - Dr Maveen Mujaddady, Treated 15K+ Patients | Fever & Diabetes Doctor | K.V.Rangare…",
    "hours": "Open· Closes 19:30",
    "image_url": "/th?id=OLC.Vzeq7%2ft52Q97%2fw480x360&w=92&h=134&c=8&rs=1&qlt=80&cdv=1&pid=Local"
  },
  {
    "name": "Dr. Sandeep Khambhampati, Treated 13K+ Patients | Best Cardiologist | Heart Specialist | Cardiac Dr | Healt…",
    "address": "Citizens Hospital, Nallagandla Serilingampally, K.V.Rangareddy, Telangana 500019",
    "phone": "Dr. Sandeep Khambhampati, Treated 13K+ Patients | Best Cardiologist | Heart Specialist | Cardiac Dr | Healt…",
    "hours": "Open· Closes 22:00",
    "image_url": "/th?id=OLC.AKo5zZVghXJNvA480x360&w=92&h=134&c=8&rs=1&qlt=80&cdv=1&pid=Local"
  },
  {
    "name": "Dr. Praveen Koppula, Diabetologist and General Physician",
    "address": "201, 2nd Floor, Inside Neo ENT Center, Kadiris Apurupa Urban, Near Chirec School Road, Above Axis Bank, Ko…",
    "phone": "Dr. Praveen Koppula, Diabetologist and General Physician",
    "hours": null,
    "image_url": "https://www.bing.com/maps/geoplat/REST/v1/Imagery/Map/RoadVibrant?ms=92,112&key=AnTcaqBi2ypp0xI-OZNi4W_ik2KhjgpqioTAtXLC8GzkMBQRMlyxvxyTnd5b73im&c=en-US&ur=in&da=n&logo=n&fmt=png&od=1&shading=hill&pp=17.459867,78.371254;clcp"
  },
  {
    "name": "Dr Purushotham Rao Clinic",
    "address": "Ramaiah Guda Road, Government Children Center, Shivaram Nagar, Vikarabad, Telangana 501101",
    "phone": "Dr Purushotham Rao Clinic",
    "hours": null,
    "image_url": "https://www.bing.com/maps/geoplat/REST/v1/Imagery/Map/RoadVibrant?ms=92,112&key=AnTcaqBi2ypp0xI-OZNi4W_ik2KhjgpqioTAtXLC8GzkMBQRMlyxvxyTnd5b73im&c=en-US&ur=in&da=n&logo=n&fmt=png&od=1&shading=hill&pp=17.337431,77.901604;dfp"
  },
  {
    "name": "Dr.t.anand",
    "address": "Vikarabad, Telangana 501101, India, Vikarabad, Telangana 501101",
    "phone": "Dr.t.anand",
    "hours": null,
    "image_url": "https://www.bing.com/maps/geoplat/REST/v1/Imagery/Map/RoadVibrant?ms=92,112&key=AnTcaqBi2ypp0xI-OZNi4W_ik2KhjgpqioTAtXLC8GzkMBQRMlyxvxyTnd5b73im&c=en-US&ur=in&da=n&logo=n&fmt=png&od=1&shading=hill&pp=17.336155,77.907013;dfp"
  },
  {
    "name": "Sri Laxmi Narayana Clinic",
    "address": "Railway Station Road, Corporation Bank, Shankarpalli, Chevella, Telangana 501203",
    "phone": "Sri Laxmi Narayana Clinic",
    "hours": null,
    "image_url": "https://www.bing.com/maps/geoplat/REST/v1/Imagery/Map/RoadVibrant?ms=92,112&key=AnTcaqBi2ypp0xI-OZNi4W_ik2KhjgpqioTAtXLC8GzkMBQRMlyxvxyTnd5b73im&c=en-US&ur=in&da=n&logo=n&fmt=png&od=1&shading=hill&pp=17.454739,78.132355;dfp"
  },
  {
    "name": "Dr Anr Poly Clinic",
    "address": "Chevella Road, Sri Radhika Jewellers, Moinabad, Chevella, Telangana 501504",
    "phone": "Dr Anr Poly Clinic",
    "hours": null,
    "image_url": "https://www.bing.com/maps/geoplat/REST/v1/Imagery/Map/RoadVibrant?ms=92,112&key=AnTcaqBi2ypp0xI-OZNi4W_ik2KhjgpqioTAtXLC8GzkMBQRMlyxvxyTnd5b73im&c=en-US&ur=in&da=n&logo=n&fmt=png&od=1&shading=hill&pp=17.329136,78.272865;dfp"
  },
  {
    "name": "Hope clinic Dr. Rizvan Ahmed",
    "address": "Plot 119, C Block, P&T Colony, Sun City, Bandlaguda Jagir, Telangana",
    "phone": "Hope clinic Dr. Rizvan Ahmed",
    "hours": null,
    "image_url": "https://www.bing.com/maps/geoplat/REST/v1/Imagery/Map/RoadVibrant?ms=92,112&key=AnTcaqBi2ypp0xI-OZNi4W_ik2KhjgpqioTAtXLC8GzkMBQRMlyxvxyTnd5b73im&c=en-US&ur=in&da=n&logo=n&fmt=png&od=1&shading=hill&pp=17.362326,78.398773;dfp"
  },
  {
    "name": "Sri Manikeshwari Matha Clinic",
    "address": "Railway Station Road, Corporation Bank, Shankarpally, Chevella, Telangana 501203",
    "phone": "Sri Manikeshwari Matha Clinic",
    "hours": null,
    "image_url": "https://www.bing.com/maps/geoplat/REST/v1/Imagery/Map/RoadVibrant?ms=92,112&key=AnTcaqBi2ypp0xI-OZNi4W_ik2KhjgpqioTAtXLC8GzkMBQRMlyxvxyTnd5b73im&c=en-US&ur=in&da=n&logo=n&fmt=png&od=1&shading=hill&pp=17.454216,78.132248;dfp"
  },
  {
    "name": "Dr",
    "address": "First Floor, 1-100/1/CCH, Citizens Hospital Rd, Near Aparna Sarovar, Nallagandla, Telangana 500019",
    "phone": "Dr",
    "hours": "Open 24 hours",
    "image_url": null
  },
  {
    "name": "Dr Yeshwanth | Top Neurologist | Neurology Doctor in Hyderabad | Migraine & Headache Specialist",
    "address": "Kothaguda, X Roads, Prashanth Nagar Colony, Kondapur, Telangana",
    "phone": "Dr Yeshwanth | Top Neurologist | Neurology Doctor in Hyderabad | Migraine & Headache Specialist",
    "hours": null,
    "image_url": "https://www.bing.com/maps/geoplat/REST/v1/Imagery/Map/RoadVibrant?ms=92,112&key=AnTcaqBi2ypp0xI-OZNi4W_ik2KhjgpqioTAtXLC8GzkMBQRMlyxvxyTnd5b73im&c=en-US&ur=in&da=n&logo=n&fmt=png&od=1&shading=hill&pp=17.463776,78.359077;dfp"
  },
  {
    "name": "Dr. Sudheer Koganti",
    "address": "1-100-1/CCH Citizens Hospital Road, Serilingampalli, Telangana 500019",
    "phone": "Dr. Sudheer Koganti",
    "hours": "Open· Closes 13:00",
    "image_url": null
  },
  {
    "name": "Sri Rangaraya Clinic & Diagnostic Center",
    "address": "Yella Reddy Complex, Gandhinagar Colony, Shadnagar-509216, Shad Nagar, Telangana 509216",
    "phone": "Sri Rangaraya Clinic & Diagnostic Center",
    "hours": "Open· Closes 20:00",
    "image_url": null
  },
  {
    "name": "Dr Arjun Raj Kumar | Best Pediatrician in Hyderabad | Children's Specialist Doctor | Neonatologist",
    "address": "Sai Siva Children’s Hospital, opp. Venkateswara Swamy Temple, Gangaram, Chanda Nagar, Telangana",
    "phone": "Dr Arjun Raj Kumar | Best Pediatrician in Hyderabad | Children's Specialist Doctor | Neonatologist",
    "hours": null,
    "image_url": "https://www.bing.com/maps/geoplat/REST/v1/Imagery/Map/RoadVibrant?ms=92,112&key=AnTcaqBi2ypp0xI-OZNi4W_ik2KhjgpqioTAtXLC8GzkMBQRMlyxvxyTnd5b73im&c=en-US&ur=in&da=n&logo=n&fmt=png&od=1&shading=hill&pp=17.493271,78.345413;dfp"
  },
  {
    "name": "Rainbow KIDS Clinic - Dr. Dnyaneshwar (MBBS, MD-Pediatrics)",
    "address": "4-2-958, Shivaram Nagar Colony Rd, Opposite Assam Bakery, Vikarabad, Telangana",
    "phone": "Rainbow KIDS Clinic - Dr. Dnyaneshwar (MBBS, MD-Pediatrics)",
    "hours": null,
    "image_url": "https://www.bing.com/maps/geoplat/REST/v1/Imagery/Map/RoadVibrant?ms=92,112&key=AnTcaqBi2ypp0xI-OZNi4W_ik2KhjgpqioTAtXLC8GzkMBQRMlyxvxyTnd5b73im&c=en-US&ur=in&da=n&logo=n&fmt=png&od=1&shading=hill&pp=17.339624,77.899414;dfp"
  },
  {
    "name": "Nexus Specialty Clinics",
    "address": "4TH Floor P.B.N.R Plaza Nallagandla Plot NO 52 & 53, Nallagandla Road Hyderabad, Rangareddy, Telangana …",
    "phone": "Nexus Specialty Clinics",
    "hours": "Open· Closes 21:00",
    "image_url": null
  },
  {
    "name": "Dr Manasa Mynepally-Diabetes, Thyroid & Endocrine Centre",
    "address": "101, Siri Sampada Arcade, 1, Khajaguda - Nanakramguda Rd, Behind Andhra Bank/UBI, Khajagu…",
    "phone": "Dr Manasa Mynepally-Diabetes, Thyroid & Endocrine Centre",
    "hours": null,
    "image_url": "https://www.bing.com/maps/geoplat/REST/v1/Imagery/Map/RoadVibrant?ms=92,112&key=AnTcaqBi2ypp0xI-OZNi4W_ik2KhjgpqioTAtXLC8GzkMBQRMlyxvxyTnd5b73im&c=en-US&ur=in&da=n&logo=n&fmt=png&od=1&shading=hill&pp=17.417536,78.368301;dfp"
  },
  {
    "name": "Gastrocare -Liver, Pancreas&Endoscopy clinic, DR.V.GOPALAKRISHNA",
    "address": "Ashish My Space, 3rd Floor, X Road, Above Khajana Jewellers, Gangaram, Chanda Nagar, Telangana",
    "phone": "Gastrocare -Liver, Pancreas&Endoscopy clinic, DR.V.GOPALAKRISHNA",
    "hours": null,
    "image_url": "https://www.bing.com/maps/geoplat/REST/v1/Imagery/Map/RoadVibrant?ms=92,112&key=AnTcaqBi2ypp0xI-OZNi4W_ik2KhjgpqioTAtXLC8GzkMBQRMlyxvxyTnd5b73im&c=en-US&ur=in&da=n&logo=n&fmt=png&od=1&shading=hill&pp=17.492859,78.338623;dfp"
  }
]