[
  {
    "name": "Shuddhi Clinic Sasaram",
    "address": "Near Mahila College Opposite Kali Mandir, G.T. Road, Sasaram, Bihar 821115",
    "phone": "Shuddhi Clinic Sasaram",
    "hours": "Open· Closes 18:00",
    "image_url": "/th?id=OLC.Hc2JqL2X9yRicg480x360&w=92&h=134&c=8&rs=1&qlt=80&cdv=1&pid=Local"
  },
  {
    "name": "Dr Sanjeev Kumar Clinic",
    "address": "Dav Public School, Nh2, Civil Line, Sasaram, Bihar 821115",
    "phone": "Dr Sanjeev Kumar Clinic",
    "hours": null,
    "image_url": "https://www.bing.com/maps/geoplat/REST/v1/Imagery/Map/RoadVibrant?ms=92,112&key=AnTcaqBi2ypp0xI-OZNi4W_ik2KhjgpqioTAtXLC8GzkMBQRMlyxvxyTnd5b73im&c=en-US&ur=in&da=n&logo=n&fmt=png&od=1&shading=hill&pp=24.952341,84.012367;dfp"
  },
  {
    "name": "Dr Sm Alam Clinic",
    "address": "Maulana Azad Chowk, Mandai Road, Kabir Ganj, Sasaram, Bihar 821115",
    "phone": "Dr Sm Alam Clinic",
    "hours": null,
    "image_url": "https://www.bing.com/maps/geoplat/REST/v1/Imagery/Map/RoadVibrant?ms=92,112&key=AnTcaqBi2ypp0xI-OZNi4W_ik2KhjgpqioTAtXLC8GzkMBQRMlyxvxyTnd5b73im&c=en-US&ur=in&da=n&logo=n&fmt=png&od=1&shading=hill&pp=24.948376,84.018272;dfp"
  },
  {
    "name": "SK Jha Clinic",
    "address": "Rouza Road, Laxkariganj, Sasaram, Bihar",
    "phone": "SK Jha Clinic",
    "hours": null,
    "image_url": "https://www.bing.com/maps/geoplat/REST/v1/Imagery/Map/RoadVibrant?ms=92,112&key=AnTcaqBi2ypp0xI-OZNi4W_ik2KhjgpqioTAtXLC8GzkMBQRMlyxvxyTnd5b73im&c=en-US&ur=in&da=n&logo=n&fmt=png&od=1&shading=hill&pp=24.950315,84.010933;dfp"
  },
  {
    "name": "Dr Arbind Clinic",
    "address": "Dhap Bazar, Kabira, Bihar",
    "phone": "Dr Arbind Clinic",
    "hours": null,
    "image_url": "https://www.bing.com/maps/geoplat/REST/v1/Imagery/Map/RoadVibrant?ms=92,112&key=AnTcaqBi2ypp0xI-OZNi4W_ik2KhjgpqioTAtXLC8GzkMBQRMlyxvxyTnd5b73im&c=en-US&ur=in&da=n&logo=n&fmt=png&od=1&shading=hill&pp=24.945789,84.013351;dfp"
  },
  {
    "name": "Pihu Hospital & Ultrasound Centre",
    "address": "Near OLD Post Office, Ramgarh, Kaimur, Bhabua, Bihar 821110",
    "phone": "Pihu Hospital & Ultrasound Centre",
    "hours": null,
    "image_url": "https://www.bing.com/maps/geoplat/REST/v1/Imagery/Map/RoadVibrant?ms=92,112&key=AnTcaqBi2ypp0xI-OZNi4W_ik2KhjgpqioTAtXLC8GzkMBQRMlyxvxyTnd5b73im&c=en-US&ur=in&da=n&logo=n&fmt=png&od=1&shading=hill&pp=25.29525,83.659821;dfp"
  },
  {
    "name": "R K Clinic and Diabetes Care Centre. Dr M K Tiwary M D",
    "address": "Rauza Road, Hetimpur, Sasaram, Bihar",
    "phone": "R K Clinic and Diabetes Care Centre. Dr M K Tiwary M D",
    "hours": null,
    "image_url": "https://www.bing.com/maps/geoplat/REST/v1/Imagery/Map/RoadVibrant?ms=92,112&key=AnTcaqBi2ypp0xI-OZNi4W_ik2KhjgpqioTAtXLC8GzkMBQRMlyxvxyTnd5b73im&c=en-US&ur=in&da=n&logo=n&fmt=png&od=1&shading=hill&pp=24.95257,84.012695;dfp"
  },
  {
    "name": "Jivan Jyoti Care Clinic",
    "address": "Sh14, Bhabua, Bihar 821101",
    "phone": "Jivan Jyoti Care Clinic",
    "hours": null,
    "image_url": "https://www.bing.com/maps/geoplat/REST/v1/Imagery/Map/RoadVibrant?ms=92,112&key=AnTcaqBi2ypp0xI-OZNi4W_ik2KhjgpqioTAtXLC8GzkMBQRMlyxvxyTnd5b73im&c=en-US&ur=in&da=n&logo=n&fmt=png&od=1&shading=hill&pp=25.042681,83.613625;dfp"
  },
  {
    "name": "Vijay Clinic",
    "address": "Sh14, Bhabua, Bihar 821101",
    "phone": "Vijay Clinic",
    "hours": null,
    "image_url": "https://www.bing.com/maps/geoplat/REST/v1/Imagery/Map/RoadVibrant?ms=92,112&key=AnTcaqBi2ypp0xI-OZNi4W_ik2KhjgpqioTAtXLC8GzkMBQRMlyxvxyTnd5b73im&c=en-US&ur=in&da=n&logo=n&fmt=png&od=1&shading=hill&pp=25.045132,83.614403;dfp"
  },
  {
    "name": "Ashirwad Cancer Pain & Palliative Care Centre",
    "address": "Ashirwad Hospital, ara Road, Lalganj, Sasaram, Bihar 821115",
    "phone": "Ashirwad Cancer Pain & Palliative Care Centre",
    "hours": null,
    "image_url": null
  },
  {
    "name": "Sarita Homoeo Clinic",
    "address": "Rauza Road, Jagdev Nagar, Ashikpur, Sasaram, Bihar",
    "phone": "Sarita Homoeo Clinic",
    "hours": null,
    "image_url": "https://www.bing.com/maps/geoplat/REST/v1/Imagery/Map/RoadVibrant?ms=92,112&key=AnTcaqBi2ypp0xI-OZNi4W_ik2KhjgpqioTAtXLC8GzkMBQRMlyxvxyTnd5b73im&c=en-US&ur=in&da=n&logo=n&fmt=png&od=1&shading=hill&pp=24.953199,84.026634;dfp"
  },
  {
    "name": "Dr Ashok Kumar Keshri Clinic",
    "address": "Mohania, Nh2 Delhi Kolkata Road, Mohania, Bihar 821110",
    "phone": "Dr Ashok Kumar Keshri Clinic",
    "hours": null,
    "image_url": "https://www.bing.com/maps/geoplat/REST/v1/Imagery/Map/RoadVibrant?ms=92,112&key=AnTcaqBi2ypp0xI-OZNi4W_ik2KhjgpqioTAtXLC8GzkMBQRMlyxvxyTnd5b73im&c=en-US&ur=in&da=n&logo=n&fmt=png&od=1&shading=hill&pp=25.166878,83.618645;dfp"
  },
  {
    "name": "Dr Sanjay Kumar Singh",
    "address": "Khormabad Near Takiya, Siwan, Bihar 841226",
    "phone": "Dr Sanjay Kumar Singh",
    "hours": "Open· Closes 15:00",
    "image_url": null
  },
  {
    "name": "Dr. Samresh Kashyap",
    "address": "Civil Lines, In Front of Bal Bharti School, Old Grand Trunk Road, Sasaram, Rohtas, Bihar",
    "phone": "Dr. Samresh Kashyap",
    "hours": "Closed· Opens 14:00",
    "image_url": "https://www.bing.com/maps/geoplat/REST/v1/Imagery/Map/RoadVibrant?ms=92,112&key=AnTcaqBi2ypp0xI-OZNi4W_ik2KhjgpqioTAtXLC8GzkMBQRMlyxvxyTnd5b73im&c=en-US&ur=in&da=n&logo=n&fmt=png&od=1&shading=hill&pp=24.95594,84.007477;dfp"
  },
  {
    "name": "Dr Lal PathLabs – Patient Service Centre",
    "address": "Chainpur Road Bhabua Bihar NEW Bijali Bibhag Office KE Samane, Bhabua, Kaimur Bhabua Bhabua, Bihar",
    "phone": "Dr Lal PathLabs – Patient Service Centre",
    "hours": null,
    "image_url": "https://www.bing.com/maps/geoplat/REST/v1/Imagery/Map/RoadVibrant?ms=92,112&key=AnTcaqBi2ypp0xI-OZNi4W_ik2KhjgpqioTAtXLC8GzkMBQRMlyxvxyTnd5b73im&c=en-US&ur=in&da=n&logo=n&fmt=png&od=1&shading=hill&pp=25.026529,83.601761;dfp"
  },
  {
    "name": "Life line Homoeo clinic",
    "address": "Mohania - Ramgarh Rd, Mohania, Bihar",
    "phone": "Life line Homoeo clinic",
    "hours": null,
    "image_url": null
  },
  {
    "name": "Apollo Dialysis Clinic",
    "address": "Sadar Hospital, Kaimur, Bhabua, Kaimur, Bihar 821101",
    "phone": "Apollo Dialysis Clinic",
    "hours": "Open· Closes 20:00",
    "image_url": "https://www.bing.com/maps/geoplat/REST/v1/Imagery/Map/RoadVibrant?ms=92,134&key=AnTcaqBi2ypp0xI-OZNi4W_ik2KhjgpqioTAtXLC8GzkMBQRMlyxvxyTnd5b73im&c=en-US&ur=in&da=n&logo=n&fmt=png&od=1&shading=hill&pp=24.951159,84.012131;dfp"
  },
  {
    "name": "NephroPlus Dialysis & Kidney Care Clinic",
    "address": "Narayan Medical College & Hospital, Sasaram-Tilauthu Rd, Jamuhar, Bihar",
    "phone": "NephroPlus Dialysis & Kidney Care Clinic",
    "hours": null,
    "image_url": "https://www.bing.com/maps/geoplat/REST/v1/Imagery/Map/RoadVibrant?ms=92,112&key=AnTcaqBi2ypp0xI-OZNi4W_ik2KhjgpqioTAtXLC8GzkMBQRMlyxvxyTnd5b73im&c=en-US&ur=in&da=n&logo=n&fmt=png&od=1&shading=hill&pp=24.953741,83.997055;dfp"
  }
]