[
  {
    "name": "Dr. Maan's Clinic",
    "address": "647\\11, Gandhi Nagar, Dhand Road, Kaithal, Haryana 136027",
    "phone": "Dr. Maan's Clinic",
    "hours": null,
    "image_url": "/th?id=OLC.U%2fLQJDmATvas0A480x360&w=92&h=112&c=8&rs=1&qlt=80&cdv=1&pid=Local"
  },
  {
    "name": "Bhargav Clinic & Consultants",
    "address": "Jeewan Surgicals & Medicals Dhand Road Opposite Jain Nursing Home Kaithal, Kaithal, Haryana, Haryana 136027",
    "phone": "Bhargav Clinic & Consultants",
    "hours": null,
    "image_url": "/th?id=OLC.8vCkAZUkgTp9qg480x360&w=92&h=112&c=8&rs=1&qlt=80&cdv=1&pid=Local"
  },
  {
    "name": "Dr Ankur Mittal",
    "address": "Trauma & Orthopaedic Speciality Center In Mittal Hospital, Ambala Road, Opp. PNB Bank, Kaithal, Harya…",
    "phone": "Dr Ankur Mittal",
    "hours": "Open 24 hours",
    "image_url": "/th?id=OLC.GYAlKHAFLhFHsg480x360&w=92&h=112&c=8&rs=1&qlt=80&cdv=1&pid=Local"
  },
  {
    "name": "Dr. Arnav Puri",
    "address": "Puri Health Centre, SBI Road, Opposite OPD Bus Stand, Kaithal, Haryana, Kaithal",
    "phone": "Dr. Arnav Puri",
    "hours": null,
    "image_url": "https://www.bing.com/maps/geoplat/REST/v1/Imagery/Map/RoadVibrant?ms=92,112&key=AnTcaqBi2ypp0xI-OZNi4W_ik2KhjgpqioTAtXLC8GzkMBQRMlyxvxyTnd5b73im&c=en-US&ur=in&da=n&logo=n&fmt=png&od=1&shading=hill&pp=29.799658,76.401962;dfp"
  },
  {
    "name": "Dr. Pankaj Ravish- Physician and Clinical Cardiologist",
    "address": "Dev Nursing Home, Pehowa Chowk, Near Hdfc Bank, Kaithal, Haryana 136027",
    "phone": "Dr. Pankaj Ravish- Physician and Clinical Cardiologist",
    "hours": "Open· Closes 19:00",
    "image_url": "/th?id=OLC.u%2fHXtoi0CsfshA480x360&w=92&h=134&c=8&rs=1&qlt=80&cdv=1&pid=Local"
  },
  {
    "name": "Cygnus Super Speciality Hospital Kaithal",
    "address": "Huda Bypass Road, Sector 20, Kaithal, Haryana 136027",
    "phone": "Cygnus Super Speciality Hospital Kaithal",
    "hours": "Open 24 hours",
    "image_url": "/th?id=OLC.M%2bddteQQrLIZow480x360&w=92&h=134&c=8&rs=1&qlt=80&cdv=1&pid=Local"
  },
  {
    "name": "Dr S Kumar",
    "address": "Khalsa Road, Shaheed Udham Singh Park, Old City, Kaithal, Haryana 136027",
    "phone": "Dr S Kumar",
    "hours": null,
    "image_url": null
  },
  {
    "name": "Dr.%20Subhash%20Chander%20Mittal%20%7C%20M…",
    "address": "Near%20Padma%20City%20Mall%2C%20Rishi%20Na…",
    "phone": "Dr.%20Subhash%20Chander%20Mittal%20%7C%20M…",
    "hours": "Open· Closes 18:00",
    "image_url": null
  },
  {
    "name": "Shuddhi Clinic",
    "address": "Karnal Road, Opposite SBI Bank Near Padma City Mall, Kaithal, Haryana",
    "phone": "Shuddhi Clinic",
    "hours": "Open· Closes 18:00",
    "image_url": null
  },
  {
    "name": "Dr. Naresh Sagwal",
    "address": "Vpo Kaul Distt.Kaithal, Kaithal, Haryana 136027",
    "phone": "Dr. Naresh Sagwal",
    "hours": "Open· Closes 17:00",
    "image_url": null
  },
  {
    "name": "Dr. S. Kumar's Health Clinic - Piles Clinic, Skin Clinic & Sexologist",
    "address": "Mata Gate, RK Puram, Kaithal, Haryana",
    "phone": "Dr. S. Kumar's Health Clinic - Piles Clinic, Skin Clinic & Sexologist",
    "hours": null,
    "image_url": "https://www.bing.com/maps/geoplat/REST/v1/Imagery/Map/RoadVibrant?ms=92,112&key=AnTcaqBi2ypp0xI-OZNi4W_ik2KhjgpqioTAtXLC8GzkMBQRMlyxvxyTnd5b73im&c=en-US&ur=in&da=n&logo=n&fmt=png&od=1&shading=hill&pp=29.797804,76.392952;dfp"
  },
  {
    "name": "Dr. Puniya's Homeopathic Clinic and Blood Collection Centre",
    "address": "Hindustan Paints & Hardware, Balore Road, Infront of Bhagat Singh Park Alongwith, Bahadurgarh, Haryana",
    "phone": "Dr. Puniya's Homeopathic Clinic and Blood Collection Centre",
    "hours": "Open· Closes 13:00",
    "image_url": "https://www.bing.com/maps/geoplat/REST/v1/Imagery/Map/RoadVibrant?ms=92,134&key=AnTcaqBi2ypp0xI-OZNi4W_ik2KhjgpqioTAtXLC8GzkMBQRMlyxvxyTnd5b73im&c=en-US&ur=in&da=n&logo=n&fmt=png&od=1&shading=hill&pp=28.68272,76.931679;dfp"
  },
  {
    "name": "Dr. R.k. Nijhawan Homoeopathic Clinic",
    "address": "Sh 8, Gobind Colony, Adarsh Nagar, Kaithal, Haryana 136027, India, Kaithal, Haryana 136027",
    "phone": "Dr. R.k. Nijhawan Homoeopathic Clinic",
    "hours": null,
    "image_url": "https://www.bing.com/maps/geoplat/REST/v1/Imagery/Map/RoadVibrant?ms=92,112&key=AnTcaqBi2ypp0xI-OZNi4W_ik2KhjgpqioTAtXLC8GzkMBQRMlyxvxyTnd5b73im&c=en-US&ur=in&da=n&logo=n&fmt=png&od=1&shading=hill&pp=29.804325,76.40181;dfp"
  },
  {
    "name": "ANAND Homeopathic Clinic",
    "address": "Committee Chowk, Kaithal, Haryana, Haryana 136027",
    "phone": "ANAND Homeopathic Clinic",
    "hours": null,
    "image_url": null
  },
  {
    "name": "Chandigarh Ayurvedic Clinic",
    "address": "Khurana Road, Hind Cinema, Old City, Kaithal, Haryana 136027",
    "phone": "Chandigarh Ayurvedic Clinic",
    "hours": null,
    "image_url": "https://www.bing.com/maps/geoplat/REST/v1/Imagery/Map/RoadVibrant?ms=92,112&key=AnTcaqBi2ypp0xI-OZNi4W_ik2KhjgpqioTAtXLC8GzkMBQRMlyxvxyTnd5b73im&c=en-US&ur=in&da=n&logo=n&fmt=png&od=1&shading=hill&pp=29.805656,76.396568;dfp"
  },
  {
    "name": "Dr Lal PathLabs – Patient Service Centre",
    "address": "Harsh Hotal, 1, opp. Civil Hospital, Janakpuri Colony, Kaithal, Haryana",
    "phone": "Dr Lal PathLabs – Patient Service Centre",
    "hours": null,
    "image_url": "https://www.bing.com/maps/geoplat/REST/v1/Imagery/Map/RoadVibrant?ms=92,112&key=AnTcaqBi2ypp0xI-OZNi4W_ik2KhjgpqioTAtXLC8GzkMBQRMlyxvxyTnd5b73im&c=en-US&ur=in&da=n&logo=n&fmt=png&od=1&shading=hill&pp=29.804068,76.419113;dfp"
  },
  {
    "name": "Khanna Homoeo Clinic",
    "address": "1026/11 Khanna Homeo Clinic, Professor Colony, Kaithal - Dhand Rd, Opposite I.G. Public School, Kaithal, Hary…",
    "phone": "Khanna Homoeo Clinic",
    "hours": null,
    "image_url": "https://www.bing.com/maps/geoplat/REST/v1/Imagery/Map/RoadVibrant?ms=92,112&key=AnTcaqBi2ypp0xI-OZNi4W_ik2KhjgpqioTAtXLC8GzkMBQRMlyxvxyTnd5b73im&c=en-US&ur=in&da=n&logo=n&fmt=png&od=1&shading=hill&pp=29.803818,76.404587;dfp"
  },
  {
    "name": "Sanjeev Homeopatik Clinic",
    "address": "Punjab Hotel Road, Kaithal City Police Station, Old City, Kaithal, Haryana 136027",
    "phone": "Sanjeev Homeopatik Clinic",
    "hours": null,
    "image_url": "https://www.bing.com/maps/geoplat/REST/v1/Imagery/Map/RoadVibrant?ms=92,112&key=AnTcaqBi2ypp0xI-OZNi4W_ik2KhjgpqioTAtXLC8GzkMBQRMlyxvxyTnd5b73im&c=en-US&ur=in&da=n&logo=n&fmt=png&od=1&shading=hill&pp=29.803757,76.397644;dfp"
  }
]