[
  {
    "name": "Dr. Soumendra Kumar Parida, Treated 4K+ Patients | Best Maxillofacial Surgeon  | Facial Trauma Surgery",
    "address": "Sai Taranga Dental Clinic, Kalahandi, Nh-26, Junagarh, Kalahandi 766014",
    "phone": "Dr. Soumendra Kumar Parida, Treated 4K+ Patients | Best Maxillofacial Surgeon  | Facial Trauma Surgery",
    "hours": "Open· Closes 21:00",
    "image_url": "/th?id=OLC.zpiO%2bmZBuyxJFA480x360&w=92&h=134&c=8&rs=1&qlt=80&cdv=1&pid=Local"
  },
  {
    "name": "Sushama Clinic",
    "address": "Sh16, Bhawanipatna, Odisha 766001",
    "phone": "Sushama Clinic",
    "hours": null,
    "image_url": "https://www.bing.com/maps/geoplat/REST/v1/Imagery/Map/RoadVibrant?ms=92,112&key=AnTcaqBi2ypp0xI-OZNi4W_ik2KhjgpqioTAtXLC8GzkMBQRMlyxvxyTnd5b73im&c=en-US&ur=in&da=n&logo=n&fmt=png&od=1&shading=hill&pp=19.909681,83.164474;dfp"
  },
  {
    "name": "MJ Multi Speciality Clinic and Diagnostic Center",
    "address": "Near Icici Bank Infront of Sunday Market, Junagarh, Odisha",
    "phone": "MJ Multi Speciality Clinic and Diagnostic Center",
    "hours": null,
    "image_url": "https://www.bing.com/maps/geoplat/REST/v1/Imagery/Map/RoadVibrant?ms=92,112&key=AnTcaqBi2ypp0xI-OZNi4W_ik2KhjgpqioTAtXLC8GzkMBQRMlyxvxyTnd5b73im&c=en-US&ur=in&da=n&logo=n&fmt=png&od=1&shading=hill&pp=19.8605,82.938004;dfp"
  },
  {
    "name": "Masterdoctor Clinic - Titlagarh - Best Diabetes Clinic - Best Diabetologist Dr B Jagadish",
    "address": "Nath Care Medicose, Thikadarpada, Titlagarh 767033",
    "phone": "Masterdoctor Clinic - Titlagarh - Best Diabetes Clinic - Best Diabetologist Dr B Jagadish",
    "hours": "Open· Closes 21:00",
    "image_url": "/th?id=OLC.HCMGT7mgZqD9ag480x360&w=92&h=134&c=8&rs=1&qlt=80&cdv=1&pid=Local"
  },
  {
    "name": "Patanjali Chikitsalay",
    "address": "Ground Floor Krishna Plaza Complex, Near Khurana Lic Office, Bhawanipatna, Odisha 766001",
    "phone": "Patanjali Chikitsalay",
    "hours": "Open· Closes 21:00",
    "image_url": "/th?id=OLC.C3L3bD48%2b%2bczHg480x360&w=92&h=134&c=8&rs=1&qlt=80&cdv=1&pid=Local"
  },
  {
    "name": "B N Pathology - Home | Facebook",
    "address": "NH-201, Bhawanipatna, Odisha, Odisha 766001",
    "phone": "B N Pathology - Home | Facebook",
    "hours": null,
    "image_url": "https://www.bing.com/maps/geoplat/REST/v1/Imagery/Map/RoadVibrant?ms=92,112&key=AnTcaqBi2ypp0xI-OZNi4W_ik2KhjgpqioTAtXLC8GzkMBQRMlyxvxyTnd5b73im&c=en-US&ur=in&da=n&logo=n&fmt=png&od=1&shading=hill&pp=19.906153,83.167137;dfp"
  },
  {
    "name": "Swasthya Swaraj Clinic",
    "address": "J356+98M, Kaniguma, Odisha",
    "phone": "Swasthya Swaraj Clinic",
    "hours": null,
    "image_url": "https://www.bing.com/maps/geoplat/REST/v1/Imagery/Map/RoadVibrant?ms=92,112&key=AnTcaqBi2ypp0xI-OZNi4W_ik2KhjgpqioTAtXLC8GzkMBQRMlyxvxyTnd5b73im&c=en-US&ur=in&da=n&logo=n&fmt=png&od=1&shading=hill&pp=19.612724,83.059319;dfp"
  },
  {
    "name": "Maa Mansa Clinic",
    "address": "Sindhekela Balangir, बंगोमुंडा, Odisha 767035",
    "phone": "Maa Mansa Clinic",
    "hours": null,
    "image_url": "https://www.bing.com/maps/geoplat/REST/v1/Imagery/Map/RoadVibrant?ms=92,112&key=AnTcaqBi2ypp0xI-OZNi4W_ik2KhjgpqioTAtXLC8GzkMBQRMlyxvxyTnd5b73im&c=en-US&ur=in&da=n&logo=n&fmt=png&od=1&shading=hill&pp=20.228201,82.939102;dfp"
  },
  {
    "name": "Kejriwal Multispeciality Clinic, Titilagarh",
    "address": "Thikadar Para Rd, Thikadar Para, Titilagarh, Odisha",
    "phone": "Kejriwal Multispeciality Clinic, Titilagarh",
    "hours": null,
    "image_url": "https://www.bing.com/maps/geoplat/REST/v1/Imagery/Map/RoadVibrant?ms=92,112&key=AnTcaqBi2ypp0xI-OZNi4W_ik2KhjgpqioTAtXLC8GzkMBQRMlyxvxyTnd5b73im&c=en-US&ur=in&da=n&logo=n&fmt=png&od=1&shading=hill&pp=20.2852,83.154602;dfp"
  },
  {
    "name": "Dr Ukp Dental Center",
    "address": "Bhawanipatna, Near Satyam Cinema, Kalahandi, Odisha 766001",
    "phone": "Dr Ukp Dental Center",
    "hours": null,
    "image_url": null
  },
  {
    "name": "Medicine India",
    "address": "Radha Krishna Medical Store, Jaipatna, Main Road, Kalahandi 766018",
    "phone": "Medicine India",
    "hours": "Open· Closes 21:00",
    "image_url": "https://www.bing.com/maps/geoplat/REST/v1/Imagery/Map/RoadVibrant?ms=92,134&key=AnTcaqBi2ypp0xI-OZNi4W_ik2KhjgpqioTAtXLC8GzkMBQRMlyxvxyTnd5b73im&c=en-US&ur=in&da=n&logo=n&fmt=png&od=1&shading=hill&pp=19.469204,82.805992;dfp"
  },
  {
    "name": "Shivashambhu Pathology",
    "address": "Nh201, Bhawanipatna, Odisha 766001",
    "phone": "Shivashambhu Pathology",
    "hours": null,
    "image_url": "https://www.bing.com/maps/geoplat/REST/v1/Imagery/Map/RoadVibrant?ms=92,112&key=AnTcaqBi2ypp0xI-OZNi4W_ik2KhjgpqioTAtXLC8GzkMBQRMlyxvxyTnd5b73im&c=en-US&ur=in&da=n&logo=n&fmt=png&od=1&shading=hill&pp=19.913622,83.172035;dfp"
  },
  {
    "name": "Ramakrishna Mission Dispensary",
    "address": "Hatamuniguda Rd, Kinarikota, Odisha",
    "phone": "Ramakrishna Mission Dispensary",
    "hours": null,
    "image_url": "https://www.bing.com/maps/geoplat/REST/v1/Imagery/Map/RoadVibrant?ms=92,112&key=AnTcaqBi2ypp0xI-OZNi4W_ik2KhjgpqioTAtXLC8GzkMBQRMlyxvxyTnd5b73im&c=en-US&ur=in&da=n&logo=n&fmt=png&od=1&shading=hill&pp=19.58477,83.49781;dfp"
  }
]