[
  {
    "name": "Dr. Subhash Khanna",
    "address": "Assam Trunk Rd, Guwahati, Kamrup, Assam 781001",
    "phone": "Dr. Subhash Khanna",
    "hours": null,
    "image_url": "https://www.bing.com/maps/geoplat/REST/v1/Imagery/Map/RoadVibrant?ms=92,112&key=AnTcaqBi2ypp0xI-OZNi4W_ik2KhjgpqioTAtXLC8GzkMBQRMlyxvxyTnd5b73im&c=en-US&ur=in&da=n&logo=n&fmt=png&od=1&shading=hill&pp=26.159178,91.696678;dfp"
  },
  {
    "name": "Maa Amulya Clinic & Doctor Chamber",
    "address": "Battalion Gate, Lokhra Road, Lutuma, Kamrup, Assam 781018",
    "phone": "Maa Amulya Clinic & Doctor Chamber",
    "hours": null,
    "image_url": "/th?id=OLC.BChV1mKHPCxjmg480x360&w=92&h=112&c=8&rs=1&qlt=80&cdv=1&pid=Local"
  },
  {
    "name": "Dr. Asif Iqbal",
    "address": "Hno 11, Hatigaon, Neel Kamal Path, Guwahati, Kamrup, Assam 781038",
    "phone": "Dr. Asif Iqbal",
    "hours": "Closed· Opens 17:00",
    "image_url": "/th?id=OLC.mzp8v6z1vqexxQ480x360&w=92&h=134&c=8&rs=1&qlt=80&cdv=1&pid=Local"
  },
  {
    "name": "Good Health Homoeopathic Clinic",
    "address": "Nadanpur, Zoo Japorigog Road, Near Bharat Mata Mustan Bhanda, Zoo Road, Guwahati, Kamrup, Assam …",
    "phone": "Good Health Homoeopathic Clinic",
    "hours": "Open· Closes 13:00",
    "image_url": "/th?id=OLC.E0dJ1X4rZb7v2w480x360&w=92&h=134&c=8&rs=1&qlt=80&cdv=1&pid=Local"
  },
  {
    "name": "Nageswar Clinic",
    "address": "Sualkuchi, Pub Dadara, Dadara Guwahati Road, Kamrup, Assam 781104",
    "phone": "Nageswar Clinic",
    "hours": null,
    "image_url": "https://www.bing.com/maps/geoplat/REST/v1/Imagery/Map/RoadVibrant?ms=92,112&key=AnTcaqBi2ypp0xI-OZNi4W_ik2KhjgpqioTAtXLC8GzkMBQRMlyxvxyTnd5b73im&c=en-US&ur=in&da=n&logo=n&fmt=png&od=1&shading=hill&pp=26.189856,91.670372;dfp"
  },
  {
    "name": "Papu Clinic",
    "address": "2 NO, Saru Dampur, Hajo, Kamrup, Assam 781102",
    "phone": "Papu Clinic",
    "hours": null,
    "image_url": "https://www.bing.com/maps/geoplat/REST/v1/Imagery/Map/RoadVibrant?ms=92,112&key=AnTcaqBi2ypp0xI-OZNi4W_ik2KhjgpqioTAtXLC8GzkMBQRMlyxvxyTnd5b73im&c=en-US&ur=in&da=n&logo=n&fmt=png&od=1&shading=hill&pp=26.258724,91.452919;dfp"
  },
  {
    "name": "Dr. Arnabjyoti Das | Physiotherapist",
    "address": "Sualkuchi, Kamrup, Assam, India, 781103, Kamrup, Madhya Pradesh 781103",
    "phone": "Dr. Arnabjyoti Das | Physiotherapist",
    "hours": "Open· Closes 18:00",
    "image_url": null
  },
  {
    "name": "Dr Arun Ch Deka Clinic",
    "address": "Barma Road, Nalbari, Assam 781335",
    "phone": "Dr Arun Ch Deka Clinic",
    "hours": null,
    "image_url": "https://www.bing.com/maps/geoplat/REST/v1/Imagery/Map/RoadVibrant?ms=92,112&key=AnTcaqBi2ypp0xI-OZNi4W_ik2KhjgpqioTAtXLC8GzkMBQRMlyxvxyTnd5b73im&c=en-US&ur=in&da=n&logo=n&fmt=png&od=1&shading=hill&pp=26.446287,91.436531;dfp"
  },
  {
    "name": "Saaol Heart Center, Guwahati",
    "address": "19 Harbala Road, Opp.Bora Service Bus Stand, Kamrup, Assam",
    "phone": "Saaol Heart Center, Guwahati",
    "hours": "Open· Closes 18:00",
    "image_url": null
  },
  {
    "name": "Primary Health Centre",
    "address": "Dakhin Bejera, Sh9 Hajo Nalbari Road, Nalbari, Assam 781334",
    "phone": "Primary Health Centre",
    "hours": null,
    "image_url": "https://www.bing.com/maps/geoplat/REST/v1/Imagery/Map/RoadVibrant?ms=92,112&key=AnTcaqBi2ypp0xI-OZNi4W_ik2KhjgpqioTAtXLC8GzkMBQRMlyxvxyTnd5b73im&c=en-US&ur=in&da=n&logo=n&fmt=png&od=1&shading=hill&pp=26.420687,91.439896;dfp"
  },
  {
    "name": "Bharat Piles Clinic",
    "address": "Hajo Road, Bar Agra, Nalbari, Assam 781335",
    "phone": "Bharat Piles Clinic",
    "hours": null,
    "image_url": "https://www.bing.com/maps/geoplat/REST/v1/Imagery/Map/RoadVibrant?ms=92,112&key=AnTcaqBi2ypp0xI-OZNi4W_ik2KhjgpqioTAtXLC8GzkMBQRMlyxvxyTnd5b73im&c=en-US&ur=in&da=n&logo=n&fmt=png&od=1&shading=hill&pp=26.431673,91.436523;dfp"
  },
  {
    "name": "Dr Tilak Pathak",
    "address": "Sudhakantha Path, Ward No:17, Near Measurement Office, Metuakuchi, Muslimpatty, Assam 781301",
    "phone": "Dr Tilak Pathak",
    "hours": null,
    "image_url": "https://www.bing.com/maps/geoplat/REST/v1/Imagery/Map/RoadVibrant?ms=92,112&key=AnTcaqBi2ypp0xI-OZNi4W_ik2KhjgpqioTAtXLC8GzkMBQRMlyxvxyTnd5b73im&c=en-US&ur=in&da=n&logo=n&fmt=png&od=1&shading=hill&pp=26.329281,90.992783;dfp"
  },
  {
    "name": "Shuddhi Clinic By Guru Manish Ji - Best Ayurveda Doctor & Ayurvedic Treatment",
    "address": "Khatabari, Ward no. 1, Opposite Vishal Mega Mart, Near Petrol Pump, Nalbari, Assam 781335",
    "phone": "Shuddhi Clinic By Guru Manish Ji - Best Ayurveda Doctor & Ayurvedic Treatment",
    "hours": null,
    "image_url": null
  },
  {
    "name": "Dr. Alakesh Burman- Urologist",
    "address": "Hasina Medishop, SH 2, Muslimpatty, Satra Barad, Barpeta, Assam 781301",
    "phone": "Dr. Alakesh Burman- Urologist",
    "hours": "Closed· Opens Wed 09:00",
    "image_url": "https://www.bing.com/maps/geoplat/REST/v1/Imagery/Map/RoadVibrant?ms=92,134&key=AnTcaqBi2ypp0xI-OZNi4W_ik2KhjgpqioTAtXLC8GzkMBQRMlyxvxyTnd5b73im&c=en-US&ur=in&da=n&logo=n&fmt=png&od=1&shading=hill&pp=26.330835,91.00441;dfp"
  },
  {
    "name": "Dr Anil Talukdar Child Specialist",
    "address": "Islamsupa, Hajo Road, Nalbari, Assam 781335",
    "phone": "Dr Anil Talukdar Child Specialist",
    "hours": null,
    "image_url": "https://www.bing.com/maps/geoplat/REST/v1/Imagery/Map/RoadVibrant?ms=92,112&key=AnTcaqBi2ypp0xI-OZNi4W_ik2KhjgpqioTAtXLC8GzkMBQRMlyxvxyTnd5b73im&c=en-US&ur=in&da=n&logo=n&fmt=png&od=1&shading=hill&pp=26.442577,91.437912;dfp"
  },
  {
    "name": "Homeo Health Clinic, Dr Matin Online Homeopathic Clinic",
    "address": "Kakati Complex, Amtal Barpeta Road, Barpeta Road, Assam 781315",
    "phone": "Homeo Health Clinic, Dr Matin Online Homeopathic Clinic",
    "hours": null,
    "image_url": null
  },
  {
    "name": "Dr. Nasimur Riaz",
    "address": "Kahilipara Road, Lalganesh, Guwahati, Assam",
    "phone": "Dr. Nasimur Riaz",
    "hours": "Open· Closes 17:00",
    "image_url": null
  },
  {
    "name": "Excelcare Hospitals",
    "address": "Near, Excelcare Hospital, Boragaon, NH 37, Ganesh Mandir Road, Guwahati, Assam",
    "phone": "Excelcare Hospitals",
    "hours": null,
    "image_url": null
  }
]