[
  {
    "name": "Dr. Bhagaban Sahu",
    "address": "LIC Colony, Brahmapur, Bhanjanagar, Odisha",
    "phone": "Dr. Bhagaban Sahu",
    "hours": null,
    "image_url": "https://www.bing.com/maps/geoplat/REST/v1/Imagery/Map/RoadVibrant?ms=92,112&key=AnTcaqBi2ypp0xI-OZNi4W_ik2KhjgpqioTAtXLC8GzkMBQRMlyxvxyTnd5b73im&c=en-US&ur=in&da=n&logo=n&fmt=png&od=1&shading=hill&pp=19.9286,84.578201;dfp"
  },
  {
    "name": "Aarogya Pharma and Clinic",
    "address": "Infront of SBI, Phulnakhara, Odisha",
    "phone": "Aarogya Pharma and Clinic",
    "hours": null,
    "image_url": "https://www.bing.com/maps/geoplat/REST/v1/Imagery/Map/RoadVibrant?ms=92,112&key=AnTcaqBi2ypp0xI-OZNi4W_ik2KhjgpqioTAtXLC8GzkMBQRMlyxvxyTnd5b73im&c=en-US&ur=in&da=n&logo=n&fmt=png&od=1&shading=hill&pp=20.513044,84.428543;dfp"
  },
  {
    "name": "Masterdoctor Clinic -Balangir - Best Diabetes Clinic & Diabetologist Dr B Jagadish",
    "address": "Jyadurga Medical Store, Sudpada, Near Govt Headquarter Hospital, Balangir, Odisha 767001, MOB  …",
    "phone": "Masterdoctor Clinic -Balangir - Best Diabetes Clinic & Diabetologist Dr B Jagadish",
    "hours": "Open· Closes 20:00",
    "image_url": "/th?id=OLC.aP68RBMzDdr8PA480x360&w=92&h=134&c=8&rs=1&qlt=80&cdv=1&pid=Local"
  },
  {
    "name": "Masterdoctor Clinic - Sonepur - Best Diabetes Clinic with Best Diabetologist Dr B Jagadish",
    "address": "Remedy Medical Store, SBI Road, Near Union Bank, Sonepur 767017",
    "phone": "Masterdoctor Clinic - Sonepur - Best Diabetes Clinic with Best Diabetologist Dr B Jagadish",
    "hours": "Open· Closes 21:00",
    "image_url": "https://www.bing.com/maps/geoplat/REST/v1/Imagery/Map/RoadVibrant?ms=92,134&key=AnTcaqBi2ypp0xI-OZNi4W_ik2KhjgpqioTAtXLC8GzkMBQRMlyxvxyTnd5b73im&c=en-US&ur=in&da=n&logo=n&fmt=png&od=1&shading=hill&pp=20.844467,83.909515;dfp"
  },
  {
    "name": "Dr. Bichitra Nanda Acharya | General Physician",
    "address": "Acharya Colony, Balliguda, Odisha, India, 762103, Balliguda, Madhya Pradesh 762103",
    "phone": "Dr. Bichitra Nanda Acharya | General Physician",
    "hours": "Open· Closes 18:00",
    "image_url": "/th?id=OLC.Tt4YhjuvPG01rA480x360&w=92&h=134&c=8&rs=1&qlt=80&cdv=1&pid=Local"
  },
  {
    "name": "Dr Lal PathLabs – Patient Service Centre",
    "address": "Jagannath Lodge Building, Township, Nalco Township, Odisha",
    "phone": "Dr Lal PathLabs – Patient Service Centre",
    "hours": null,
    "image_url": "https://www.bing.com/maps/geoplat/REST/v1/Imagery/Map/RoadVibrant?ms=92,112&key=AnTcaqBi2ypp0xI-OZNi4W_ik2KhjgpqioTAtXLC8GzkMBQRMlyxvxyTnd5b73im&c=en-US&ur=in&da=n&logo=n&fmt=png&od=1&shading=hill&pp=20.513044,84.428543;dfp"
  },
  {
    "name": "OBGYN. Dr Mishra'clinic",
    "address": "PF4J+Q47, Balangir, Odisha",
    "phone": "OBGYN. Dr Mishra'clinic",
    "hours": null,
    "image_url": null
  },
  {
    "name": "Balaji superspecialty clinic. Nayagarh branch.",
    "address": "SH 1, Nayagarh, Odisha",
    "phone": "Balaji superspecialty clinic. Nayagarh branch.",
    "hours": null,
    "image_url": "https://www.bing.com/maps/geoplat/REST/v1/Imagery/Map/RoadVibrant?ms=92,112&key=AnTcaqBi2ypp0xI-OZNi4W_ik2KhjgpqioTAtXLC8GzkMBQRMlyxvxyTnd5b73im&c=en-US&ur=in&da=n&logo=n&fmt=png&od=1&shading=hill&pp=20.477486,84.231483;dfp"
  },
  {
    "name": "Gram Panchayat Gujjibadi",
    "address": "Village Gujjibadi, Tehsil K Nuagan, District Kandhamal, Baligurha, Odisha 762102",
    "phone": "Gram Panchayat Gujjibadi",
    "hours": null,
    "image_url": "https://www.bing.com/maps/geoplat/REST/v1/Imagery/Map/RoadVibrant?ms=92,112&key=AnTcaqBi2ypp0xI-OZNi4W_ik2KhjgpqioTAtXLC8GzkMBQRMlyxvxyTnd5b73im&c=en-US&ur=in&da=n&logo=n&fmt=png&od=1&shading=hill&pp=20.09374,84.147949;dfp"
  },
  {
    "name": "Masterdoctor Clinic - Titlagarh - Best Diabetes Clinic - Best Diabetologist Dr B Jagadish",
    "address": "Nath Care Medicose, Thikadarpada, Titlagarh 767033",
    "phone": "Masterdoctor Clinic - Titlagarh - Best Diabetes Clinic - Best Diabetologist Dr B Jagadish",
    "hours": "Open· Closes 21:00",
    "image_url": null
  }
]