[
  {
    "name": "Shuddhi Clinic",
    "address": "Sidh Bari, Tapovan Chowk, Near Clock Tower, Tehsil Dharmshala, Distt. Kangra, Dharamsala, Himachal Pra…",
    "phone": "Shuddhi Clinic",
    "hours": null,
    "image_url": "/th?id=OLC.z%2f6BB55uNq2qXQ480x360&w=92&h=112&c=8&rs=1&qlt=80&cdv=1&pid=Local"
  },
  {
    "name": "Sri Sai Clinic",
    "address": "Top Floor new. us Stand, Kangra, Himachal Pradesh",
    "phone": "Sri Sai Clinic",
    "hours": "Open· Closes 16:00",
    "image_url": "https://www.bing.com/maps/geoplat/REST/v1/Imagery/Map/RoadVibrant?ms=92,112&key=AnTcaqBi2ypp0xI-OZNi4W_ik2KhjgpqioTAtXLC8GzkMBQRMlyxvxyTnd5b73im&c=en-US&ur=in&da=n&logo=n&fmt=png&od=1&shading=hill&pp=32.101501,76.273315;dfp"
  },
  {
    "name": "Dr. Sandeep Kashyap- Consultant Physician",
    "address": "Dr. Sandeep Kashyap, Son Of Lace, Shree Krupa Ram Village, Tanda Post Hospital, Palampur, Kangada, Him…",
    "phone": "Dr. Sandeep Kashyap- Consultant Physician",
    "hours": "Closed· Opens 14:00",
    "image_url": "/th?id=OLC.OXIoSdKHWarqAg480x360&w=92&h=134&c=8&rs=1&qlt=80&cdv=1&pid=Local"
  },
  {
    "name": "Dr Gaurav Sanyal Clinic",
    "address": "Near . Maharana Pratap Ground, Village : Makrahan, Post : Makrahan, Kangra, Madhya Pradesh 176023",
    "phone": "Dr Gaurav Sanyal Clinic",
    "hours": "Open· Closes 21:00",
    "image_url": "/th?id=OLC.jDCttkYwLiXR8Q480x360&w=92&h=134&c=8&rs=1&qlt=80&cdv=1&pid=Local"
  },
  {
    "name": "Dr. Anu Yarky | General Physician | Shree Balaji Hospital",
    "address": "Shree Balaji Hospital, Balaji Vihar, Kangra, Himachal Pradesh, India, 176001, Kangra, Madhya Pradesh 176…",
    "phone": "Dr. Anu Yarky | General Physician | Shree Balaji Hospital",
    "hours": "Open· Closes 17:00",
    "image_url": "/th?id=OLC.wlcfgf2VtphxwA480x360&w=92&h=134&c=8&rs=1&qlt=80&cdv=1&pid=Local"
  },
  {
    "name": "Shree Balaji Hospital",
    "address": "Near Kangra Bus Stand, Kangra, Himachal Pradesh 176001",
    "phone": "Shree Balaji Hospital",
    "hours": null,
    "image_url": "/th?id=OLC.OyyO88%2fdZo9gMA480x360&w=92&h=112&c=8&rs=1&qlt=80&cdv=1&pid=Local"
  },
  {
    "name": "Pehwa Clinic",
    "address": "Main Market Road, Police Station, Kangra, Himachal Pradesh 176001",
    "phone": "Pehwa Clinic",
    "hours": null,
    "image_url": "https://www.bing.com/maps/geoplat/REST/v1/Imagery/Map/RoadVibrant?ms=92,112&key=AnTcaqBi2ypp0xI-OZNi4W_ik2KhjgpqioTAtXLC8GzkMBQRMlyxvxyTnd5b73im&c=en-US&ur=in&da=n&logo=n&fmt=png&od=1&shading=hill&pp=32.102139,76.271797;dfp"
  },
  {
    "name": "Dr Neena Pahwa Hospital",
    "address": "478m+h7g, Adarsh Colony, Sibkara, Himachal Pradesh 176001, India, Kangra, Himachal Pradesh, Himachal Pr…",
    "phone": "Dr Neena Pahwa Hospital",
    "hours": null,
    "image_url": null
  },
  {
    "name": "Dr.Nisha Munjal Obstetrician-Gynecologist",
    "address": "Fortis Hospital, Opd No. 107, Adarsh Nagar, Kangra, Himachal Pradesh 176001",
    "phone": "Dr.Nisha Munjal Obstetrician-Gynecologist",
    "hours": null,
    "image_url": null
  },
  {
    "name": "Fortis Hospital",
    "address": "Kangra-Dharamshala Road, Kangra, Himachal Pradesh 176001",
    "phone": "Fortis Hospital",
    "hours": null,
    "image_url": "https://www.bing.com/maps/geoplat/REST/v1/Imagery/Map/RoadVibrant?ms=92,112&key=AnTcaqBi2ypp0xI-OZNi4W_ik2KhjgpqioTAtXLC8GzkMBQRMlyxvxyTnd5b73im&c=en-US&ur=in&da=n&logo=n&fmt=png&od=1&shading=hill&pp=32.11602,76.282066;dfp"
  },
  {
    "name": "Dr Vk Mahajan Clinic",
    "address": "Dr. V K Mahajan Clinic, Kangra, Kangra 176001",
    "phone": "Dr Vk Mahajan Clinic",
    "hours": null,
    "image_url": "https://www.bing.com/maps/geoplat/REST/v1/Imagery/Map/RoadVibrant?ms=92,112&key=AnTcaqBi2ypp0xI-OZNi4W_ik2KhjgpqioTAtXLC8GzkMBQRMlyxvxyTnd5b73im&c=en-US&ur=in&da=n&logo=n&fmt=png&od=1&shading=hill&pp=32.105423,76.274185;dfp"
  },
  {
    "name": "V. K. Mahajan Clinic",
    "address": "Nh-20a, Kangra 176001",
    "phone": "V. K. Mahajan Clinic",
    "hours": null,
    "image_url": "https://www.bing.com/maps/geoplat/REST/v1/Imagery/Map/RoadVibrant?ms=92,112&key=AnTcaqBi2ypp0xI-OZNi4W_ik2KhjgpqioTAtXLC8GzkMBQRMlyxvxyTnd5b73im&c=en-US&ur=in&da=n&logo=n&fmt=png&od=1&shading=hill&pp=32.116482,76.28315;dfp"
  },
  {
    "name": "Himalaya Arthritis Centre at Kangra",
    "address": "Sadarpur, Tanda, Kangra, Himachal Pradesh 176001",
    "phone": "Himalaya Arthritis Centre at Kangra",
    "hours": "Closed· Opens Thu 11:00",
    "image_url": "https://www.bing.com/maps/geoplat/REST/v1/Imagery/Map/RoadVibrant?ms=92,134&key=AnTcaqBi2ypp0xI-OZNi4W_ik2KhjgpqioTAtXLC8GzkMBQRMlyxvxyTnd5b73im&c=en-US&ur=in&da=n&logo=n&fmt=png&od=1&shading=hill&pp=32.100201,76.308113;dfp"
  },
  {
    "name": "Atharva Ayurdhama Ayurveda Hospital And Research Center Kangra",
    "address": "Jogipur Rd, Near Govt. High School, Kangra, Himachal Pradesh 176001, India, Kangra, Himachal Pradesh, Hi…",
    "phone": "Atharva Ayurdhama Ayurveda Hospital And Research Center Kangra",
    "hours": "Open· Closes 07:00",
    "image_url": "https://www.bing.com/maps/geoplat/REST/v1/Imagery/Map/RoadVibrant?ms=92,134&key=AnTcaqBi2ypp0xI-OZNi4W_ik2KhjgpqioTAtXLC8GzkMBQRMlyxvxyTnd5b73im&c=en-US&ur=in&da=n&logo=n&fmt=png&od=1&shading=hill&pp=32.102814,76.273384;dfp"
  },
  {
    "name": "City Hospitals",
    "address": "Matour Palampur Road, Opposite Sant Hyundai Showroom, Kangra, Madhya Pradesh 176001",
    "phone": "City Hospitals",
    "hours": null,
    "image_url": null
  },
  {
    "name": "Medicover Fertility Clinic & IVF Centre - Kangra",
    "address": "First Floor, City Hospital Matour, Palampur Rd, opp. Sant Hyundai, Ghurkari Khas, Himachal Pradesh",
    "phone": "Medicover Fertility Clinic & IVF Centre - Kangra",
    "hours": null,
    "image_url": "https://www.bing.com/maps/geoplat/REST/v1/Imagery/Map/RoadVibrant?ms=92,112&key=AnTcaqBi2ypp0xI-OZNi4W_ik2KhjgpqioTAtXLC8GzkMBQRMlyxvxyTnd5b73im&c=en-US&ur=in&da=n&logo=n&fmt=png&od=1&shading=hill&pp=32.129261,76.294968;dfp"
  }
]