[
  {
    "name": "Dr Kalid Clinic",
    "address": "Kannauj Main Road Gwala Maidan, Kannauj, Uttar Pradesh 209725",
    "phone": "Dr Kalid Clinic",
    "hours": null,
    "image_url": "https://www.bing.com/maps/geoplat/REST/v1/Imagery/Map/RoadVibrant?ms=92,112&key=AnTcaqBi2ypp0xI-OZNi4W_ik2KhjgpqioTAtXLC8GzkMBQRMlyxvxyTnd5b73im&c=en-US&ur=in&da=n&logo=n&fmt=png&od=1&shading=hill&pp=27.055157,79.921303;dfp"
  },
  {
    "name": "New X Clinic",
    "address": "Badabazar Road, Budhawar Road, Kannauj, Uttar Pradesh 209725",
    "phone": "New X Clinic",
    "hours": null,
    "image_url": "https://www.bing.com/maps/geoplat/REST/v1/Imagery/Map/RoadVibrant?ms=92,112&key=AnTcaqBi2ypp0xI-OZNi4W_ik2KhjgpqioTAtXLC8GzkMBQRMlyxvxyTnd5b73im&c=en-US&ur=in&da=n&logo=n&fmt=png&od=1&shading=hill&pp=27.055544,79.919479;dfp"
  },
  {
    "name": "Dr.shakeel Ahemad",
    "address": "Unnamed Rd, Kannauj, Uttar Pradesh 209725, India, Kannauj, Uttar Pradesh 209725",
    "phone": "Dr.shakeel Ahemad",
    "hours": null,
    "image_url": "https://www.bing.com/maps/geoplat/REST/v1/Imagery/Map/RoadVibrant?ms=92,112&key=AnTcaqBi2ypp0xI-OZNi4W_ik2KhjgpqioTAtXLC8GzkMBQRMlyxvxyTnd5b73im&c=en-US&ur=in&da=n&logo=n&fmt=png&od=1&shading=hill&pp=27.053089,79.922005;dfp"
  },
  {
    "name": "Anju Clinic",
    "address": "Gowrishankar Road Safdar Gunj, Saraimeera Kannauj, Uttar Pradesh 209725",
    "phone": "Anju Clinic",
    "hours": null,
    "image_url": "https://www.bing.com/maps/geoplat/REST/v1/Imagery/Map/RoadVibrant?ms=92,112&key=AnTcaqBi2ypp0xI-OZNi4W_ik2KhjgpqioTAtXLC8GzkMBQRMlyxvxyTnd5b73im&c=en-US&ur=in&da=n&logo=n&fmt=png&od=1&shading=hill&pp=27.030931,79.919548;dfp"
  },
  {
    "name": "Panne Lal Clinic",
    "address": "Gt Road, New Gupta Light And Sound Service, Kannauj City, Kannauj, Uttar Pradesh 209726",
    "phone": "Panne Lal Clinic",
    "hours": null,
    "image_url": "https://www.bing.com/maps/geoplat/REST/v1/Imagery/Map/RoadVibrant?ms=92,112&key=AnTcaqBi2ypp0xI-OZNi4W_ik2KhjgpqioTAtXLC8GzkMBQRMlyxvxyTnd5b73im&c=en-US&ur=in&da=n&logo=n&fmt=png&od=1&shading=hill&pp=27.04253,79.906349;dfp"
  },
  {
    "name": "Ravi Clinic",
    "address": "01, Mohalla Greshiganj, Vishunghar Road, Chhibramau, Kannauj, Uttar Pradesh 209721",
    "phone": "Ravi Clinic",
    "hours": null,
    "image_url": "https://www.bing.com/maps/geoplat/REST/v1/Imagery/Map/RoadVibrant?ms=92,112&key=AnTcaqBi2ypp0xI-OZNi4W_ik2KhjgpqioTAtXLC8GzkMBQRMlyxvxyTnd5b73im&c=en-US&ur=in&da=n&logo=n&fmt=png&od=1&shading=hill&pp=27.030149,79.918083;dfp"
  },
  {
    "name": "Vishwas Clinic",
    "address": "Kannauj Road, Axis Bank, Subhash Nagar Tirwaganj, Tirwaganj, Uttar Pradesh 209732",
    "phone": "Vishwas Clinic",
    "hours": null,
    "image_url": "https://www.bing.com/maps/geoplat/REST/v1/Imagery/Map/RoadVibrant?ms=92,112&key=AnTcaqBi2ypp0xI-OZNi4W_ik2KhjgpqioTAtXLC8GzkMBQRMlyxvxyTnd5b73im&c=en-US&ur=in&da=n&logo=n&fmt=png&od=1&shading=hill&pp=26.961926,79.791084;dfp"
  },
  {
    "name": "Umang Eye Clinic",
    "address": "Ajaypal Road, Shiv Mandir, Rani Cha, Kannauj, Uttar Pradesh 209725",
    "phone": "Umang Eye Clinic",
    "hours": null,
    "image_url": "https://www.bing.com/maps/geoplat/REST/v1/Imagery/Map/RoadVibrant?ms=92,112&key=AnTcaqBi2ypp0xI-OZNi4W_ik2KhjgpqioTAtXLC8GzkMBQRMlyxvxyTnd5b73im&c=en-US&ur=in&da=n&logo=n&fmt=png&od=1&shading=hill&pp=27.053246,79.916344;dfp"
  },
  {
    "name": "100 Shaiyya Yukta Sanyukta Chikitsalaya",
    "address": "Nh91 Grand Trunk Road, Kannauj, Uttar Pradesh 209725",
    "phone": "100 Shaiyya Yukta Sanyukta Chikitsalaya",
    "hours": null,
    "image_url": "https://www.bing.com/maps/geoplat/REST/v1/Imagery/Map/RoadVibrant?ms=92,112&key=AnTcaqBi2ypp0xI-OZNi4W_ik2KhjgpqioTAtXLC8GzkMBQRMlyxvxyTnd5b73im&c=en-US&ur=in&da=n&logo=n&fmt=png&od=1&shading=hill&pp=27.013781,79.941124;dfp"
  },
  {
    "name": "Dr.payal Sharma 'physiotherapy and slimming center",
    "address": "New Kacheri Road, Near Bandhan Bank, Sanjivini Clinic, Saraimeera, Uttar Pradesh 209727",
    "phone": "Dr.payal Sharma 'physiotherapy and slimming center",
    "hours": null,
    "image_url": "https://www.bing.com/maps/geoplat/REST/v1/Imagery/Map/RoadVibrant?ms=92,112&key=AnTcaqBi2ypp0xI-OZNi4W_ik2KhjgpqioTAtXLC8GzkMBQRMlyxvxyTnd5b73im&c=en-US&ur=in&da=n&logo=n&fmt=png&od=1&shading=hill&pp=27.027708,79.926498;dfp"
  },
  {
    "name": "Cure Diagnostic Centre",
    "address": "Saraigali, Saraimeera, Kannauj, Uttar Pradesh",
    "phone": "Cure Diagnostic Centre",
    "hours": null,
    "image_url": "https://www.bing.com/maps/geoplat/REST/v1/Imagery/Map/RoadVibrant?ms=92,112&key=AnTcaqBi2ypp0xI-OZNi4W_ik2KhjgpqioTAtXLC8GzkMBQRMlyxvxyTnd5b73im&c=en-US&ur=in&da=n&logo=n&fmt=png&od=1&shading=hill&pp=27.027361,79.929077;dfp"
  },
  {
    "name": "Jay Gurdev Poly Clinic",
    "address": "Thathiya Makanpur Marg, Thathiya, Unnamed Road, Jainpura, Kannauj, Uttar Pradesh 209734",
    "phone": "Jay Gurdev Poly Clinic",
    "hours": null,
    "image_url": "https://www.bing.com/maps/geoplat/REST/v1/Imagery/Map/RoadVibrant?ms=92,112&key=AnTcaqBi2ypp0xI-OZNi4W_ik2KhjgpqioTAtXLC8GzkMBQRMlyxvxyTnd5b73im&c=en-US&ur=in&da=n&logo=n&fmt=png&od=1&shading=hill&pp=26.863239,79.942108;dfp"
  },
  {
    "name": "Dr.Aashish Dubey Physiotherapy",
    "address": "Tirwa Road, Kamla Sadan Flyover, Kannauj, Uttar Pradesh 209727, India, Kannauj, Uttar Pradesh 209727",
    "phone": "Dr.Aashish Dubey Physiotherapy",
    "hours": null,
    "image_url": null
  },
  {
    "name": "Hamdam Dawakhana",
    "address": "Near Geeta Takij, Chhibramau, Tirwa Road, Gursahayganj, Kannauj, Uttar Pradesh 209722",
    "phone": "Hamdam Dawakhana",
    "hours": null,
    "image_url": "https://www.bing.com/maps/geoplat/REST/v1/Imagery/Map/RoadVibrant?ms=92,112&key=AnTcaqBi2ypp0xI-OZNi4W_ik2KhjgpqioTAtXLC8GzkMBQRMlyxvxyTnd5b73im&c=en-US&ur=in&da=n&logo=n&fmt=png&od=1&shading=hill&pp=27.11116,79.729942;dfp"
  },
  {
    "name": "Krishna Pathology Lab",
    "address": "Pal Chauraha, Tirwa Road, Kannauj, Uttar Pradesh 209727",
    "phone": "Krishna Pathology Lab",
    "hours": null,
    "image_url": "https://www.bing.com/maps/geoplat/REST/v1/Imagery/Map/RoadVibrant?ms=92,112&key=AnTcaqBi2ypp0xI-OZNi4W_ik2KhjgpqioTAtXLC8GzkMBQRMlyxvxyTnd5b73im&c=en-US&ur=in&da=n&logo=n&fmt=png&od=1&shading=hill&pp=27.028168,79.913513;dfp"
  },
  {
    "name": "Agri Clinic & Agri Business Centre",
    "address": "Bahadurpur, Kannauj, Tirwa, Kannauj, Uttar Pradesh 209732",
    "phone": "Agri Clinic & Agri Business Centre",
    "hours": null,
    "image_url": "https://www.bing.com/maps/geoplat/REST/v1/Imagery/Map/RoadVibrant?ms=92,112&key=AnTcaqBi2ypp0xI-OZNi4W_ik2KhjgpqioTAtXLC8GzkMBQRMlyxvxyTnd5b73im&c=en-US&ur=in&da=n&logo=n&fmt=png&od=1&shading=hill&pp=26.96801,79.806557;dfp"
  }
]