[
  {
    "name": "Dr Manish Kumar Arya- Diabetes Specialist | Thyroid doctor, hypertension & General Physician |",
    "address": "Surya Residency, Keshavpuram, Near Kdma World School, Awas Vikas, Kalyanpur, Kanpur, Uttar Pradesh",
    "phone": "Dr Manish Kumar Arya- Diabetes Specialist | Thyroid doctor, hypertension & General Physician |",
    "hours": null,
    "image_url": "https://www.bing.com/maps/geoplat/REST/v1/Imagery/Map/RoadVibrant?ms=92,112&key=AnTcaqBi2ypp0xI-OZNi4W_ik2KhjgpqioTAtXLC8GzkMBQRMlyxvxyTnd5b73im&c=en-US&ur=in&da=n&logo=n&fmt=png&od=1&shading=hill&pp=26.495478,80.244812;dfp"
  },
  {
    "name": "Dr. Sanjeev Kakkar",
    "address": "Shop no. 4 Shiv Kripa Apartment, Awas Vikas -1, Kalyanpur, Kanpur, Uttar Pradesh",
    "phone": "Dr. Sanjeev Kakkar",
    "hours": null,
    "image_url": "https://www.bing.com/maps/geoplat/REST/v1/Imagery/Map/RoadVibrant?ms=92,112&key=AnTcaqBi2ypp0xI-OZNi4W_ik2KhjgpqioTAtXLC8GzkMBQRMlyxvxyTnd5b73im&c=en-US&ur=in&da=n&logo=n&fmt=png&od=1&shading=hill&pp=26.496014,80.250366;dfp"
  },
  {
    "name": "Dr. Anjum Gupta",
    "address": "Kalyanpur Road, Near Vikas Enterprises, Awas Vikas Ambedkarpuram, Kalyanpur, Kanpur, Uttar Pradesh 20…",
    "phone": "Dr. Anjum Gupta",
    "hours": null,
    "image_url": "https://www.bing.com/maps/geoplat/REST/v1/Imagery/Map/RoadVibrant?ms=92,112&key=AnTcaqBi2ypp0xI-OZNi4W_ik2KhjgpqioTAtXLC8GzkMBQRMlyxvxyTnd5b73im&c=en-US&ur=in&da=n&logo=n&fmt=png&od=1&shading=hill&pp=26.494545,80.251328;dfp"
  },
  {
    "name": "Dr. Pawan Kaul",
    "address": "JK Mandir Road, Near Reebok Showroom, Lajpat Nagar, Narainpurwa, Kanpur, Uttar Pradesh 208005",
    "phone": "Dr. Pawan Kaul",
    "hours": "Closed· Opens 12:00",
    "image_url": "https://www.bing.com/maps/geoplat/REST/v1/Imagery/Map/RoadVibrant?ms=92,134&key=AnTcaqBi2ypp0xI-OZNi4W_ik2KhjgpqioTAtXLC8GzkMBQRMlyxvxyTnd5b73im&c=en-US&ur=in&da=n&logo=n&fmt=png&od=1&shading=hill&pp=26.497944,80.25174;dfp"
  },
  {
    "name": "Dr. S.K. Kapoor",
    "address": "Kalyanpur Road, Near Sunny Enterprises, Awas Vikas Ambedkarpuram, Kalyanpur, Kanpur, Uttar Pradesh 20…",
    "phone": "Dr. S.K. Kapoor",
    "hours": null,
    "image_url": "https://www.bing.com/maps/geoplat/REST/v1/Imagery/Map/RoadVibrant?ms=92,112&key=AnTcaqBi2ypp0xI-OZNi4W_ik2KhjgpqioTAtXLC8GzkMBQRMlyxvxyTnd5b73im&c=en-US&ur=in&da=n&logo=n&fmt=png&od=1&shading=hill&pp=26.494045,80.250702;dfp"
  },
  {
    "name": "Dr.manish kumar (Health care clinic)",
    "address": "143 Ratanpur Naankaari IIT Khanpur, Kanpur, Uttar Pradesh, India, 208016, Kanpur, Madhya Pradesh 208…",
    "phone": "Dr.manish kumar (Health care clinic)",
    "hours": "Open· Closes 20:00",
    "image_url": "/th?id=OLC.te1Q9pgxX%2b8GcQ480x360&w=92&h=134&c=8&rs=1&qlt=80&cdv=1&pid=Local"
  },
  {
    "name": "Dr. R.P. Singh",
    "address": "Panki Road, Near Sunny Enterprises, Awas Vikas Ambedkarpuram, Kalyanpur, Kanpur, Uttar Pradesh 20…",
    "phone": "Dr. R.P. Singh",
    "hours": null,
    "image_url": "https://www.bing.com/maps/geoplat/REST/v1/Imagery/Map/RoadVibrant?ms=92,112&key=AnTcaqBi2ypp0xI-OZNi4W_ik2KhjgpqioTAtXLC8GzkMBQRMlyxvxyTnd5b73im&c=en-US&ur=in&da=n&logo=n&fmt=png&od=1&shading=hill&pp=26.494999,80.249802;dfp"
  },
  {
    "name": "Madhavbaug clinic indira nagar",
    "address": "Patrakarpuram - Indira Nagar Rd, Mukherjee Vihar, Khyora, Kanpur, Uttar Pradesh",
    "phone": "Madhavbaug clinic indira nagar",
    "hours": null,
    "image_url": "https://www.bing.com/maps/geoplat/REST/v1/Imagery/Map/RoadVibrant?ms=92,112&key=AnTcaqBi2ypp0xI-OZNi4W_ik2KhjgpqioTAtXLC8GzkMBQRMlyxvxyTnd5b73im&c=en-US&ur=in&da=n&logo=n&fmt=png&od=1&shading=hill&pp=26.506695,80.275429;dfp"
  },
  {
    "name": "Sushrut ENT & Multi-speciality Hospital - Dr. Madhukar Vashistha",
    "address": "in Front of Divinity Apartments, Indira Nagar, Kalyanpur, Kanpur, Uttar Pradesh",
    "phone": "Sushrut ENT & Multi-speciality Hospital - Dr. Madhukar Vashistha",
    "hours": "Closed· Opens 11:00",
    "image_url": null
  },
  {
    "name": "Dr. Vikas Gupta- Paediatrics",
    "address": "Vikas Gupta Clinic, Shastri Nagar, Kali Mathiya Mandir Chauraha, Kanpur, Uttar Pradesh 208005",
    "phone": "Dr. Vikas Gupta- Paediatrics",
    "hours": "Open· Closes 21:00",
    "image_url": "https://www.bing.com/maps/geoplat/REST/v1/Imagery/Map/RoadVibrant?ms=92,134&key=AnTcaqBi2ypp0xI-OZNi4W_ik2KhjgpqioTAtXLC8GzkMBQRMlyxvxyTnd5b73im&c=en-US&ur=in&da=n&logo=n&fmt=png&od=1&shading=hill&pp=26.466143,80.230156;dfp"
  },
  {
    "name": "Dr Abhinit Gupta Cardiologist",
    "address": "62/A Pandu Nagar Road, Kanpur, Uttar Pradesh 208005",
    "phone": "Dr Abhinit Gupta Cardiologist",
    "hours": "Open· Closes 19:00",
    "image_url": null
  },
  {
    "name": "Dr. Vikas Gupta",
    "address": "Shop No.1, Bithoor Road, Near DPS, Kalyanpur, Kanpur Nagar, Kanpur, Uttar Pradesh",
    "phone": "Dr. Vikas Gupta",
    "hours": "Closed· Opens 17:00",
    "image_url": null
  },
  {
    "name": "Dr. Pradeep Sharma",
    "address": "EWS 1033, Awas Vikas, Near Awas Vikas-3 Tempo Stand, Kanpur - 208017, Kanpur, Uttar Pradesh",
    "phone": "Dr. Pradeep Sharma",
    "hours": "Open· Closes 11:00",
    "image_url": "https://www.bing.com/maps/geoplat/REST/v1/Imagery/Map/RoadVibrant?ms=92,112&key=AnTcaqBi2ypp0xI-OZNi4W_ik2KhjgpqioTAtXLC8GzkMBQRMlyxvxyTnd5b73im&c=en-US&ur=in&da=n&logo=n&fmt=png&od=1&shading=hill&pp=26.48415,80.241371;dfp"
  },
  {
    "name": "Dr. Shashank Mathur",
    "address": "Rawatpur Crossing Road, Near Ratandeep Hospital, Sarvodaya Nagar, Kanpur, Uttar Pradesh 208005",
    "phone": "Dr. Shashank Mathur",
    "hours": null,
    "image_url": "https://www.bing.com/maps/geoplat/REST/v1/Imagery/Map/RoadVibrant?ms=92,112&key=AnTcaqBi2ypp0xI-OZNi4W_ik2KhjgpqioTAtXLC8GzkMBQRMlyxvxyTnd5b73im&c=en-US&ur=in&da=n&logo=n&fmt=png&od=1&shading=hill&pp=26.479441,80.300598;dfp"
  },
  {
    "name": "Dr Pawan Singh-M.D Skin|Consultant Regency Hospital Kanpur| Hairloss| Lasers| Skin surgery",
    "address": "Flat G6, Anand Towers, Near Rave Moti, Moti Vihar Society, Rawat Pur, Kanpur, Uttar Pradesh",
    "phone": "Dr Pawan Singh-M.D Skin|Consultant Regency Hospital Kanpur| Hairloss| Lasers| Skin surgery",
    "hours": null,
    "image_url": "https://www.bing.com/maps/geoplat/REST/v1/Imagery/Map/RoadVibrant?ms=92,112&key=AnTcaqBi2ypp0xI-OZNi4W_ik2KhjgpqioTAtXLC8GzkMBQRMlyxvxyTnd5b73im&c=en-US&ur=in&da=n&logo=n&fmt=png&od=1&shading=hill&pp=26.480429,80.298286;dfp"
  },
  {
    "name": "Dr B K Mathur",
    "address": "Akabarpur Road, Mathur Pal Gun House, Akabarpur Kanpur Dehat, Akbarpur, Uttar Pradesh 209101",
    "phone": "Dr B K Mathur",
    "hours": null,
    "image_url": "https://www.bing.com/maps/geoplat/REST/v1/Imagery/Map/RoadVibrant?ms=92,112&key=AnTcaqBi2ypp0xI-OZNi4W_ik2KhjgpqioTAtXLC8GzkMBQRMlyxvxyTnd5b73im&c=en-US&ur=in&da=n&logo=n&fmt=png&od=1&shading=hill&pp=26.379086,79.953583;dfp"
  },
  {
    "name": "Dr. Ashok Kumar",
    "address": "Awadhpuri Road, Khyora, Kanpur, Uttar Pradesh 208024",
    "phone": "Dr. Ashok Kumar",
    "hours": null,
    "image_url": "https://www.bing.com/maps/geoplat/REST/v1/Imagery/Map/RoadVibrant?ms=92,112&key=AnTcaqBi2ypp0xI-OZNi4W_ik2KhjgpqioTAtXLC8GzkMBQRMlyxvxyTnd5b73im&c=en-US&ur=in&da=n&logo=n&fmt=png&od=1&shading=hill&pp=26.49345,80.278046;dfp"
  },
  {
    "name": "Chandni Clinic",
    "address": "Jhansi Road, Bank Of Baroda, Pokhrayan Kanpur Dehat, Pukhrayan, Uttar Pradesh 209112",
    "phone": "Chandni Clinic",
    "hours": null,
    "image_url": "https://www.bing.com/maps/geoplat/REST/v1/Imagery/Map/RoadVibrant?ms=92,112&key=AnTcaqBi2ypp0xI-OZNi4W_ik2KhjgpqioTAtXLC8GzkMBQRMlyxvxyTnd5b73im&c=en-US&ur=in&da=n&logo=n&fmt=png&od=1&shading=hill&pp=26.22168,79.83709;dfp"
  }
]