[
  {
    "name": "Dr. Amar Singh",
    "address": "A/458, Awas Vikas, Hanspuram, Kanpur, Uttar Pradesh 208021",
    "phone": "Dr. Amar Singh",
    "hours": "Open· Closes 13:00",
    "image_url": "https://www.bing.com/maps/geoplat/REST/v1/Imagery/Map/RoadVibrant?ms=92,134&key=AnTcaqBi2ypp0xI-OZNi4W_ik2KhjgpqioTAtXLC8GzkMBQRMlyxvxyTnd5b73im&c=en-US&ur=in&da=n&logo=n&fmt=png&od=1&shading=hill&pp=26.394917,80.310417;dfp"
  },
  {
    "name": "Dr Mohit Sharma Clinic",
    "address": "Plat No 28 Tirambi Awash Vikash, Hanspur Naubasta, Kanpur, Uttar Pradesh 208021",
    "phone": "Dr Mohit Sharma Clinic",
    "hours": null,
    "image_url": "/th?id=OLC.1j%2b9Pdv086hrZA480x360&w=92&h=112&c=8&rs=1&qlt=80&cdv=1&pid=Local"
  },
  {
    "name": "Dr. Monika Gupta",
    "address": "Swastik Hospital And Maternity Centre, 496, Y1 Block Kidwai Nagar, Yashoda Nagar By Pass Road, Kanpur, …",
    "phone": "Dr. Monika Gupta",
    "hours": "Open· Closes 18:00",
    "image_url": "https://www.bing.com/maps/geoplat/REST/v1/Imagery/Map/RoadVibrant?ms=92,134&key=AnTcaqBi2ypp0xI-OZNi4W_ik2KhjgpqioTAtXLC8GzkMBQRMlyxvxyTnd5b73im&c=en-US&ur=in&da=n&logo=n&fmt=png&od=1&shading=hill&pp=26.415684,80.327599;dfp"
  },
  {
    "name": "Dr. Vinod Sankhwar clinic",
    "address": "128/745, Nijam Chauraha, Y Block, Kidwai Nagar, Kanpur, Uttar Pradesh",
    "phone": "Dr. Vinod Sankhwar clinic",
    "hours": null,
    "image_url": "https://www.bing.com/maps/geoplat/REST/v1/Imagery/Map/RoadVibrant?ms=92,112&key=AnTcaqBi2ypp0xI-OZNi4W_ik2KhjgpqioTAtXLC8GzkMBQRMlyxvxyTnd5b73im&c=en-US&ur=in&da=n&logo=n&fmt=png&od=1&shading=hill&pp=26.422482,80.328819;dfp"
  },
  {
    "name": "Sr Homeopathy - Dr. Avashesh Gupta | Dr. Pooja Gupta | Homeopathic Doctor",
    "address": "R 102 Kali Puja Chauraha, N…, Shankaracharya Nagar, Yashoda Nagar",
    "phone": "Sr Homeopathy - Dr. Avashesh Gupta | Dr. Pooja Gupta | Homeopathic Doctor",
    "hours": "Open· Closes 13:45",
    "image_url": "/th?id=OLC.%2fs4PVbrqpPn0bw480x360&w=92&h=134&c=8&rs=1&qlt=80&cdv=1&pid=Local"
  },
  {
    "name": "Dr. Bhaskar",
    "address": "Kidwai Nagar Road, Near UP Kirana Seva Samiti Vidyalaya, Kidwai Nagar, Kanpur, Uttar Pradesh 208011",
    "phone": "Dr. Bhaskar",
    "hours": "Closed· Opens 11:00",
    "image_url": "https://www.bing.com/maps/geoplat/REST/v1/Imagery/Map/RoadVibrant?ms=92,134&key=AnTcaqBi2ypp0xI-OZNi4W_ik2KhjgpqioTAtXLC8GzkMBQRMlyxvxyTnd5b73im&c=en-US&ur=in&da=n&logo=n&fmt=png&od=1&shading=hill&pp=26.428406,80.323303;dfp"
  },
  {
    "name": "Dr. D.S. Rajput",
    "address": "Khandepur Road, Naubasta, Kanpur, Uttar Pradesh 208021",
    "phone": "Dr. D.S. Rajput",
    "hours": null,
    "image_url": "https://www.bing.com/maps/geoplat/REST/v1/Imagery/Map/RoadVibrant?ms=92,112&key=AnTcaqBi2ypp0xI-OZNi4W_ik2KhjgpqioTAtXLC8GzkMBQRMlyxvxyTnd5b73im&c=en-US&ur=in&da=n&logo=n&fmt=png&od=1&shading=hill&pp=26.409372,80.305542;dfp"
  },
  {
    "name": "Dr. Avashesh Gupta",
    "address": "99 - Vasant Vihar, Kanpur, Uttar Pradesh",
    "phone": "Dr. Avashesh Gupta",
    "hours": "Closed· Opens Sep 29 at 10:00",
    "image_url": null
  },
  {
    "name": "Dr. Kuldeep Gupta (pt)",
    "address": "1090/97 Rajeev Bihar Naubasta Kanpur, Kanpur, Uttar Pradesh",
    "phone": "Dr. Kuldeep Gupta (pt)",
    "hours": "Closed· Opens tomorrow 05:00",
    "image_url": "https://www.bing.com/maps/geoplat/REST/v1/Imagery/Map/RoadVibrant?ms=92,112&key=AnTcaqBi2ypp0xI-OZNi4W_ik2KhjgpqioTAtXLC8GzkMBQRMlyxvxyTnd5b73im&c=en-US&ur=in&da=n&logo=n&fmt=png&od=1&shading=hill&pp=26.404449,80.319778;dfp"
  },
  {
    "name": "Dr Arpita Bajpal",
    "address": "128-S/629, S Block, Yashoda Nagar, Opposite Shanidev Mandir, Kanpur, Uttar Pradesh 208011",
    "phone": "Dr Arpita Bajpal",
    "hours": "Closed· Opens 11:00",
    "image_url": null
  },
  {
    "name": "Dr. Gyanendra Kumar Saxena",
    "address": "553, Faithful Ganj, Cantt, Landmark : Near Ganesh Junior School, Kanpur, Uttar Pradesh",
    "phone": "Dr. Gyanendra Kumar Saxena",
    "hours": "Closed· Opens 12:30",
    "image_url": null
  },
  {
    "name": "Asclepius Clinic",
    "address": "B-369, Near State Bank of India, Naubasta, Hamirpur Road, Kanpur 208021",
    "phone": "Asclepius Clinic",
    "hours": null,
    "image_url": "https://www.bing.com/maps/geoplat/REST/v1/Imagery/Map/RoadVibrant?ms=92,112&key=AnTcaqBi2ypp0xI-OZNi4W_ik2KhjgpqioTAtXLC8GzkMBQRMlyxvxyTnd5b73im&c=en-US&ur=in&da=n&logo=n&fmt=png&od=1&shading=hill&pp=26.400955,80.314262;dfp"
  },
  {
    "name": "Sushrut ENT & Multi-speciality Hospital - Dr. Madhukar Vashistha",
    "address": "in Front of Divinity Apartments, Indira Nagar, Kalyanpur, Kanpur, Uttar Pradesh",
    "phone": "Sushrut ENT & Multi-speciality Hospital - Dr. Madhukar Vashistha",
    "hours": "Closed· Opens 11:00",
    "image_url": null
  },
  {
    "name": "Dr. RD Prasad Clinic",
    "address": "Shiv Katra Road, Pujya Mahatma Gandhi Higher Secondary School, Kanpur, Uttar Pradesh 208007",
    "phone": "Dr. RD Prasad Clinic",
    "hours": null,
    "image_url": "https://www.bing.com/maps/geoplat/REST/v1/Imagery/Map/RoadVibrant?ms=92,112&key=AnTcaqBi2ypp0xI-OZNi4W_ik2KhjgpqioTAtXLC8GzkMBQRMlyxvxyTnd5b73im&c=en-US&ur=in&da=n&logo=n&fmt=png&od=1&shading=hill&pp=26.418079,80.382309;dfp"
  },
  {
    "name": "Dr. J.P.Singh",
    "address": "K Block, Kidwainagar, Kanpur",
    "phone": "Dr. J.P.Singh",
    "hours": "Closed· Opens 18:00",
    "image_url": null
  },
  {
    "name": "Dr. Tarun Nigam Manas Manorog - Neuropsychiatric Clinic",
    "address": "583, Ratanlal Nagar, Near Bank Of Baroda, Kanpur, Uttar Pradesh 208022",
    "phone": "Dr. Tarun Nigam Manas Manorog - Neuropsychiatric Clinic",
    "hours": "Open· Closes 14:00",
    "image_url": null
  },
  {
    "name": "Dr. Abhimanyu Kapoor (m.Ch)",
    "address": "A-4, Sarvodaya Nagar, Kanpur, Uttar Pradesh",
    "phone": "Dr. Abhimanyu Kapoor (m.Ch)",
    "hours": "Open· Closes 16:00",
    "image_url": null
  },
  {
    "name": "Dr. Siddharth Mittal",
    "address": "120/611A Narayni Complex, Kanpur, Uttar Pradesh",
    "phone": "Dr. Siddharth Mittal",
    "hours": "Open· Closes 12:00",
    "image_url": null
  }
]