[
  {
    "name": "Dr. Navdeep Singh",
    "address": "CD2, Near Bukarkhana Chowk, Uphc Araika Mohalla, Kapurthala, Punjab 144602",
    "phone": "Dr. Navdeep Singh",
    "hours": "Open· Closes 14:00",
    "image_url": "https://www.bing.com/maps/geoplat/REST/v1/Imagery/Map/RoadVibrant?ms=92,134&key=AnTcaqBi2ypp0xI-OZNi4W_ik2KhjgpqioTAtXLC8GzkMBQRMlyxvxyTnd5b73im&c=en-US&ur=in&da=n&logo=n&fmt=png&od=1&shading=hill&pp=31.378292,75.372795;dfp"
  },
  {
    "name": "Dr DP Aggarwal Clinic",
    "address": "Amritsar Road, Model Town, Kapurthala, Punjab 144601",
    "phone": "Dr DP Aggarwal Clinic",
    "hours": null,
    "image_url": "https://www.bing.com/maps/geoplat/REST/v1/Imagery/Map/RoadVibrant?ms=92,112&key=AnTcaqBi2ypp0xI-OZNi4W_ik2KhjgpqioTAtXLC8GzkMBQRMlyxvxyTnd5b73im&c=en-US&ur=in&da=n&logo=n&fmt=png&od=1&shading=hill&pp=31.38312,75.384537;dfp"
  },
  {
    "name": "SPS Clinic",
    "address": "1 Link Road, Kapurthala, Punjab 144601",
    "phone": "SPS Clinic",
    "hours": "Closed· Opens 11:00",
    "image_url": "https://www.bing.com/maps/geoplat/REST/v1/Imagery/Map/RoadVibrant?ms=92,134&key=AnTcaqBi2ypp0xI-OZNi4W_ik2KhjgpqioTAtXLC8GzkMBQRMlyxvxyTnd5b73im&c=en-US&ur=in&da=n&logo=n&fmt=png&od=1&shading=hill&pp=31.381035,75.388214;dfp"
  },
  {
    "name": "Dr Ranvir Kaushals Hospital",
    "address": "Near Sultanpur Road, Paramjit Pura, Kapurthala, Punjab 144601",
    "phone": "Dr Ranvir Kaushals Hospital",
    "hours": null,
    "image_url": "https://www.bing.com/maps/geoplat/REST/v1/Imagery/Map/RoadVibrant?ms=92,112&key=AnTcaqBi2ypp0xI-OZNi4W_ik2KhjgpqioTAtXLC8GzkMBQRMlyxvxyTnd5b73im&c=en-US&ur=in&da=n&logo=n&fmt=png&od=1&shading=hill&pp=31.372923,75.377808;dfp"
  },
  {
    "name": "Dr SS Gill Clinic",
    "address": "Kanji Road, Keseran Bazar, Kapurthala, Punjab 144601",
    "phone": "Dr SS Gill Clinic",
    "hours": null,
    "image_url": "https://www.bing.com/maps/geoplat/REST/v1/Imagery/Map/RoadVibrant?ms=92,112&key=AnTcaqBi2ypp0xI-OZNi4W_ik2KhjgpqioTAtXLC8GzkMBQRMlyxvxyTnd5b73im&c=en-US&ur=in&da=n&logo=n&fmt=png&od=1&shading=hill&pp=31.38031,75.38279;dfp"
  },
  {
    "name": "Singh Clinic",
    "address": "Jalandhar Road, Model Town, Kapurthala, Punjab 144601",
    "phone": "Singh Clinic",
    "hours": null,
    "image_url": "/th?id=OLC.NliC%2fcdvg2ZS%2fg480x360&w=92&h=112&c=8&rs=1&qlt=80&cdv=1&pid=Local"
  },
  {
    "name": "Dr. Premjit Singh- Orthopedics",
    "address": "JJ Trauma Center & Thind Hospital, Near Peer Choudhary Dargah, Tagore Nagar, Kapurthala, Punjab …",
    "phone": "Dr. Premjit Singh- Orthopedics",
    "hours": "Open· Closes 21:00",
    "image_url": "https://www.bing.com/maps/geoplat/REST/v1/Imagery/Map/RoadVibrant?ms=92,134&key=AnTcaqBi2ypp0xI-OZNi4W_ik2KhjgpqioTAtXLC8GzkMBQRMlyxvxyTnd5b73im&c=en-US&ur=in&da=n&logo=n&fmt=png&od=1&shading=hill&pp=31.375473,75.401039;dfp"
  },
  {
    "name": "Shuddhi Clinic Kapurthala",
    "address": "SCO. 33, Kailash Tower, Jama Masjid Complex, Masjid Chowk, Kapurthala, Punjab 144601",
    "phone": "Shuddhi Clinic Kapurthala",
    "hours": "Open· Closes 18:00",
    "image_url": null
  },
  {
    "name": "Puri Medical Hall",
    "address": "OPP OLD Civil Hospital, Sultanpur Lodhi, Kapurthala, Punjab 144626",
    "phone": "Puri Medical Hall",
    "hours": "Closed· Opens Thu 17:00",
    "image_url": null
  },
  {
    "name": "Dr Mehmi Doaba Hospital & Trauma Center",
    "address": "Kapurthala Sultanpur Road, Bsnl Exchange Colony, Kapurthala, Punjab 144601",
    "phone": "Dr Mehmi Doaba Hospital & Trauma Center",
    "hours": null,
    "image_url": null
  },
  {
    "name": "Dr. Harjjit Singh Batra | Chest Specialist",
    "address": "Mohabbat Nagar opp Bhile di Chakki, Kapurthala, Punjab, India, 144601, Kapurthala, Madhya Pradesh 144601",
    "phone": "Dr. Harjjit Singh Batra | Chest Specialist",
    "hours": "Open· Closes 18:00",
    "image_url": null
  },
  {
    "name": "Dr. Nirbhay Dogra",
    "address": "1st Floor, Bus Stand Road, Kapurthala, Punjab",
    "phone": "Dr. Nirbhay Dogra",
    "hours": "Open· Closes 14:00",
    "image_url": null
  },
  {
    "name": "Tamanna Kidney Care",
    "address": "4th Floor, Joshi Hospital Kapurthala Chowk, Jalandhar, Punjab",
    "phone": "Tamanna Kidney Care",
    "hours": null,
    "image_url": "https://www.bing.com/maps/geoplat/REST/v1/Imagery/Map/RoadVibrant?ms=92,112&key=AnTcaqBi2ypp0xI-OZNi4W_ik2KhjgpqioTAtXLC8GzkMBQRMlyxvxyTnd5b73im&c=en-US&ur=in&da=n&logo=n&fmt=png&od=1&shading=hill&pp=31.37137,75.404869;dfp"
  },
  {
    "name": "Sargodhia Skin & Mind Care Clinic",
    "address": "20 Jagatjit Park, Kapurthala, Punjab 144601",
    "phone": "Sargodhia Skin & Mind Care Clinic",
    "hours": null,
    "image_url": "https://www.bing.com/maps/geoplat/REST/v1/Imagery/Map/RoadVibrant?ms=92,112&key=AnTcaqBi2ypp0xI-OZNi4W_ik2KhjgpqioTAtXLC8GzkMBQRMlyxvxyTnd5b73im&c=en-US&ur=in&da=n&logo=n&fmt=png&od=1&shading=hill&pp=31.373234,75.378067;dfp"
  },
  {
    "name": "Dr. Nandha Dental Clinic Kapurthala",
    "address": "Shop 56 State Gurudwara Market Randhir College Road, Kapurthala, Punjab 144602",
    "phone": "Dr. Nandha Dental Clinic Kapurthala",
    "hours": "Open· Closes 18:45",
    "image_url": null
  },
  {
    "name": "Dr Pushkar Bhagat Clinic",
    "address": "Bank Enclave Road, Mithapur Chowk, Bank Colony, Jalandhar, Punjab 144003",
    "phone": "Dr Pushkar Bhagat Clinic",
    "hours": null,
    "image_url": null
  }
]