[
  {
    "name": "Dr Bhuvnesh Bansal",
    "address": "Gulab Bagh, Karauli, Madhya Pradesh 322241",
    "phone": "Dr Bhuvnesh Bansal",
    "hours": "Open· Closes 19:00",
    "image_url": "/th?id=OLC.vdYX%2bJ0iD6ktRQ480x360&w=92&h=134&c=8&rs=1&qlt=80&cdv=1&pid=Local"
  },
  {
    "name": "Dr.R L Koli Clinic",
    "address": "Hospital Road, Karauli, Rajasthan 322241",
    "phone": "Dr.R L Koli Clinic",
    "hours": null,
    "image_url": "https://www.bing.com/maps/geoplat/REST/v1/Imagery/Map/RoadVibrant?ms=92,112&key=AnTcaqBi2ypp0xI-OZNi4W_ik2KhjgpqioTAtXLC8GzkMBQRMlyxvxyTnd5b73im&c=en-US&ur=in&da=n&logo=n&fmt=png&od=1&shading=hill&pp=26.504295,77.027802;dfp"
  },
  {
    "name": "Dr Meena Clinic",
    "address": "Near Gulab Bag Circle, Gangapur Road, Karauli, Rajasthan 322241",
    "phone": "Dr Meena Clinic",
    "hours": null,
    "image_url": "https://www.bing.com/maps/geoplat/REST/v1/Imagery/Map/RoadVibrant?ms=92,112&key=AnTcaqBi2ypp0xI-OZNi4W_ik2KhjgpqioTAtXLC8GzkMBQRMlyxvxyTnd5b73im&c=en-US&ur=in&da=n&logo=n&fmt=png&od=1&shading=hill&pp=26.503448,77.024841;dfp"
  },
  {
    "name": "Dr. Vijay Singh Meena",
    "address": "Makan Number- 13, Gulab Bagh, Karauli, Rajasthan 322255",
    "phone": "Dr. Vijay Singh Meena",
    "hours": "Closed· Opens 14:00",
    "image_url": "/th?id=OLC.Xrsrfef8wMjqqg480x360&w=92&h=134&c=8&rs=1&qlt=80&cdv=1&pid=Local"
  },
  {
    "name": "Dr. Jitendra kumar meena",
    "address": "Gulab Bagh, Karauli, Rajasthan 322255",
    "phone": "Dr. Jitendra kumar meena",
    "hours": "Closed· Opens 15:00",
    "image_url": "https://www.bing.com/maps/geoplat/REST/v1/Imagery/Map/RoadVibrant?ms=92,134&key=AnTcaqBi2ypp0xI-OZNi4W_ik2KhjgpqioTAtXLC8GzkMBQRMlyxvxyTnd5b73im&c=en-US&ur=in&da=n&logo=n&fmt=png&od=1&shading=hill&pp=26.502762,77.024513;dfp"
  },
  {
    "name": "Manthan Ayurveda & Piles Clinic Shri Mahavir Ji",
    "address": "Shri Mahavir ji tah Hindon City, Karauli, Rajasthan 322220",
    "phone": "Manthan Ayurveda & Piles Clinic Shri Mahavir Ji",
    "hours": "Closed· Opens 15:00",
    "image_url": "/th?id=OLC.AiZFalGxGRlxrw480x360&w=92&h=134&c=8&rs=1&qlt=80&cdv=1&pid=Local"
  },
  {
    "name": "Jai Bhole Nath Clinic",
    "address": "Near Police Chauki VAN Vibhag Toda Bhim Toda Bhim, Karauli, Rajasthan 321611",
    "phone": "Jai Bhole Nath Clinic",
    "hours": null,
    "image_url": "https://www.bing.com/maps/geoplat/REST/v1/Imagery/Map/RoadVibrant?ms=92,112&key=AnTcaqBi2ypp0xI-OZNi4W_ik2KhjgpqioTAtXLC8GzkMBQRMlyxvxyTnd5b73im&c=en-US&ur=in&da=n&logo=n&fmt=png&od=1&shading=hill&pp=26.505621,77.024574;dfp"
  },
  {
    "name": "Ramesh Chand",
    "address": "Near Gulab Bag Circle, Gangapur Road, Karauli, Rajasthan 322241",
    "phone": "Ramesh Chand",
    "hours": null,
    "image_url": "https://www.bing.com/maps/geoplat/REST/v1/Imagery/Map/RoadVibrant?ms=92,112&key=AnTcaqBi2ypp0xI-OZNi4W_ik2KhjgpqioTAtXLC8GzkMBQRMlyxvxyTnd5b73im&c=en-US&ur=in&da=n&logo=n&fmt=png&od=1&shading=hill&pp=26.504044,77.026321;dfp"
  },
  {
    "name": "Government Ayurvedic Hospital",
    "address": "Near Shiv Ji Temple, Karauli Road, Karauli, Rajasthan 322219",
    "phone": "Government Ayurvedic Hospital",
    "hours": null,
    "image_url": "https://www.bing.com/maps/geoplat/REST/v1/Imagery/Map/RoadVibrant?ms=92,112&key=AnTcaqBi2ypp0xI-OZNi4W_ik2KhjgpqioTAtXLC8GzkMBQRMlyxvxyTnd5b73im&c=en-US&ur=in&da=n&logo=n&fmt=png&od=1&shading=hill&pp=26.580305,76.947601;dfp"
  },
  {
    "name": "Omprakash Clinic Center",
    "address": "Nadoti Gangapur Road BUS Stand KE Pass Nadoti, Karauli, Rajasthan 322213",
    "phone": "Omprakash Clinic Center",
    "hours": null,
    "image_url": "https://www.bing.com/maps/geoplat/REST/v1/Imagery/Map/RoadVibrant?ms=92,112&key=AnTcaqBi2ypp0xI-OZNi4W_ik2KhjgpqioTAtXLC8GzkMBQRMlyxvxyTnd5b73im&c=en-US&ur=in&da=n&logo=n&fmt=png&od=1&shading=hill&pp=26.788429,76.668068;dfp"
  },
  {
    "name": "Shree Girraj Dharan Diagnostics Center",
    "address": "Near Stadium, Gangapur Road, Karauli, Rajasthan 322241",
    "phone": "Shree Girraj Dharan Diagnostics Center",
    "hours": null,
    "image_url": "https://www.bing.com/maps/geoplat/REST/v1/Imagery/Map/RoadVibrant?ms=92,112&key=AnTcaqBi2ypp0xI-OZNi4W_ik2KhjgpqioTAtXLC8GzkMBQRMlyxvxyTnd5b73im&c=en-US&ur=in&da=n&logo=n&fmt=png&od=1&shading=hill&pp=26.506779,77.025925;dfp"
  },
  {
    "name": "Mamta Sonography Center",
    "address": "Near Police Station, Karauli Hospital Road, Karauli, Rajasthan 322241",
    "phone": "Mamta Sonography Center",
    "hours": null,
    "image_url": "https://www.bing.com/maps/geoplat/REST/v1/Imagery/Map/RoadVibrant?ms=92,112&key=AnTcaqBi2ypp0xI-OZNi4W_ik2KhjgpqioTAtXLC8GzkMBQRMlyxvxyTnd5b73im&c=en-US&ur=in&da=n&logo=n&fmt=png&od=1&shading=hill&pp=26.50149,77.026863;dfp"
  },
  {
    "name": "Homoeopathic Medical Clinic",
    "address": "VPO Mahu Khas, Karauli, Rajasthan 322254",
    "phone": "Homoeopathic Medical Clinic",
    "hours": null,
    "image_url": "https://www.bing.com/maps/geoplat/REST/v1/Imagery/Map/RoadVibrant?ms=92,112&key=AnTcaqBi2ypp0xI-OZNi4W_ik2KhjgpqioTAtXLC8GzkMBQRMlyxvxyTnd5b73im&c=en-US&ur=in&da=n&logo=n&fmt=png&od=1&shading=hill&pp=26.80584,76.919899;dfp"
  },
  {
    "name": "Laxmi clinic & Homeopathic",
    "address": "Suroth, Rajasthan 322252, India, Karauli, Rajasthan 322252",
    "phone": "Laxmi clinic & Homeopathic",
    "hours": null,
    "image_url": null
  },
  {
    "name": "Suvidha Digital X Ray and Diagnostic Centre",
    "address": "Infront OF OLD Rajkiya Chikitsalya, Karauli, Rajasthan 322241",
    "phone": "Suvidha Digital X Ray and Diagnostic Centre",
    "hours": null,
    "image_url": null
  },
  {
    "name": "Narsingh Diagnostic Center",
    "address": "House NO-3, Aravali Nagar, Karauli, Rajasthan 322241",
    "phone": "Narsingh Diagnostic Center",
    "hours": null,
    "image_url": "https://www.bing.com/maps/geoplat/REST/v1/Imagery/Map/RoadVibrant?ms=92,112&key=AnTcaqBi2ypp0xI-OZNi4W_ik2KhjgpqioTAtXLC8GzkMBQRMlyxvxyTnd5b73im&c=en-US&ur=in&da=n&logo=n&fmt=png&od=1&shading=hill&pp=26.491596,77.014603;dfp"
  },
  {
    "name": "Swadesh Opticals",
    "address": "Swadesh Opticals Gulab Bagh Near by Swastik Medical Store, Karauli, Rajasthan 322241",
    "phone": "Swadesh Opticals",
    "hours": "Open· Closes 20:30",
    "image_url": "https://www.bing.com/maps/geoplat/REST/v1/Imagery/Map/RoadVibrant?ms=92,134&key=AnTcaqBi2ypp0xI-OZNi4W_ik2KhjgpqioTAtXLC8GzkMBQRMlyxvxyTnd5b73im&c=en-US&ur=in&da=n&logo=n&fmt=png&od=1&shading=hill&pp=26.50399,77.028198;dfp"
  }
]