[
  {
    "name": "Dr. Ganesh Bala",
    "address": "372, Bharathiyar Road, Kovilpathu Karaikal Landmark: Near new bus Stand, Karaikal, Puducherry",
    "phone": "Dr. Ganesh Bala",
    "hours": "Closed· Opens 18:00",
    "image_url": "https://www.bing.com/maps/geoplat/REST/v1/Imagery/Map/RoadVibrant?ms=92,112&key=AnTcaqBi2ypp0xI-OZNi4W_ik2KhjgpqioTAtXLC8GzkMBQRMlyxvxyTnd5b73im&c=en-US&ur=in&da=n&logo=n&fmt=png&od=1&shading=hill&pp=10.907551,79.846481;dfp"
  },
  {
    "name": "Nandhu Clinic",
    "address": "18/A, Elaikara St, Karaikal, Puducherry",
    "phone": "Nandhu Clinic",
    "hours": null,
    "image_url": "/th?id=OLC.yUAmGUTo1LSoZA480x360&w=92&h=112&c=8&rs=1&qlt=80&cdv=1&pid=Local"
  },
  {
    "name": "Priya Clinic ( Dr.sathishkumar M.b.b.s, M.d, D.diab., (general",
    "address": "Rajathi Nagar, Karaikal, Puducherry 609602, India, Karaikal, Puducherry 609602",
    "phone": "Priya Clinic ( Dr.sathishkumar M.b.b.s, M.d, D.diab., (general",
    "hours": null,
    "image_url": "/th?id=OLC.OScP7E6c4%2b4KZQ480x360&w=92&h=112&c=8&rs=1&qlt=80&cdv=1&pid=Local"
  },
  {
    "name": "Dr.s. Vijaya Shankar, Ent Specialist",
    "address": "56/6, Church St, Karaikal, Puducherry 609602, India, Karaikal, Puducherry 609602",
    "phone": "Dr.s. Vijaya Shankar, Ent Specialist",
    "hours": null,
    "image_url": "https://www.bing.com/maps/geoplat/REST/v1/Imagery/Map/RoadVibrant?ms=92,112&key=AnTcaqBi2ypp0xI-OZNi4W_ik2KhjgpqioTAtXLC8GzkMBQRMlyxvxyTnd5b73im&c=en-US&ur=in&da=n&logo=n&fmt=png&od=1&shading=hill&pp=10.926458,79.834305;dfp"
  },
  {
    "name": "DR.Arun Medical Centre",
    "address": "104, Jawaharlal Nehru Street, Karaikal, Puducherry 609602",
    "phone": "DR.Arun Medical Centre",
    "hours": null,
    "image_url": "https://www.bing.com/maps/geoplat/REST/v1/Imagery/Map/RoadVibrant?ms=92,112&key=AnTcaqBi2ypp0xI-OZNi4W_ik2KhjgpqioTAtXLC8GzkMBQRMlyxvxyTnd5b73im&c=en-US&ur=in&da=n&logo=n&fmt=png&od=1&shading=hill&pp=10.910369,79.835625;dfp"
  },
  {
    "name": "Sri Dhanvanthiri Medical",
    "address": "21/2, Masthan Palli Street, Karaikal, Puducherry 609602",
    "phone": "Sri Dhanvanthiri Medical",
    "hours": null,
    "image_url": "https://www.bing.com/maps/geoplat/REST/v1/Imagery/Map/RoadVibrant?ms=92,112&key=AnTcaqBi2ypp0xI-OZNi4W_ik2KhjgpqioTAtXLC8GzkMBQRMlyxvxyTnd5b73im&c=en-US&ur=in&da=n&logo=n&fmt=png&od=1&shading=hill&pp=10.924377,79.831619;dfp"
  },
  {
    "name": "Primary Health Centre",
    "address": "Nh45a, Chennai Nagapattinam Highway East Coast Road, Varchikudi, Karaikal, Puducherry 609609",
    "phone": "Primary Health Centre",
    "hours": null,
    "image_url": "https://www.bing.com/maps/geoplat/REST/v1/Imagery/Map/RoadVibrant?ms=92,112&key=AnTcaqBi2ypp0xI-OZNi4W_ik2KhjgpqioTAtXLC8GzkMBQRMlyxvxyTnd5b73im&c=en-US&ur=in&da=n&logo=n&fmt=png&od=1&shading=hill&pp=10.985293,79.826653;dfp"
  },
  {
    "name": "French Clinic",
    "address": "Saint Franchis Xavier Church, Nh45a, Kamarajar Road, Karaikal, Puducherry 609602",
    "phone": "French Clinic",
    "hours": null,
    "image_url": "https://www.bing.com/maps/geoplat/REST/v1/Imagery/Map/RoadVibrant?ms=92,112&key=AnTcaqBi2ypp0xI-OZNi4W_ik2KhjgpqioTAtXLC8GzkMBQRMlyxvxyTnd5b73im&c=en-US&ur=in&da=n&logo=n&fmt=png&od=1&shading=hill&pp=10.917449,79.836449;dfp"
  },
  {
    "name": "Dr Agarwals Eye Clinic",
    "address": "Door No 276, Ward No 108, Barathiyar Road, Karaikal, Puducherry 609602",
    "phone": "Dr Agarwals Eye Clinic",
    "hours": "Open· Closes 21:00",
    "image_url": "https://www.bing.com/maps/geoplat/REST/v1/Imagery/Map/RoadVibrant?ms=92,134&key=AnTcaqBi2ypp0xI-OZNi4W_ik2KhjgpqioTAtXLC8GzkMBQRMlyxvxyTnd5b73im&c=en-US&ur=in&da=n&logo=n&fmt=png&od=1&shading=hill&pp=10.928586,79.831848;dfp"
  },
  {
    "name": "Mds Clinic",
    "address": "92 Kamarajar Salai, Karaola, 92, Karamarajar Salai, Karaikal, Puducherry 609602",
    "phone": "Mds Clinic",
    "hours": null,
    "image_url": "https://www.bing.com/maps/geoplat/REST/v1/Imagery/Map/RoadVibrant?ms=92,112&key=AnTcaqBi2ypp0xI-OZNi4W_ik2KhjgpqioTAtXLC8GzkMBQRMlyxvxyTnd5b73im&c=en-US&ur=in&da=n&logo=n&fmt=png&od=1&shading=hill&pp=10.913378,79.842026;dfp"
  },
  {
    "name": "Jayam Homoeopathy Clinic",
    "address": "Plaz, North St, Karaikal, Puducherry 609602, India, Karaikal, Puducherry 609602",
    "phone": "Jayam Homoeopathy Clinic",
    "hours": null,
    "image_url": null
  },
  {
    "name": "Metropolis Healthcare Limited - Pathology Lab, Diagnostic Centre",
    "address": "No 130, Kamarajar Salai, Karaikal, Near Dr Babu Rajendran Clinic, Karaikal, Puducherry 609602",
    "phone": "Metropolis Healthcare Limited - Pathology Lab, Diagnostic Centre",
    "hours": "Open· Closes 20:00",
    "image_url": "https://www.bing.com/maps/geoplat/REST/v1/Imagery/Map/RoadVibrant?ms=92,134&key=AnTcaqBi2ypp0xI-OZNi4W_ik2KhjgpqioTAtXLC8GzkMBQRMlyxvxyTnd5b73im&c=en-US&ur=in&da=n&logo=n&fmt=png&od=1&shading=hill&pp=10.920275,79.837578;dfp"
  },
  {
    "name": "Sugam Acupuncture Clinic",
    "address": "NH32 E & Market Street, Karaikal, Puducherry 609602",
    "phone": "Sugam Acupuncture Clinic",
    "hours": null,
    "image_url": "https://www.bing.com/maps/geoplat/REST/v1/Imagery/Map/RoadVibrant?ms=92,112&key=AnTcaqBi2ypp0xI-OZNi4W_ik2KhjgpqioTAtXLC8GzkMBQRMlyxvxyTnd5b73im&c=en-US&ur=in&da=n&logo=n&fmt=png&od=1&shading=hill&pp=10.922304,79.832649;dfp"
  },
  {
    "name": "Karai Pets Multispeciality Clinic",
    "address": "52 Besant Nagar, Kamaraj Road Thirunallar, Road, Extension, Karaikal, Puducherry",
    "phone": "Karai Pets Multispeciality Clinic",
    "hours": null,
    "image_url": null
  },
  {
    "name": "DR.Praveen's Heart Centre",
    "address": "21, Viola Garden, Nehrunagar, 1St Floor, 1St Cross, Karaikal, Puducherry 609605",
    "phone": "DR.Praveen's Heart Centre",
    "hours": null,
    "image_url": "https://www.bing.com/maps/geoplat/REST/v1/Imagery/Map/RoadVibrant?ms=92,112&key=AnTcaqBi2ypp0xI-OZNi4W_ik2KhjgpqioTAtXLC8GzkMBQRMlyxvxyTnd5b73im&c=en-US&ur=in&da=n&logo=n&fmt=png&od=1&shading=hill&pp=10.937243,79.83107;dfp"
  },
  {
    "name": "Saraswathy Septic Tank Clinic",
    "address": "No, Ambaedkar Nagar, Kovilpathu, No 13, Nagar, Karaikal, Puducherry 609602",
    "phone": "Saraswathy Septic Tank Clinic",
    "hours": null,
    "image_url": "https://www.bing.com/maps/geoplat/REST/v1/Imagery/Map/RoadVibrant?ms=92,112&key=AnTcaqBi2ypp0xI-OZNi4W_ik2KhjgpqioTAtXLC8GzkMBQRMlyxvxyTnd5b73im&c=en-US&ur=in&da=n&logo=n&fmt=png&od=1&shading=hill&pp=10.939535,79.833946;dfp"
  },
  {
    "name": "Sakthi Clinical Lab",
    "address": "Nil, No 77A Main Road Thirunallar P, Karaikal, Puducherry 609607",
    "phone": "Sakthi Clinical Lab",
    "hours": null,
    "image_url": "https://www.bing.com/maps/geoplat/REST/v1/Imagery/Map/RoadVibrant?ms=92,112&key=AnTcaqBi2ypp0xI-OZNi4W_ik2KhjgpqioTAtXLC8GzkMBQRMlyxvxyTnd5b73im&c=en-US&ur=in&da=n&logo=n&fmt=png&od=1&shading=hill&pp=10.923929,79.827995;dfp"
  }
]