[
  {
    "name": "Dr. Prakash Kumar Gupta | Physician",
    "address": "Natun Bazar, Opp. Hojai FRU, Hojai, Assam, Amtola, India, 782435, Amtola, Madhya Pradesh 782435",
    "phone": "Dr. Prakash Kumar Gupta | Physician",
    "hours": "Open· Closes 18:00",
    "image_url": "/th?id=OLC.LtvUNvRDMO4KhA480x360&w=92&h=134&c=8&rs=1&qlt=80&cdv=1&pid=Local"
  },
  {
    "name": "Dr. P. Deb. Homoeo Chamber",
    "address": "Dhobinala, New Market, Dimapur, Nagaland",
    "phone": "Dr. P. Deb. Homoeo Chamber",
    "hours": null,
    "image_url": "https://www.bing.com/maps/geoplat/REST/v1/Imagery/Map/RoadVibrant?ms=92,112&key=AnTcaqBi2ypp0xI-OZNi4W_ik2KhjgpqioTAtXLC8GzkMBQRMlyxvxyTnd5b73im&c=en-US&ur=in&da=n&logo=n&fmt=png&od=1&shading=hill&pp=25.901009,93.720306;dfp"
  },
  {
    "name": "Sushmita Clinic and Diagnostic Centre (Near Barbaruah Puja Field)",
    "address": "Barbaruah Puja Field, Bor Baruah, Assam",
    "phone": "Sushmita Clinic and Diagnostic Centre (Near Barbaruah Puja Field)",
    "hours": null,
    "image_url": "https://www.bing.com/maps/geoplat/REST/v1/Imagery/Map/RoadVibrant?ms=92,112&key=AnTcaqBi2ypp0xI-OZNi4W_ik2KhjgpqioTAtXLC8GzkMBQRMlyxvxyTnd5b73im&c=en-US&ur=in&da=n&logo=n&fmt=png&od=1&shading=hill&pp=26.354389,92.827591;dfp"
  },
  {
    "name": "Inlongso health clinic",
    "address": "Bokajan Block, Amarajan, Assam 782460",
    "phone": "Inlongso health clinic",
    "hours": "Open· Closes 19:00",
    "image_url": "https://www.bing.com/maps/geoplat/REST/v1/Imagery/Map/RoadVibrant?ms=92,134&key=AnTcaqBi2ypp0xI-OZNi4W_ik2KhjgpqioTAtXLC8GzkMBQRMlyxvxyTnd5b73im&c=en-US&ur=in&da=n&logo=n&fmt=png&od=1&shading=hill&pp=26.022024,93.775169;dfp"
  },
  {
    "name": "Dr Piyush Agarwal",
    "address": "Opposite Motiram Bora High School, Nagaon, Assam 782001",
    "phone": "Dr Piyush Agarwal",
    "hours": null,
    "image_url": "https://www.bing.com/maps/geoplat/REST/v1/Imagery/Map/RoadVibrant?ms=92,112&key=AnTcaqBi2ypp0xI-OZNi4W_ik2KhjgpqioTAtXLC8GzkMBQRMlyxvxyTnd5b73im&c=en-US&ur=in&da=n&logo=n&fmt=png&od=1&shading=hill&pp=26.30965,92.694397;dfp"
  },
  {
    "name": "Dr. Arif Khan",
    "address": "Bishnu Pally, Hojai, Assam",
    "phone": "Dr. Arif Khan",
    "hours": null,
    "image_url": "https://www.bing.com/maps/geoplat/REST/v1/Imagery/Map/RoadVibrant?ms=92,112&key=AnTcaqBi2ypp0xI-OZNi4W_ik2KhjgpqioTAtXLC8GzkMBQRMlyxvxyTnd5b73im&c=en-US&ur=in&da=n&logo=n&fmt=png&od=1&shading=hill&pp=26.01553,92.858932;dfp"
  },
  {
    "name": "Dr AMEEN’s Homoeopathy CARE & Research Centre",
    "address": "Dhing Rd, Nagaon, Assam 782002, India, Nagaon, Nagaon 782002",
    "phone": "Dr AMEEN’s Homoeopathy CARE & Research Centre",
    "hours": null,
    "image_url": null
  },
  {
    "name": "Global Pain & Palliative Clinic",
    "address": "Natun Bazar, Hojai, Assam 782435",
    "phone": "Global Pain & Palliative Clinic",
    "hours": null,
    "image_url": "https://www.bing.com/maps/geoplat/REST/v1/Imagery/Map/RoadVibrant?ms=92,112&key=AnTcaqBi2ypp0xI-OZNi4W_ik2KhjgpqioTAtXLC8GzkMBQRMlyxvxyTnd5b73im&c=en-US&ur=in&da=n&logo=n&fmt=png&od=1&shading=hill&pp=26.006495,92.907379;dfp"
  },
  {
    "name": "Doctors Clinic",
    "address": "LNB Rd, Near Assam Gramin Bikash Bank, Mangaldoi, Assam",
    "phone": "Doctors Clinic",
    "hours": null,
    "image_url": "https://www.bing.com/maps/geoplat/REST/v1/Imagery/Map/RoadVibrant?ms=92,112&key=AnTcaqBi2ypp0xI-OZNi4W_ik2KhjgpqioTAtXLC8GzkMBQRMlyxvxyTnd5b73im&c=en-US&ur=in&da=n&logo=n&fmt=png&od=1&shading=hill&pp=26.341249,92.681015;dfp"
  },
  {
    "name": "Dr. Tapan Paul- General Physician",
    "address": "Tapan Paul Clinic, Station Road, Post Office Lanka, Near Sbi Bank Branch, Lanka, Assam 782446",
    "phone": "Dr. Tapan Paul- General Physician",
    "hours": "Open· Closes 13:00",
    "image_url": null
  },
  {
    "name": "Apollo Dialysis Clinics, Diphu",
    "address": "Diphu Medical College P.O: Diphu, Karbi Anglong, Assam 782460",
    "phone": "Apollo Dialysis Clinics, Diphu",
    "hours": "Open· Closes 21:00",
    "image_url": "https://www.bing.com/maps/geoplat/REST/v1/Imagery/Map/RoadVibrant?ms=92,134&key=AnTcaqBi2ypp0xI-OZNi4W_ik2KhjgpqioTAtXLC8GzkMBQRMlyxvxyTnd5b73im&c=en-US&ur=in&da=n&logo=n&fmt=png&od=1&shading=hill&pp=25.829582,93.427177;dfp"
  },
  {
    "name": "Hills Diagnostic Centre",
    "address": "Rongnihang, Diphu-Manja Road, Diphu, Assam 782460",
    "phone": "Hills Diagnostic Centre",
    "hours": null,
    "image_url": null
  },
  {
    "name": "Dr Bikash Homeo Clinic",
    "address": "Puranigudam, Nh37 Assam Trunk Road, Nagaon, Assam 782141",
    "phone": "Dr Bikash Homeo Clinic",
    "hours": null,
    "image_url": "https://www.bing.com/maps/geoplat/REST/v1/Imagery/Map/RoadVibrant?ms=92,112&key=AnTcaqBi2ypp0xI-OZNi4W_ik2KhjgpqioTAtXLC8GzkMBQRMlyxvxyTnd5b73im&c=en-US&ur=in&da=n&logo=n&fmt=png&od=1&shading=hill&pp=26.374887,92.794586;dfp"
  },
  {
    "name": "Aarogya Ent Clinic",
    "address": "Ambari, Pavoi Road, Biswanath Chariali, Assam, Assam 784176",
    "phone": "Aarogya Ent Clinic",
    "hours": "Open· Closes 13:00",
    "image_url": null
  },
  {
    "name": "Apex diagnostic clinic and research center",
    "address": "ABC Building, Opposite Hollotoli School, Naharbari, Dimapur, Nagaland",
    "phone": "Apex diagnostic clinic and research center",
    "hours": null,
    "image_url": "https://www.bing.com/maps/geoplat/REST/v1/Imagery/Map/RoadVibrant?ms=92,112&key=AnTcaqBi2ypp0xI-OZNi4W_ik2KhjgpqioTAtXLC8GzkMBQRMlyxvxyTnd5b73im&c=en-US&ur=in&da=n&logo=n&fmt=png&od=1&shading=hill&pp=25.904997,93.751884;dfp"
  },
  {
    "name": "Dr Lal PathLabs",
    "address": "Near United Bank Of India ATM, Diphu Market, Karbi Anglong, Assam Diphu-782460, Diphu, Assam 782460",
    "phone": "Dr Lal PathLabs",
    "hours": "Open· Closes 19:30",
    "image_url": "https://www.bing.com/maps/geoplat/REST/v1/Imagery/Map/RoadVibrant?ms=92,134&key=AnTcaqBi2ypp0xI-OZNi4W_ik2KhjgpqioTAtXLC8GzkMBQRMlyxvxyTnd5b73im&c=en-US&ur=in&da=n&logo=n&fmt=png&od=1&shading=hill&pp=25.845406,93.439461;dfp"
  },
  {
    "name": "Dimapur Children's Clinic",
    "address": "G.S.Road, West Yard Colony, Marwari Patti, Dimapur, Nagaland",
    "phone": "Dimapur Children's Clinic",
    "hours": null,
    "image_url": null
  },
  {
    "name": "Dr. Sanjoy Dutta",
    "address": "Main Road, Nagaon, Assam",
    "phone": "Dr. Sanjoy Dutta",
    "hours": "Open· Closes 14:00",
    "image_url": null
  }
]