[
  {
    "name": "Dr. Ehsan Ahmed Galib",
    "address": "Station Road, Karimganj, Assam",
    "phone": "Dr. Ehsan Ahmed Galib",
    "hours": "Closed· Opens 14:00",
    "image_url": "/th?id=OLC.P9wYMjI4N9sARg480x360&w=92&h=112&c=8&rs=1&qlt=80&cdv=1&pid=Local"
  },
  {
    "name": "Dr. Smita Bhowmik",
    "address": "Prime Medical Centre, opp. Old Laxmi Cinema Hall, Near Jack & Jill, Hojai, Assam",
    "phone": "Dr. Smita Bhowmik",
    "hours": null,
    "image_url": "https://www.bing.com/maps/geoplat/REST/v1/Imagery/Map/RoadVibrant?ms=92,112&key=AnTcaqBi2ypp0xI-OZNi4W_ik2KhjgpqioTAtXLC8GzkMBQRMlyxvxyTnd5b73im&c=en-US&ur=in&da=n&logo=n&fmt=png&od=1&shading=hill&pp=24.872152,92.355232;dfp"
  },
  {
    "name": "Dr. Ahmed Abbas- Consultant Physician & Diabetologist",
    "address": "Assam Medical Hall, Patherkandi Road, Near Railway Gate, Station Road, Opposite Baby Bakery, Karimganj, …",
    "phone": "Dr. Ahmed Abbas- Consultant Physician & Diabetologist",
    "hours": "Closed· Opens 14:30",
    "image_url": "https://www.bing.com/maps/geoplat/REST/v1/Imagery/Map/RoadVibrant?ms=92,134&key=AnTcaqBi2ypp0xI-OZNi4W_ik2KhjgpqioTAtXLC8GzkMBQRMlyxvxyTnd5b73im&c=en-US&ur=in&da=n&logo=n&fmt=png&od=1&shading=hill&pp=24.86059,92.369469;dfp"
  },
  {
    "name": "নিৰাময় হোমিও ক্লিনিক Niramoy Homoeo Clinic",
    "address": "Qtr no 293/II/C, Bvfcl Colony, Namrup, Assam, Assam 786623",
    "phone": "নিৰাময় হোমিও ক্লিনিক Niramoy Homoeo Clinic",
    "hours": null,
    "image_url": "/th?id=OLC.vl7G3ayJ%2f%2f%2bFxQ480x360&w=92&h=112&c=8&rs=1&qlt=80&cdv=1&pid=Local"
  },
  {
    "name": "Dr. Subhasish’s Diabetes Clinic",
    "address": "Dr. Subhasish's Diabetes Clinic. Swarupalay, Raj Chandra das Road, Karimganj, Assam 787710",
    "phone": "Dr. Subhasish’s Diabetes Clinic",
    "hours": "Closed· Opens 15:00",
    "image_url": "/th?id=OLC.29daAiFJnf5rWA480x360&w=92&h=112&c=8&rs=1&qlt=80&cdv=1&pid=Local"
  },
  {
    "name": "Dr. Supriyo Roy | Diabetologist | Sanjibani Medicos",
    "address": "Sanjibani Medicos, Lokkhi Bazar Road, Karimganj, Assam, India, 788710, Karimganj, Madhya Pradesh 78…",
    "phone": "Dr. Supriyo Roy | Diabetologist | Sanjibani Medicos",
    "hours": "Closed· Opens 18:30",
    "image_url": "https://www.bing.com/maps/geoplat/REST/v1/Imagery/Map/RoadVibrant?ms=92,112&key=AnTcaqBi2ypp0xI-OZNi4W_ik2KhjgpqioTAtXLC8GzkMBQRMlyxvxyTnd5b73im&c=en-US&ur=in&da=n&logo=n&fmt=png&od=1&shading=hill&pp=24.864914,92.359154;dfp"
  },
  {
    "name": "Dr Prashanta Dey",
    "address": "Nagendra Paul Road, Dhalpukhuri, Bishnupally Road, Hojai, Assam 782435",
    "phone": "Dr Prashanta Dey",
    "hours": null,
    "image_url": "https://www.bing.com/maps/geoplat/REST/v1/Imagery/Map/RoadVibrant?ms=92,112&key=AnTcaqBi2ypp0xI-OZNi4W_ik2KhjgpqioTAtXLC8GzkMBQRMlyxvxyTnd5b73im&c=en-US&ur=in&da=n&logo=n&fmt=png&od=1&shading=hill&pp=24.86714,92.356979;dfp"
  },
  {
    "name": "Dr. Adhikari Homeo Hall",
    "address": "Subhash Nagar Road, करीमगंज, Assam 788710",
    "phone": "Dr. Adhikari Homeo Hall",
    "hours": null,
    "image_url": "https://www.bing.com/maps/geoplat/REST/v1/Imagery/Map/RoadVibrant?ms=92,112&key=AnTcaqBi2ypp0xI-OZNi4W_ik2KhjgpqioTAtXLC8GzkMBQRMlyxvxyTnd5b73im&c=en-US&ur=in&da=n&logo=n&fmt=png&od=1&shading=hill&pp=24.863037,92.362549;dfp"
  },
  {
    "name": "Dr Lalpath Lab",
    "address": "Pagla Patty Rd, Karimganj, Assam",
    "phone": "Dr Lalpath Lab",
    "hours": null,
    "image_url": "https://www.bing.com/maps/geoplat/REST/v1/Imagery/Map/RoadVibrant?ms=92,112&key=AnTcaqBi2ypp0xI-OZNi4W_ik2KhjgpqioTAtXLC8GzkMBQRMlyxvxyTnd5b73im&c=en-US&ur=in&da=n&logo=n&fmt=png&od=1&shading=hill&pp=24.870644,92.366745;dfp"
  },
  {
    "name": "Care Clinic",
    "address": "Kanishail, South Karimganj, Patherkandhi Road, Karimganj, Assam 788711",
    "phone": "Care Clinic",
    "hours": null,
    "image_url": "https://www.bing.com/maps/geoplat/REST/v1/Imagery/Map/RoadVibrant?ms=92,112&key=AnTcaqBi2ypp0xI-OZNi4W_ik2KhjgpqioTAtXLC8GzkMBQRMlyxvxyTnd5b73im&c=en-US&ur=in&da=n&logo=n&fmt=png&od=1&shading=hill&pp=24.867033,92.3563;dfp"
  },
  {
    "name": "Dr Lal PathLabs - Patient Service Centre",
    "address": "Ground Floor, Bipin Paul Road, Pagalpatti, Karimganj, Assam 788710",
    "phone": "Dr Lal PathLabs - Patient Service Centre",
    "hours": "Open· Closes 19:30",
    "image_url": "https://www.bing.com/maps/geoplat/REST/v1/Imagery/Map/RoadVibrant?ms=92,134&key=AnTcaqBi2ypp0xI-OZNi4W_ik2KhjgpqioTAtXLC8GzkMBQRMlyxvxyTnd5b73im&c=en-US&ur=in&da=n&logo=n&fmt=png&od=1&shading=hill&pp=24.867308,92.36042;dfp"
  },
  {
    "name": "Jeevan Jyoti Diagnostic Centre",
    "address": "Patharkandi, Jeevanjyoti Diagnostic Centre, Patharkandi PO Patharkandi, Patharkandi Road, Karimganj, Assam …",
    "phone": "Jeevan Jyoti Diagnostic Centre",
    "hours": null,
    "image_url": "https://www.bing.com/maps/geoplat/REST/v1/Imagery/Map/RoadVibrant?ms=92,112&key=AnTcaqBi2ypp0xI-OZNi4W_ik2KhjgpqioTAtXLC8GzkMBQRMlyxvxyTnd5b73im&c=en-US&ur=in&da=n&logo=n&fmt=png&od=1&shading=hill&pp=24.867285,92.365891;dfp"
  },
  {
    "name": "Arnab Diagnostic Centre",
    "address": "Hospital Road, Golaghat, Assam 785621",
    "phone": "Arnab Diagnostic Centre",
    "hours": null,
    "image_url": "https://www.bing.com/maps/geoplat/REST/v1/Imagery/Map/RoadVibrant?ms=92,112&key=AnTcaqBi2ypp0xI-OZNi4W_ik2KhjgpqioTAtXLC8GzkMBQRMlyxvxyTnd5b73im&c=en-US&ur=in&da=n&logo=n&fmt=png&od=1&shading=hill&pp=24.867601,92.363022;dfp"
  },
  {
    "name": "Morden Digital X-Ray And Sonography",
    "address": "Hospital Road, करीमगंज, Assam 788710",
    "phone": "Morden Digital X-Ray And Sonography",
    "hours": null,
    "image_url": "https://www.bing.com/maps/geoplat/REST/v1/Imagery/Map/RoadVibrant?ms=92,112&key=AnTcaqBi2ypp0xI-OZNi4W_ik2KhjgpqioTAtXLC8GzkMBQRMlyxvxyTnd5b73im&c=en-US&ur=in&da=n&logo=n&fmt=png&od=1&shading=hill&pp=24.8675,92.3638;dfp"
  },
  {
    "name": "Srl Dibascan Sonography And Pharmacy",
    "address": "Karimganj, Assam 788710, India, Karimganj, Assam 788710",
    "phone": "Srl Dibascan Sonography And Pharmacy",
    "hours": null,
    "image_url": "https://www.bing.com/maps/geoplat/REST/v1/Imagery/Map/RoadVibrant?ms=92,112&key=AnTcaqBi2ypp0xI-OZNi4W_ik2KhjgpqioTAtXLC8GzkMBQRMlyxvxyTnd5b73im&c=en-US&ur=in&da=n&logo=n&fmt=png&od=1&shading=hill&pp=24.869484,92.358299;dfp"
  }
]