[
  {
    "name": "Dr. Chandrasekhar Sattineni - Best General Physician | 7+ Yrs of Exp. | Karim Nagar",
    "address": "Apollo Reach Hospitals Railway Station Road Railways Station Road, Road No. 2, Karimnagar, Telangana",
    "phone": "Dr. Chandrasekhar Sattineni - Best General Physician | 7+ Yrs of Exp. | Karim Nagar",
    "hours": null,
    "image_url": "https://www.bing.com/maps/geoplat/REST/v1/Imagery/Map/RoadVibrant?ms=92,112&key=AnTcaqBi2ypp0xI-OZNi4W_ik2KhjgpqioTAtXLC8GzkMBQRMlyxvxyTnd5b73im&c=en-US&ur=in&da=n&logo=n&fmt=png&od=1&shading=hill&pp=18.46129,79.140427;dfp"
  },
  {
    "name": "Dr. Gangadhar Vajrala",
    "address": "Nawab Complex, Doctors Street, Karimnagar, Telangana",
    "phone": "Dr. Gangadhar Vajrala",
    "hours": "Closed· Opens Wed 09:00",
    "image_url": "/th?id=OLC.ASpexOM5MUngxA480x360&w=92&h=112&c=8&rs=1&qlt=80&cdv=1&pid=Local"
  },
  {
    "name": "Dr. Chandra Shekhar Vudutha",
    "address": "3-7-209/1, 3rd Cross, Karimnagar, Telangana 505001",
    "phone": "Dr. Chandra Shekhar Vudutha",
    "hours": null,
    "image_url": "https://www.bing.com/maps/geoplat/REST/v1/Imagery/Map/RoadVibrant?ms=92,112&key=AnTcaqBi2ypp0xI-OZNi4W_ik2KhjgpqioTAtXLC8GzkMBQRMlyxvxyTnd5b73im&c=en-US&ur=in&da=n&logo=n&fmt=png&od=1&shading=hill&pp=18.449249,79.126312;dfp"
  },
  {
    "name": "Apollo Reach Hospitals",
    "address": "Railways Station Road, Karimnagar, Telangana 505001",
    "phone": "Apollo Reach Hospitals",
    "hours": "Open· Closes 18:00",
    "image_url": "/th?id=OLC.y51g5XhpT4wWmA480x360&w=92&h=134&c=8&rs=1&qlt=80&cdv=1&pid=Local"
  },
  {
    "name": "Dr. Ramulu",
    "address": "Vavilalapally, Karimnagar, Telangana",
    "phone": "Dr. Ramulu",
    "hours": "Open· Closes 17:00",
    "image_url": "/th?id=OLC.1kOShsK45jMJUw480x360&w=92&h=112&c=8&rs=1&qlt=80&cdv=1&pid=Local"
  },
  {
    "name": "Dr. Srikanth Rammohan",
    "address": "Vavilalapally, Karimnagar, Telangana",
    "phone": "Dr. Srikanth Rammohan",
    "hours": "Open· Closes 17:00",
    "image_url": "https://www.bing.com/maps/geoplat/REST/v1/Imagery/Map/RoadVibrant?ms=92,112&key=AnTcaqBi2ypp0xI-OZNi4W_ik2KhjgpqioTAtXLC8GzkMBQRMlyxvxyTnd5b73im&c=en-US&ur=in&da=n&logo=n&fmt=png&od=1&shading=hill&pp=18.445011,79.125008;dfp"
  },
  {
    "name": "Dr Ch Suryanarayana Clinic",
    "address": "Sikhwadi Road, Karimnagar Vegetable Market, Sikhwadi, Karimnagar, Telangana 505001",
    "phone": "Dr Ch Suryanarayana Clinic",
    "hours": null,
    "image_url": "https://www.bing.com/maps/geoplat/REST/v1/Imagery/Map/RoadVibrant?ms=92,112&key=AnTcaqBi2ypp0xI-OZNi4W_ik2KhjgpqioTAtXLC8GzkMBQRMlyxvxyTnd5b73im&c=en-US&ur=in&da=n&logo=n&fmt=png&od=1&shading=hill&pp=18.431986,79.133293;dfp"
  },
  {
    "name": "Shanmukha Clinic",
    "address": "Vavilalapally Road, Sr Junior College, Vavilalapally, Karimnagar, Telangana 505001",
    "phone": "Shanmukha Clinic",
    "hours": null,
    "image_url": "https://www.bing.com/maps/geoplat/REST/v1/Imagery/Map/RoadVibrant?ms=92,112&key=AnTcaqBi2ypp0xI-OZNi4W_ik2KhjgpqioTAtXLC8GzkMBQRMlyxvxyTnd5b73im&c=en-US&ur=in&da=n&logo=n&fmt=png&od=1&shading=hill&pp=18.454739,79.12574;dfp"
  },
  {
    "name": "Dr. Subrat Kumar Soren, Treated 4K+ Patients | Best Neurologist | Brain Doctor Near Me | Best Nerve Doctor",
    "address": "Apollo Reach Hospitals Railway Station Road, Railways Station Road, Road Number 2, Karim Nagar, Telangan…",
    "phone": "Dr. Subrat Kumar Soren, Treated 4K+ Patients | Best Neurologist | Brain Doctor Near Me | Best Nerve Doctor",
    "hours": "Open· Closes 22:00",
    "image_url": null
  },
  {
    "name": "Dr Positive Homeopathy - Thyroid, Diabetes Treatment & Skin Allergy, Hair Loss, Headache Treatment",
    "address": "D.No 6-6-576, Near Manchiryal Chowrastha, Opp. Civil Hospital, Hospital St, Christian Colony, Karimnagar, Tel…",
    "phone": "Dr Positive Homeopathy - Thyroid, Diabetes Treatment & Skin Allergy, Hair Loss, Headache Treatment",
    "hours": "Opens in 8 mins",
    "image_url": "https://www.bing.com/maps/geoplat/REST/v1/Imagery/Map/RoadVibrant?ms=92,112&key=AnTcaqBi2ypp0xI-OZNi4W_ik2KhjgpqioTAtXLC8GzkMBQRMlyxvxyTnd5b73im&c=en-US&ur=in&da=n&logo=n&fmt=png&od=1&shading=hill&pp=18.443251,79.133835;dfp"
  },
  {
    "name": "Dr. Harish Chandra Reddy",
    "address": "3-3-146 Civil Hospital Road, Savaran Street Karimnagar, Karimnagar, Telangana",
    "phone": "Dr. Harish Chandra Reddy",
    "hours": null,
    "image_url": "https://www.bing.com/maps/geoplat/REST/v1/Imagery/Map/RoadVibrant?ms=92,112&key=AnTcaqBi2ypp0xI-OZNi4W_ik2KhjgpqioTAtXLC8GzkMBQRMlyxvxyTnd5b73im&c=en-US&ur=in&da=n&logo=n&fmt=png&od=1&shading=hill&pp=18.440479,79.128311;dfp"
  },
  {
    "name": "Dr. Sai Phani C Balijepalli",
    "address": "Vavilalapally, Karimnagar, Telangana",
    "phone": "Dr. Sai Phani C Balijepalli",
    "hours": "Open· Closes 17:00",
    "image_url": "https://www.bing.com/maps/geoplat/REST/v1/Imagery/Map/RoadVibrant?ms=92,112&key=AnTcaqBi2ypp0xI-OZNi4W_ik2KhjgpqioTAtXLC8GzkMBQRMlyxvxyTnd5b73im&c=en-US&ur=in&da=n&logo=n&fmt=png&od=1&shading=hill&pp=18.445011,79.125008;dfp"
  },
  {
    "name": "Sri Lakshmi Ramaswamy Clinic",
    "address": "Vavilalapally Road, Vidyadhari High School, Sri Krishna Colony, Karimnagar, Telangana 505001",
    "phone": "Sri Lakshmi Ramaswamy Clinic",
    "hours": null,
    "image_url": null
  },
  {
    "name": "Sanjeevani Clinic",
    "address": "Vavilalapally Road, Subhash Nagar, Karimnagar, Telangana 505001",
    "phone": "Sanjeevani Clinic",
    "hours": null,
    "image_url": "https://www.bing.com/maps/geoplat/REST/v1/Imagery/Map/RoadVibrant?ms=92,112&key=AnTcaqBi2ypp0xI-OZNi4W_ik2KhjgpqioTAtXLC8GzkMBQRMlyxvxyTnd5b73im&c=en-US&ur=in&da=n&logo=n&fmt=png&od=1&shading=hill&pp=18.451574,79.130852;dfp"
  },
  {
    "name": "Dr",
    "address": "Hospital Street, Karimnagar, Telangana 505001",
    "phone": "Dr",
    "hours": null,
    "image_url": "https://www.bing.com/maps/geoplat/REST/v1/Imagery/Map/RoadVibrant?ms=92,112&key=AnTcaqBi2ypp0xI-OZNi4W_ik2KhjgpqioTAtXLC8GzkMBQRMlyxvxyTnd5b73im&c=en-US&ur=in&da=n&logo=n&fmt=png&od=1&shading=hill&pp=18.443312,79.133675;dfp"
  },
  {
    "name": "Yashoda Hospitals Karimnagar Clinic",
    "address": "Vavilalapally, Karimnagar, Telangana 505001",
    "phone": "Yashoda Hospitals Karimnagar Clinic",
    "hours": "Open· Closes 21:00",
    "image_url": null
  },
  {
    "name": "Thilakam Clinic",
    "address": "Vavilalapally Road, Adarsha Nagar, Karimnagar, Telangana 505001",
    "phone": "Thilakam Clinic",
    "hours": null,
    "image_url": "https://www.bing.com/maps/geoplat/REST/v1/Imagery/Map/RoadVibrant?ms=92,112&key=AnTcaqBi2ypp0xI-OZNi4W_ik2KhjgpqioTAtXLC8GzkMBQRMlyxvxyTnd5b73im&c=en-US&ur=in&da=n&logo=n&fmt=png&od=1&shading=hill&pp=18.445827,79.126556;dfp"
  },
  {
    "name": "Dr. Javed Aslam",
    "address": "Christian Colony Road, Karimnagar, Telangana 505001",
    "phone": "Dr. Javed Aslam",
    "hours": "Closed· Opens 18:00",
    "image_url": "https://www.bing.com/maps/geoplat/REST/v1/Imagery/Map/RoadVibrant?ms=92,112&key=AnTcaqBi2ypp0xI-OZNi4W_ik2KhjgpqioTAtXLC8GzkMBQRMlyxvxyTnd5b73im&c=en-US&ur=in&da=n&logo=n&fmt=png&od=1&shading=hill&pp=18.439285,79.129845;dfp"
  }
]