[
  {
    "name": "DR VK Dhawan MDhomoeo",
    "address": "444 Hospital Road, Karnal, Haryana 132001",
    "phone": "DR VK Dhawan MDhomoeo",
    "hours": "Open· Closes 13:00",
    "image_url": "https://www.bing.com/maps/geoplat/REST/v1/Imagery/Map/RoadVibrant?ms=92,134&key=AnTcaqBi2ypp0xI-OZNi4W_ik2KhjgpqioTAtXLC8GzkMBQRMlyxvxyTnd5b73im&c=en-US&ur=in&da=n&logo=n&fmt=png&od=1&shading=hill&pp=29.689215,76.994102;dfp"
  },
  {
    "name": "Dr.kalra's Clinic",
    "address": "220 B, Near Satiya Wala Mandir, Model Town Karnal, Karnal, Haryana, Haryana 132001",
    "phone": "Dr.kalra's Clinic",
    "hours": null,
    "image_url": "/th?id=OLC.6%2f5oAjnZ3Y0tcg480x360&w=92&h=112&c=8&rs=1&qlt=80&cdv=1&pid=Local"
  },
  {
    "name": "Dr Sachin Kapoor",
    "address": "House No. 1466 Sector 7, Karnal, Haryana 132001",
    "phone": "Dr Sachin Kapoor",
    "hours": null,
    "image_url": "https://www.bing.com/maps/geoplat/REST/v1/Imagery/Map/RoadVibrant?ms=92,112&key=AnTcaqBi2ypp0xI-OZNi4W_ik2KhjgpqioTAtXLC8GzkMBQRMlyxvxyTnd5b73im&c=en-US&ur=in&da=n&logo=n&fmt=png&od=1&shading=hill&pp=29.686392,77.00872;dfp"
  },
  {
    "name": "Dr. Naresh Kaushal",
    "address": "Subhri Karnal Road, Girdhar Hospital, Sector 14 Karnal, Karnal, Haryana 132001",
    "phone": "Dr. Naresh Kaushal",
    "hours": "Open· Closes 14:00",
    "image_url": "/th?id=OLC.BnEoBc2RYpBO%2bg480x360&w=92&h=112&c=8&rs=1&qlt=80&cdv=1&pid=Local"
  },
  {
    "name": "Dr. Aabid Amin Bhat General Physician",
    "address": "Ujala Cygnus Hospital Railway Road, Karnal, Haryana 132001",
    "phone": "Dr. Aabid Amin Bhat General Physician",
    "hours": "Opens in 8 mins",
    "image_url": "https://www.bing.com/maps/geoplat/REST/v1/Imagery/Map/RoadVibrant?ms=92,134&key=AnTcaqBi2ypp0xI-OZNi4W_ik2KhjgpqioTAtXLC8GzkMBQRMlyxvxyTnd5b73im&c=en-US&ur=in&da=n&logo=n&fmt=png&od=1&shading=hill&pp=29.690983,76.980164;dfp"
  },
  {
    "name": "Amritdhara Hospital",
    "address": "Hospital Amritdhara, H.No. 918/XI Chaura Bazar, Karnal, Haryana 132001",
    "phone": "Amritdhara Hospital",
    "hours": "Open 24 hours",
    "image_url": "/th?id=OLC.WCyMllOkijmY%2fw480x360&w=92&h=134&c=8&rs=1&qlt=80&cdv=1&pid=Local"
  },
  {
    "name": "Dr Sandeep Chaudhri Hospital : Physician | Cardiologist | Nursing Home | Gastro Specialist",
    "address": "368-b, Randhir Ln, Opp. Police Lines, Dyal Singh Colony, Karnal, Haryana 132001",
    "phone": "Dr Sandeep Chaudhri Hospital : Physician | Cardiologist | Nursing Home | Gastro Specialist",
    "hours": null,
    "image_url": null
  },
  {
    "name": "Batra Clinic",
    "address": "Karnal - Kaithal Rd, Ibrahim Mandi, Karnal, Haryana",
    "phone": "Batra Clinic",
    "hours": null,
    "image_url": null
  },
  {
    "name": "Dr Ashish Sehgal (MD, DM Endocrinologist, Karnal)- Diabetes, Thyroid & Hormone Super-specialist.",
    "address": "SCO-385, Mughal Canal, Karnal, Haryana",
    "phone": "Dr Ashish Sehgal (MD, DM Endocrinologist, Karnal)- Diabetes, Thyroid & Hormone Super-specialist.",
    "hours": "Open· Closes 14:00",
    "image_url": null
  },
  {
    "name": "Dr. Dinesh Dhanda",
    "address": "Hospital Chowk, Towards Model Town, Karnal, Haryana",
    "phone": "Dr. Dinesh Dhanda",
    "hours": "Open· Closes 13:00",
    "image_url": null
  },
  {
    "name": "Dr. Sanjay Arora",
    "address": "1388 Sector 6 Urban Estate, Karnal, Haryana",
    "phone": "Dr. Sanjay Arora",
    "hours": "Open· Closes 14:00",
    "image_url": "https://www.bing.com/maps/geoplat/REST/v1/Imagery/Map/RoadVibrant?ms=92,112&key=AnTcaqBi2ypp0xI-OZNi4W_ik2KhjgpqioTAtXLC8GzkMBQRMlyxvxyTnd5b73im&c=en-US&ur=in&da=n&logo=n&fmt=png&od=1&shading=hill&pp=29.681046,77.012672;dfp"
  },
  {
    "name": "Dr. Manjusha Khurana",
    "address": "7E, Duggal Colony, Karnal, Landmark: Civil Hospital, Karnal, Haryana",
    "phone": "Dr. Manjusha Khurana",
    "hours": "Open· Closes 13:00",
    "image_url": "https://www.bing.com/maps/geoplat/REST/v1/Imagery/Map/RoadVibrant?ms=92,112&key=AnTcaqBi2ypp0xI-OZNi4W_ik2KhjgpqioTAtXLC8GzkMBQRMlyxvxyTnd5b73im&c=en-US&ur=in&da=n&logo=n&fmt=png&od=1&shading=hill&pp=29.695574,76.991493;dfp"
  },
  {
    "name": "Devansh Clinic",
    "address": "Vedansh Hospital Budha Khera Kunjpura Road, Karnal, Haryana 132001",
    "phone": "Devansh Clinic",
    "hours": null,
    "image_url": "https://www.bing.com/maps/geoplat/REST/v1/Imagery/Map/RoadVibrant?ms=92,112&key=AnTcaqBi2ypp0xI-OZNi4W_ik2KhjgpqioTAtXLC8GzkMBQRMlyxvxyTnd5b73im&c=en-US&ur=in&da=n&logo=n&fmt=png&od=1&shading=hill&pp=29.712627,77.022697;dfp"
  },
  {
    "name": "Dr.Jindal Diagnostic Centre",
    "address": "40-41, Link Road Mughal Canal, Behind Dr.Gian Bhushan Nursing Home, Karnal, Haryana 132001",
    "phone": "Dr.Jindal Diagnostic Centre",
    "hours": null,
    "image_url": null
  },
  {
    "name": "Dr Batra's Homeopathy",
    "address": "SCO 241, Ground Floor, Urban Estate, Sector 12, Karnal, Haryana 132001",
    "phone": "Dr Batra's Homeopathy",
    "hours": "Closed· Opens 11:00",
    "image_url": null
  },
  {
    "name": "Dr. Rudraksh Sharma Homeopathic Clinic - Best Homeopathic Clinic",
    "address": "1920, Main Rd, Near DAV School, Urban Estate, Sector 13, Karnal, Haryana",
    "phone": "Dr. Rudraksh Sharma Homeopathic Clinic - Best Homeopathic Clinic",
    "hours": null,
    "image_url": "https://www.bing.com/maps/geoplat/REST/v1/Imagery/Map/RoadVibrant?ms=92,112&key=AnTcaqBi2ypp0xI-OZNi4W_ik2KhjgpqioTAtXLC8GzkMBQRMlyxvxyTnd5b73im&c=en-US&ur=in&da=n&logo=n&fmt=png&od=1&shading=hill&pp=29.683832,76.997162;dfp"
  },
  {
    "name": "Dr. Sanjay Khanna (ENT Specialist)",
    "address": "KMC, Main Market, Near Community Centre, Sector 7, Karnal, Haryana",
    "phone": "Dr. Sanjay Khanna (ENT Specialist)",
    "hours": null,
    "image_url": "https://www.bing.com/maps/geoplat/REST/v1/Imagery/Map/RoadVibrant?ms=92,112&key=AnTcaqBi2ypp0xI-OZNi4W_ik2KhjgpqioTAtXLC8GzkMBQRMlyxvxyTnd5b73im&c=en-US&ur=in&da=n&logo=n&fmt=png&od=1&shading=hill&pp=29.687363,77.010254;dfp"
  },
  {
    "name": "Dr. Daksh Khurana",
    "address": "Anmani Hospital, Dyal Singh Colony, Karnal, Haryana",
    "phone": "Dr. Daksh Khurana",
    "hours": null,
    "image_url": "https://www.bing.com/maps/geoplat/REST/v1/Imagery/Map/RoadVibrant?ms=92,112&key=AnTcaqBi2ypp0xI-OZNi4W_ik2KhjgpqioTAtXLC8GzkMBQRMlyxvxyTnd5b73im&c=en-US&ur=in&da=n&logo=n&fmt=png&od=1&shading=hill&pp=29.695642,76.992874;dfp"
  }
]