[
  {
    "name": "Dr Ramakrishna C D",
    "address": "opp. Town Hall, Kasaragod, Kerala",
    "phone": "Dr Ramakrishna C D",
    "hours": null,
    "image_url": "https://www.bing.com/maps/geoplat/REST/v1/Imagery/Map/RoadVibrant?ms=92,112&key=AnTcaqBi2ypp0xI-OZNi4W_ik2KhjgpqioTAtXLC8GzkMBQRMlyxvxyTnd5b73im&c=en-US&ur=in&da=n&logo=n&fmt=png&od=1&shading=hill&pp=12.50271,74.987305;dfp"
  },
  {
    "name": "Dr. Abhijith Das, General Surgeon, Clinic",
    "address": "Fxxw+J38, Thayalangadi, Kasaragod, Kerala",
    "phone": "Dr. Abhijith Das, General Surgeon, Clinic",
    "hours": null,
    "image_url": "https://www.bing.com/maps/geoplat/REST/v1/Imagery/Map/RoadVibrant?ms=92,112&key=AnTcaqBi2ypp0xI-OZNi4W_ik2KhjgpqioTAtXLC8GzkMBQRMlyxvxyTnd5b73im&c=en-US&ur=in&da=n&logo=n&fmt=png&od=1&shading=hill&pp=12.495605,74.991394;dfp"
  },
  {
    "name": "Janardan Hospital",
    "address": "Bank Road, Kasaragod, Kerala 671121",
    "phone": "Janardan Hospital",
    "hours": null,
    "image_url": "/th?id=OLC.3E0pR0xeLMs4Nw480x360&w=92&h=112&c=8&rs=1&qlt=80&cdv=1&pid=Local"
  },
  {
    "name": "Narahari Clinic",
    "address": "Nayaks Rd, Kasaragod, Kerala",
    "phone": "Narahari Clinic",
    "hours": null,
    "image_url": "/th?id=OLC.0u47hOW1I1Tddg480x360&w=92&h=112&c=8&rs=1&qlt=80&cdv=1&pid=Local"
  },
  {
    "name": "Dr. Sudhesh Rao | Critical care",
    "address": "Kasaragod, Kerala, India, 671121, Kasaragod, Madhya Pradesh 671121",
    "phone": "Dr. Sudhesh Rao | Critical care",
    "hours": "Closed· Opens 17:30",
    "image_url": "/th?id=OLC.CLXqLrUIMsse8w480x360&w=92&h=134&c=8&rs=1&qlt=80&cdv=1&pid=Local"
  },
  {
    "name": "Dr. Dr.Rekha.P.V",
    "address": "Thekil Complex, Kasargod",
    "phone": "Dr. Dr.Rekha.P.V",
    "hours": "Open· Closes 13:00",
    "image_url": "https://www.bing.com/maps/geoplat/REST/v1/Imagery/Map/RoadVibrant?ms=92,112&key=AnTcaqBi2ypp0xI-OZNi4W_ik2KhjgpqioTAtXLC8GzkMBQRMlyxvxyTnd5b73im&c=en-US&ur=in&da=n&logo=n&fmt=png&od=1&shading=hill&pp=12.503405,74.989555;dfp"
  },
  {
    "name": "Dr. Kasaragod Sahana- Gynaecologist & Obstetrician In Kerala",
    "address": "Kamath Medical Centre, Nh 66, Dwaraka Nagar, Kasaragod, Kerala 671121",
    "phone": "Dr. Kasaragod Sahana- Gynaecologist & Obstetrician In Kerala",
    "hours": "Open· Closes 13:00",
    "image_url": "https://www.bing.com/maps/geoplat/REST/v1/Imagery/Map/RoadVibrant?ms=92,134&key=AnTcaqBi2ypp0xI-OZNi4W_ik2KhjgpqioTAtXLC8GzkMBQRMlyxvxyTnd5b73im&c=en-US&ur=in&da=n&logo=n&fmt=png&od=1&shading=hill&pp=12.506023,74.989052;dfp"
  },
  {
    "name": "Hnc clinic kasaragod",
    "address": "Bank Rd, Kasaragod, Kerala",
    "phone": "Hnc clinic kasaragod",
    "hours": null,
    "image_url": "https://www.bing.com/maps/geoplat/REST/v1/Imagery/Map/RoadVibrant?ms=92,112&key=AnTcaqBi2ypp0xI-OZNi4W_ik2KhjgpqioTAtXLC8GzkMBQRMlyxvxyTnd5b73im&c=en-US&ur=in&da=n&logo=n&fmt=png&od=1&shading=hill&pp=12.50232,74.987381;dfp"
  },
  {
    "name": "Dr. Mohammad Saleem",
    "address": "Bank Road, Kasaragod, Kerala 671121",
    "phone": "Dr. Mohammad Saleem",
    "hours": null,
    "image_url": "https://www.bing.com/maps/geoplat/REST/v1/Imagery/Map/RoadVibrant?ms=92,112&key=AnTcaqBi2ypp0xI-OZNi4W_ik2KhjgpqioTAtXLC8GzkMBQRMlyxvxyTnd5b73im&c=en-US&ur=in&da=n&logo=n&fmt=png&od=1&shading=hill&pp=12.50232,74.987381;dfp"
  },
  {
    "name": "Kottakkal Arya Vaidya Sala Kasaragod.",
    "address": "Fort Rd, Thayalangadi, Kasaragod, Kerala",
    "phone": "Kottakkal Arya Vaidya Sala Kasaragod.",
    "hours": null,
    "image_url": "https://www.bing.com/maps/geoplat/REST/v1/Imagery/Map/RoadVibrant?ms=92,112&key=AnTcaqBi2ypp0xI-OZNi4W_ik2KhjgpqioTAtXLC8GzkMBQRMlyxvxyTnd5b73im&c=en-US&ur=in&da=n&logo=n&fmt=png&od=1&shading=hill&pp=12.496636,74.988602;dfp"
  },
  {
    "name": "Kerala Ayurveda Hospital Kasaragod",
    "address": "Kamath Hospital Wing, Near NEW BUS Stand, Mangalore Road, Kasargode, Kerala. PIN-671121, Dwa…",
    "phone": "Kerala Ayurveda Hospital Kasaragod",
    "hours": null,
    "image_url": null
  },
  {
    "name": "Santhigiri Ayurveda & Siddha Hospital",
    "address": "Shanthigiri Ayurveda & Sidha Hospital, Chandiroor, National Highway, Kerala",
    "phone": "Santhigiri Ayurveda & Siddha Hospital",
    "hours": null,
    "image_url": null
  },
  {
    "name": "Janardhana Clinic",
    "address": "Mangalore Kozhikode Road, Adkathbail North Bus Stop, Adkathbail, Kasaragod, Kerala 671124",
    "phone": "Janardhana Clinic",
    "hours": null,
    "image_url": "https://www.bing.com/maps/geoplat/REST/v1/Imagery/Map/RoadVibrant?ms=92,112&key=AnTcaqBi2ypp0xI-OZNi4W_ik2KhjgpqioTAtXLC8GzkMBQRMlyxvxyTnd5b73im&c=en-US&ur=in&da=n&logo=n&fmt=png&od=1&shading=hill&pp=12.517606,74.975922;dfp"
  },
  {
    "name": "Dr. Jamaluddeen's ENT Clinic",
    "address": "Bus Stand, Bosco Lodge Building, Municipal Office Road, Old, Kasaragod, Kerala",
    "phone": "Dr. Jamaluddeen's ENT Clinic",
    "hours": null,
    "image_url": null
  },
  {
    "name": "Dr. Suresh Babu's Eye Clinic Kasargod",
    "address": "Nayaks Road, Kasaragod 671121, India, Kasaragod, Kerala",
    "phone": "Dr. Suresh Babu's Eye Clinic Kasargod",
    "hours": null,
    "image_url": null
  },
  {
    "name": "Dr. B Narayana Naik | Paediatrics | Nakshatra clinic, Anangoor Kasaragod",
    "address": "Anangoor Medicals Building, NH Side Anangoor, Kasaragod, Kerala, India, 671123, Kasaragod, Madhya …",
    "phone": "Dr. B Narayana Naik | Paediatrics | Nakshatra clinic, Anangoor Kasaragod",
    "hours": "Open· Closes 18:00",
    "image_url": null
  },
  {
    "name": "Manglore Ayurvedha Clinic",
    "address": "Manglore Ayurvedha Clinic 4, Edapalli Panvel Highway, Kasaragod, Kerala 671121",
    "phone": "Manglore Ayurvedha Clinic",
    "hours": null,
    "image_url": "https://www.bing.com/maps/geoplat/REST/v1/Imagery/Map/RoadVibrant?ms=92,112&key=AnTcaqBi2ypp0xI-OZNi4W_ik2KhjgpqioTAtXLC8GzkMBQRMlyxvxyTnd5b73im&c=en-US&ur=in&da=n&logo=n&fmt=png&od=1&shading=hill&pp=12.506921,74.98954;dfp"
  },
  {
    "name": "Dr henna gazal's habitos care Homeo speciality clinic, Lifestyle management, counselling center.",
    "address": "Mundumuzhi Near Valya, Juma Masjid Rd, Mundumuzhi, Kerala",
    "phone": "Dr henna gazal's habitos care Homeo speciality clinic, Lifestyle management, counselling center.",
    "hours": null,
    "image_url": "https://www.bing.com/maps/geoplat/REST/v1/Imagery/Map/RoadVibrant?ms=92,112&key=AnTcaqBi2ypp0xI-OZNi4W_ik2KhjgpqioTAtXLC8GzkMBQRMlyxvxyTnd5b73im&c=en-US&ur=in&da=n&logo=n&fmt=png&od=1&shading=hill&pp=12.511862,74.990623;dfp"
  }
]