[
  {
    "name": "Dr. Mrinal Ranjan- General Physician",
    "address": "Shri Krishna Shanti Clinic, Binodpur Rd, Opposite Anand C T Scan, Kadwa, Katihar, Bihar 854105",
    "phone": "Dr. Mrinal Ranjan- General Physician",
    "hours": "Closed· Opens 16:00",
    "image_url": "https://www.bing.com/maps/geoplat/REST/v1/Imagery/Map/RoadVibrant?ms=92,134&key=AnTcaqBi2ypp0xI-OZNi4W_ik2KhjgpqioTAtXLC8GzkMBQRMlyxvxyTnd5b73im&c=en-US&ur=in&da=n&logo=n&fmt=png&od=1&shading=hill&pp=25.526678,87.563667;dfp"
  },
  {
    "name": "Dr. Bipin Kumar | Best Surgeon In Katihar",
    "address": "Marc Hospital, Durgasthan Chowk, Bihar",
    "phone": "Dr. Bipin Kumar | Best Surgeon In Katihar",
    "hours": null,
    "image_url": "https://www.bing.com/maps/geoplat/REST/v1/Imagery/Map/RoadVibrant?ms=92,112&key=AnTcaqBi2ypp0xI-OZNi4W_ik2KhjgpqioTAtXLC8GzkMBQRMlyxvxyTnd5b73im&c=en-US&ur=in&da=n&logo=n&fmt=png&od=1&shading=hill&pp=25.54237,87.578079;dfp"
  },
  {
    "name": "Dr. P.k. Paul",
    "address": "Shahid Chowk, Larkania Tola, Katihar, Bihar 854105",
    "phone": "Dr. P.k. Paul",
    "hours": null,
    "image_url": "https://www.bing.com/maps/geoplat/REST/v1/Imagery/Map/RoadVibrant?ms=92,112&key=AnTcaqBi2ypp0xI-OZNi4W_ik2KhjgpqioTAtXLC8GzkMBQRMlyxvxyTnd5b73im&c=en-US&ur=in&da=n&logo=n&fmt=png&od=1&shading=hill&pp=25.543631,87.566231;dfp"
  },
  {
    "name": "Dr. Satyajit Bhanu- General Physician",
    "address": "Cosmodent Dental Skin And Hair Clinic, Rohit Medical, Bela Complex, Near Jain Atithi Bhawan, Vinod Pur, Kati…",
    "phone": "Dr. Satyajit Bhanu- General Physician",
    "hours": "Closed· Opens 11:00",
    "image_url": "https://www.bing.com/maps/geoplat/REST/v1/Imagery/Map/RoadVibrant?ms=92,134&key=AnTcaqBi2ypp0xI-OZNi4W_ik2KhjgpqioTAtXLC8GzkMBQRMlyxvxyTnd5b73im&c=en-US&ur=in&da=n&logo=n&fmt=png&od=1&shading=hill&pp=25.537382,87.566109;dfp"
  },
  {
    "name": "Dr Atul Mishra",
    "address": "Nagar Thana Katihar, Binodpur, Katihar, Bihar 854105",
    "phone": "Dr Atul Mishra",
    "hours": null,
    "image_url": "https://www.bing.com/maps/geoplat/REST/v1/Imagery/Map/RoadVibrant?ms=92,112&key=AnTcaqBi2ypp0xI-OZNi4W_ik2KhjgpqioTAtXLC8GzkMBQRMlyxvxyTnd5b73im&c=en-US&ur=in&da=n&logo=n&fmt=png&od=1&shading=hill&pp=25.538622,87.566628;dfp"
  },
  {
    "name": "Dr M C Jha Clinic",
    "address": "Old Bus Stop, Manant Nagar, Katihar, Bihar 854105",
    "phone": "Dr M C Jha Clinic",
    "hours": null,
    "image_url": "https://www.bing.com/maps/geoplat/REST/v1/Imagery/Map/RoadVibrant?ms=92,112&key=AnTcaqBi2ypp0xI-OZNi4W_ik2KhjgpqioTAtXLC8GzkMBQRMlyxvxyTnd5b73im&c=en-US&ur=in&da=n&logo=n&fmt=png&od=1&shading=hill&pp=25.54845,87.558823;dfp"
  },
  {
    "name": "Dr N K Jhaa Clinic",
    "address": "Sadar Hospital, Binodpur, Katihar, Bihar 854105",
    "phone": "Dr N K Jhaa Clinic",
    "hours": null,
    "image_url": "https://www.bing.com/maps/geoplat/REST/v1/Imagery/Map/RoadVibrant?ms=92,112&key=AnTcaqBi2ypp0xI-OZNi4W_ik2KhjgpqioTAtXLC8GzkMBQRMlyxvxyTnd5b73im&c=en-US&ur=in&da=n&logo=n&fmt=png&od=1&shading=hill&pp=25.538843,87.566902;dfp"
  },
  {
    "name": "Dr Raj Aman Singh Clinic",
    "address": "Union Bank Of India, Binodpur, Katihar, Bihar 854105",
    "phone": "Dr Raj Aman Singh Clinic",
    "hours": null,
    "image_url": null
  },
  {
    "name": "Dr Rakesh Roshan Clinic",
    "address": "Kalibari Road, Katihar, Bihar 854105",
    "phone": "Dr Rakesh Roshan Clinic",
    "hours": null,
    "image_url": "https://www.bing.com/maps/geoplat/REST/v1/Imagery/Map/RoadVibrant?ms=92,112&key=AnTcaqBi2ypp0xI-OZNi4W_ik2KhjgpqioTAtXLC8GzkMBQRMlyxvxyTnd5b73im&c=en-US&ur=in&da=n&logo=n&fmt=png&od=1&shading=hill&pp=25.545053,87.567574;dfp"
  },
  {
    "name": "Dr Amjad Zia Mallik Clinic",
    "address": "Binodpur Road, Katihar, Bihar 854105",
    "phone": "Dr Amjad Zia Mallik Clinic",
    "hours": null,
    "image_url": "https://www.bing.com/maps/geoplat/REST/v1/Imagery/Map/RoadVibrant?ms=92,112&key=AnTcaqBi2ypp0xI-OZNi4W_ik2KhjgpqioTAtXLC8GzkMBQRMlyxvxyTnd5b73im&c=en-US&ur=in&da=n&logo=n&fmt=png&od=1&shading=hill&pp=25.540833,87.568848;dfp"
  },
  {
    "name": "Dr I P Saha Clinic",
    "address": "Central Bank Of India, Larkania Tola, Katihar, Bihar 854105",
    "phone": "Dr I P Saha Clinic",
    "hours": null,
    "image_url": "https://www.bing.com/maps/geoplat/REST/v1/Imagery/Map/RoadVibrant?ms=92,112&key=AnTcaqBi2ypp0xI-OZNi4W_ik2KhjgpqioTAtXLC8GzkMBQRMlyxvxyTnd5b73im&c=en-US&ur=in&da=n&logo=n&fmt=png&od=1&shading=hill&pp=25.543835,87.577194;dfp"
  },
  {
    "name": "Dr Dilip Kumar Clinic",
    "address": "Pani Tanki Chowk, Katihar, Bihar 854105",
    "phone": "Dr Dilip Kumar Clinic",
    "hours": null,
    "image_url": "https://www.bing.com/maps/geoplat/REST/v1/Imagery/Map/RoadVibrant?ms=92,112&key=AnTcaqBi2ypp0xI-OZNi4W_ik2KhjgpqioTAtXLC8GzkMBQRMlyxvxyTnd5b73im&c=en-US&ur=in&da=n&logo=n&fmt=png&od=1&shading=hill&pp=25.540016,87.574326;dfp"
  },
  {
    "name": "Dr D M Mandal Clinic",
    "address": "Chahat Bedsheet, Larkania Tola, Katihar, Bihar 854105",
    "phone": "Dr D M Mandal Clinic",
    "hours": null,
    "image_url": "https://www.bing.com/maps/geoplat/REST/v1/Imagery/Map/RoadVibrant?ms=92,112&key=AnTcaqBi2ypp0xI-OZNi4W_ik2KhjgpqioTAtXLC8GzkMBQRMlyxvxyTnd5b73im&c=en-US&ur=in&da=n&logo=n&fmt=png&od=1&shading=hill&pp=25.542797,87.569412;dfp"
  },
  {
    "name": "Dr Aftab Alam Clinic",
    "address": "Kalibari Road, Katihar, Bihar 854105",
    "phone": "Dr Aftab Alam Clinic",
    "hours": null,
    "image_url": "https://www.bing.com/maps/geoplat/REST/v1/Imagery/Map/RoadVibrant?ms=92,112&key=AnTcaqBi2ypp0xI-OZNi4W_ik2KhjgpqioTAtXLC8GzkMBQRMlyxvxyTnd5b73im&c=en-US&ur=in&da=n&logo=n&fmt=png&od=1&shading=hill&pp=25.5371,87.570404;dfp"
  },
  {
    "name": "DR.B.K.Bhagat Clinic",
    "address": "Parashar Vidyapeeth Madhya Vidyalaya, Larkania Tola, Katihar, Bihar 854105",
    "phone": "DR.B.K.Bhagat Clinic",
    "hours": null,
    "image_url": "https://www.bing.com/maps/geoplat/REST/v1/Imagery/Map/RoadVibrant?ms=92,112&key=AnTcaqBi2ypp0xI-OZNi4W_ik2KhjgpqioTAtXLC8GzkMBQRMlyxvxyTnd5b73im&c=en-US&ur=in&da=n&logo=n&fmt=png&od=1&shading=hill&pp=25.548437,87.577278;dfp"
  },
  {
    "name": "Dr Rahul Chakraborty Clinic",
    "address": "Axis Bank, Binodpur, Katihar, Bihar 854105",
    "phone": "Dr Rahul Chakraborty Clinic",
    "hours": null,
    "image_url": "https://www.bing.com/maps/geoplat/REST/v1/Imagery/Map/RoadVibrant?ms=92,112&key=AnTcaqBi2ypp0xI-OZNi4W_ik2KhjgpqioTAtXLC8GzkMBQRMlyxvxyTnd5b73im&c=en-US&ur=in&da=n&logo=n&fmt=png&od=1&shading=hill&pp=25.543255,87.576653;dfp"
  },
  {
    "name": "Dr. Ashish Kumar Bharti Pediatrician",
    "address": "Yashoda Clinic, Shiv Mandir Chowk, Opposite Yagshala Gate, Katihar, Bihar 854105",
    "phone": "Dr. Ashish Kumar Bharti Pediatrician",
    "hours": "Closed· Opens 16:00",
    "image_url": null
  },
  {
    "name": "Dr. Rajiv Sinha's Gastro Clinic (SAMAGAM)",
    "address": "Station Road, Katihar, Bihar 854109",
    "phone": "Dr. Rajiv Sinha's Gastro Clinic (SAMAGAM)",
    "hours": null,
    "image_url": "https://www.bing.com/maps/geoplat/REST/v1/Imagery/Map/RoadVibrant?ms=92,112&key=AnTcaqBi2ypp0xI-OZNi4W_ik2KhjgpqioTAtXLC8GzkMBQRMlyxvxyTnd5b73im&c=en-US&ur=in&da=n&logo=n&fmt=png&od=1&shading=hill&pp=25.543081,87.567886;dfp"
  }
]