[
  {
    "name": "Dr. Shobhit Choudaha (Dr. Shobhht Choudaha Clinic)",
    "address": "Ghantaghar Road, Near Sanskar Bharti School, Jalpa Ward, Gandhi Ganj, Katni, Madhya Pradesh",
    "phone": "Dr. Shobhit Choudaha (Dr. Shobhht Choudaha Clinic)",
    "hours": null,
    "image_url": "https://www.bing.com/maps/geoplat/REST/v1/Imagery/Map/RoadVibrant?ms=92,112&key=AnTcaqBi2ypp0xI-OZNi4W_ik2KhjgpqioTAtXLC8GzkMBQRMlyxvxyTnd5b73im&c=en-US&ur=in&da=n&logo=n&fmt=png&od=1&shading=hill&pp=23.836248,80.386887;dfp"
  },
  {
    "name": "Dr. Sourabh Choudhary",
    "address": "Dunne Colony Bargawa, Katni, Madhya Pradesh",
    "phone": "Dr. Sourabh Choudhary",
    "hours": "Closed· Opens 16:30",
    "image_url": "/th?id=OLC.cagHJmh3Wb83Tw480x360&w=92&h=112&c=8&rs=1&qlt=80&cdv=1&pid=Local"
  },
  {
    "name": "Dr. Prashasti Khanna- Paediatrics",
    "address": "Dist. Hospital, Civil Lines, Katni, Madhya Pradesh 483501",
    "phone": "Dr. Prashasti Khanna- Paediatrics",
    "hours": "Closed· Opens 11:00",
    "image_url": "https://www.bing.com/maps/geoplat/REST/v1/Imagery/Map/RoadVibrant?ms=92,134&key=AnTcaqBi2ypp0xI-OZNi4W_ik2KhjgpqioTAtXLC8GzkMBQRMlyxvxyTnd5b73im&c=en-US&ur=in&da=n&logo=n&fmt=png&od=1&shading=hill&pp=23.834335,80.388374;dfp"
  },
  {
    "name": "Doctor HL Gupta",
    "address": "Rani Lakshmi Bai Road, Azad Chowk, Katni Madhya Pradesh, Murwara, Madhya Pradesh 483501",
    "phone": "Doctor HL Gupta",
    "hours": null,
    "image_url": "https://www.bing.com/maps/geoplat/REST/v1/Imagery/Map/RoadVibrant?ms=92,112&key=AnTcaqBi2ypp0xI-OZNi4W_ik2KhjgpqioTAtXLC8GzkMBQRMlyxvxyTnd5b73im&c=en-US&ur=in&da=n&logo=n&fmt=png&od=1&shading=hill&pp=23.836161,80.387444;dfp"
  },
  {
    "name": "Dr Sunita Verma Clinic",
    "address": "Main Road, Purani Basti, Gandhi Ganj, Katni, Madhya Pradesh 483501, India, Katni, Madhya Pradesh 483501",
    "phone": "Dr Sunita Verma Clinic",
    "hours": null,
    "image_url": "https://www.bing.com/maps/geoplat/REST/v1/Imagery/Map/RoadVibrant?ms=92,112&key=AnTcaqBi2ypp0xI-OZNi4W_ik2KhjgpqioTAtXLC8GzkMBQRMlyxvxyTnd5b73im&c=en-US&ur=in&da=n&logo=n&fmt=png&od=1&shading=hill&pp=23.836336,80.389809;dfp"
  },
  {
    "name": "Doctor Rajiv Bajaj",
    "address": "Sh10, Shiv Mandir, Shastri Nagar Colony Murwara Katni, Murwara, Madhya Pradesh 483501",
    "phone": "Doctor Rajiv Bajaj",
    "hours": null,
    "image_url": "https://www.bing.com/maps/geoplat/REST/v1/Imagery/Map/RoadVibrant?ms=92,112&key=AnTcaqBi2ypp0xI-OZNi4W_ik2KhjgpqioTAtXLC8GzkMBQRMlyxvxyTnd5b73im&c=en-US&ur=in&da=n&logo=n&fmt=png&od=1&shading=hill&pp=23.840582,80.406281;dfp"
  },
  {
    "name": "Dr Umaa Nigam Clinic",
    "address": "Colony Road Katni, Durga Mata Mandir, Nai Basti Katni Madhya Pradesh, Murwara, Madhya Pradesh 483501",
    "phone": "Dr Umaa Nigam Clinic",
    "hours": null,
    "image_url": "https://www.bing.com/maps/geoplat/REST/v1/Imagery/Map/RoadVibrant?ms=92,112&key=AnTcaqBi2ypp0xI-OZNi4W_ik2KhjgpqioTAtXLC8GzkMBQRMlyxvxyTnd5b73im&c=en-US&ur=in&da=n&logo=n&fmt=png&od=1&shading=hill&pp=23.839636,80.396759;dfp"
  },
  {
    "name": "Maithili Clinic",
    "address": "Colony Road Katni, Maa Durga Hospital, Nai Basti Katni Madhya Pradesh, Murwara, Madhya Pradesh 483501",
    "phone": "Maithili Clinic",
    "hours": null,
    "image_url": "https://www.bing.com/maps/geoplat/REST/v1/Imagery/Map/RoadVibrant?ms=92,112&key=AnTcaqBi2ypp0xI-OZNi4W_ik2KhjgpqioTAtXLC8GzkMBQRMlyxvxyTnd5b73im&c=en-US&ur=in&da=n&logo=n&fmt=png&od=1&shading=hill&pp=23.839827,80.38858;dfp"
  },
  {
    "name": "Cure Zone Homoeopathic Clinic & Psychological Counselling Center || Best Homeopathic Doctor",
    "address": "Behind Mohan Talkies, Front OF Shubh Shri Tailotr, Civil Lines, Katni, Madhya Pradesh",
    "phone": "Cure Zone Homoeopathic Clinic & Psychological Counselling Center || Best Homeopathic Doctor",
    "hours": null,
    "image_url": null
  },
  {
    "name": "Dr. Subodh Jain, Modi homoeopathic clinic",
    "address": "In Front Of Jagannath Medical Store, Mission Chowk Rd, Near Jagannath Chowk, Katni, Madhya Pradesh",
    "phone": "Dr. Subodh Jain, Modi homoeopathic clinic",
    "hours": null,
    "image_url": "https://www.bing.com/maps/geoplat/REST/v1/Imagery/Map/RoadVibrant?ms=92,112&key=AnTcaqBi2ypp0xI-OZNi4W_ik2KhjgpqioTAtXLC8GzkMBQRMlyxvxyTnd5b73im&c=en-US&ur=in&da=n&logo=n&fmt=png&od=1&shading=hill&pp=23.812807,80.377174;dfp"
  },
  {
    "name": "Dr. Sourabh Choudhary",
    "address": "Samdariya City, Katni, Madhya Pradesh",
    "phone": "Dr. Sourabh Choudhary",
    "hours": "Open· Closes 15:00",
    "image_url": "https://www.bing.com/maps/geoplat/REST/v1/Imagery/Map/RoadVibrant?ms=92,112&key=AnTcaqBi2ypp0xI-OZNi4W_ik2KhjgpqioTAtXLC8GzkMBQRMlyxvxyTnd5b73im&c=en-US&ur=in&da=n&logo=n&fmt=png&od=1&shading=hill&pp=23.806334,80.390526;dfp"
  },
  {
    "name": "Naman Homoeopathic Clinic Katni Mp",
    "address": "Main Market Road NEW Katni Junction, Katni, Madhya Pradesh",
    "phone": "Naman Homoeopathic Clinic Katni Mp",
    "hours": null,
    "image_url": "https://www.bing.com/maps/geoplat/REST/v1/Imagery/Map/RoadVibrant?ms=92,112&key=AnTcaqBi2ypp0xI-OZNi4W_ik2KhjgpqioTAtXLC8GzkMBQRMlyxvxyTnd5b73im&c=en-US&ur=in&da=n&logo=n&fmt=png&od=1&shading=hill&pp=23.830263,80.401573;dfp"
  },
  {
    "name": "Dr Mangal Ram Hospital",
    "address": "Bus Stand Road, Murwara, Madhya Pradesh 483501",
    "phone": "Dr Mangal Ram Hospital",
    "hours": null,
    "image_url": "https://www.bing.com/maps/geoplat/REST/v1/Imagery/Map/RoadVibrant?ms=92,112&key=AnTcaqBi2ypp0xI-OZNi4W_ik2KhjgpqioTAtXLC8GzkMBQRMlyxvxyTnd5b73im&c=en-US&ur=in&da=n&logo=n&fmt=png&od=1&shading=hill&pp=23.840284,80.396973;dfp"
  },
  {
    "name": "Mom N Me Clinic",
    "address": "109, Dunn Colony, Murwara, Bargwan, Katni, Madhya Pradesh 483501",
    "phone": "Mom N Me Clinic",
    "hours": "Open· Closes 14:00",
    "image_url": null
  },
  {
    "name": "Dr. Neha Ramsinghani",
    "address": "5W9G+G89, Sukoon Clinic, Behind Hdfc Bank, Gole Bazar, Jabalpur, Madhya Pradesh",
    "phone": "Dr. Neha Ramsinghani",
    "hours": null,
    "image_url": "https://www.bing.com/maps/geoplat/REST/v1/Imagery/Map/RoadVibrant?ms=92,112&key=AnTcaqBi2ypp0xI-OZNi4W_ik2KhjgpqioTAtXLC8GzkMBQRMlyxvxyTnd5b73im&c=en-US&ur=in&da=n&logo=n&fmt=png&od=1&shading=hill&pp=23.835848,80.39315;dfp"
  },
  {
    "name": "Dr. Chadha Children Hospital",
    "address": "Gandhi Ganj, Sh10 Mission Chowk Road, Murwara, Madhya Pradesh 483501",
    "phone": "Dr. Chadha Children Hospital",
    "hours": null,
    "image_url": "https://www.bing.com/maps/geoplat/REST/v1/Imagery/Map/RoadVibrant?ms=92,112&key=AnTcaqBi2ypp0xI-OZNi4W_ik2KhjgpqioTAtXLC8GzkMBQRMlyxvxyTnd5b73im&c=en-US&ur=in&da=n&logo=n&fmt=png&od=1&shading=hill&pp=23.837799,80.392281;dfp"
  },
  {
    "name": "Advanced Ct Scan And Diagnostic Centre, Katni.",
    "address": "Ghanta Ghar Road, Near Rashtriya School, Lohiya Ward, Katni, Madhya Pradesh",
    "phone": "Advanced Ct Scan And Diagnostic Centre, Katni.",
    "hours": null,
    "image_url": null
  },
  {
    "name": "Om Pathology",
    "address": "Sh10, Ghanta Ghar Chauraha, Ghanta Ghar Murwara Katni Madhya Pradesh, Murwara, Madhya Pradesh 483…",
    "phone": "Om Pathology",
    "hours": null,
    "image_url": "https://www.bing.com/maps/geoplat/REST/v1/Imagery/Map/RoadVibrant?ms=92,112&key=AnTcaqBi2ypp0xI-OZNi4W_ik2KhjgpqioTAtXLC8GzkMBQRMlyxvxyTnd5b73im&c=en-US&ur=in&da=n&logo=n&fmt=png&od=1&shading=hill&pp=23.836878,80.393272;dfp"
  }
]