[
  {
    "name": "Dr sk Rafique (hijama specialist )unani & ayurvedic research centre",
    "address": "Ranapada Road, Kendrapara, Odisha",
    "phone": "Dr sk Rafique (hijama specialist )unani & ayurvedic research centre",
    "hours": null,
    "image_url": "/th?id=OLC.c79BJj4714G1lQ480x360&w=92&h=112&c=8&rs=1&qlt=80&cdv=1&pid=Local"
  },
  {
    "name": "Kendrapada Baladev Clinic",
    "address": "Balagandi, Kendrapara, Cuttack, Odisha 754211",
    "phone": "Kendrapada Baladev Clinic",
    "hours": null,
    "image_url": "https://www.bing.com/maps/geoplat/REST/v1/Imagery/Map/RoadVibrant?ms=92,112&key=AnTcaqBi2ypp0xI-OZNi4W_ik2KhjgpqioTAtXLC8GzkMBQRMlyxvxyTnd5b73im&c=en-US&ur=in&da=n&logo=n&fmt=png&od=1&shading=hill&pp=20.51568,86.378937;dfp"
  },
  {
    "name": "Dr. HOSSAIN's Homeopathic Clinic",
    "address": "Near Janakalyan Homoeo Hall, Badahat, Kendrapara, Odisha 754211",
    "phone": "Dr. HOSSAIN's Homeopathic Clinic",
    "hours": "OpenÂ· Closes 00:00",
    "image_url": "/th?id=OLC.EHSyskRg5%2fivDg480x360&w=92&h=134&c=8&rs=1&qlt=80&cdv=1&pid=Local"
  },
  {
    "name": "Bilasini Clinic",
    "address": "Ground Floor, Pokhariapada, Pattamundai, Pattamundai Main Road, Kendrapara, Odisha 754215",
    "phone": "Bilasini Clinic",
    "hours": null,
    "image_url": "https://www.bing.com/maps/geoplat/REST/v1/Imagery/Map/RoadVibrant?ms=92,112&key=AnTcaqBi2ypp0xI-OZNi4W_ik2KhjgpqioTAtXLC8GzkMBQRMlyxvxyTnd5b73im&c=en-US&ur=in&da=n&logo=n&fmt=png&od=1&shading=hill&pp=20.51581,86.396568;dfp"
  },
  {
    "name": "Hamdard Unani Clinic ( Ayurvedic Research Centre)",
    "address": "Garapur Main Rd, Kendrapara, Odisha 754211, India, KendraParha, Odisha 754211",
    "phone": "Hamdard Unani Clinic ( Ayurvedic Research Centre)",
    "hours": null,
    "image_url": "https://www.bing.com/maps/geoplat/REST/v1/Imagery/Map/RoadVibrant?ms=92,112&key=AnTcaqBi2ypp0xI-OZNi4W_ik2KhjgpqioTAtXLC8GzkMBQRMlyxvxyTnd5b73im&c=en-US&ur=in&da=n&logo=n&fmt=png&od=1&shading=hill&pp=20.523628,86.400543;dfp"
  },
  {
    "name": "Dr. Dev Mohanty Public School",
    "address": "Khandasahi Via, Nischintakoili, Cuttack, Odisha 754207",
    "phone": "Dr. Dev Mohanty Public School",
    "hours": null,
    "image_url": "/th?id=OLC.JgieAl96B9WLtg480x360&w=92&h=112&c=8&rs=1&qlt=80&cdv=1&pid=Local"
  },
  {
    "name": "Laxmipriya Homoeo Clinic",
    "address": "Municipality Market Complex, Room NO A/6, Tinimuhani, Kendrapara, Odisha 754211",
    "phone": "Laxmipriya Homoeo Clinic",
    "hours": null,
    "image_url": "https://www.bing.com/maps/geoplat/REST/v1/Imagery/Map/RoadVibrant?ms=92,112&key=AnTcaqBi2ypp0xI-OZNi4W_ik2KhjgpqioTAtXLC8GzkMBQRMlyxvxyTnd5b73im&c=en-US&ur=in&da=n&logo=n&fmt=png&od=1&shading=hill&pp=20.46279,85.865662;dfp"
  },
  {
    "name": "Shree Digital X Ray",
    "address": "Medical Rd, Kendrapara, Odisha 754026, India, KendraParha, Odisha 754026",
    "phone": "Shree Digital X Ray",
    "hours": null,
    "image_url": null
  },
  {
    "name": "Dr Venture",
    "address": "166, Baghilobabanpur, Bandhapada, Kendrapara, Odisha 754208",
    "phone": "Dr Venture",
    "hours": null,
    "image_url": "https://www.bing.com/maps/geoplat/REST/v1/Imagery/Map/RoadVibrant?ms=92,112&key=AnTcaqBi2ypp0xI-OZNi4W_ik2KhjgpqioTAtXLC8GzkMBQRMlyxvxyTnd5b73im&c=en-US&ur=in&da=n&logo=n&fmt=png&od=1&shading=hill&pp=20.50215,86.330338;dfp"
  }
]