[
  {
    "name": "Dr Arnam Alok Clinic",
    "address": "Mill Road, Union Bank Of India Khagaria, Khagaria, Bihar 851204",
    "phone": "Dr Arnam Alok Clinic",
    "hours": null,
    "image_url": "https://www.bing.com/maps/geoplat/REST/v1/Imagery/Map/RoadVibrant?ms=92,112&key=AnTcaqBi2ypp0xI-OZNi4W_ik2KhjgpqioTAtXLC8GzkMBQRMlyxvxyTnd5b73im&c=en-US&ur=in&da=n&logo=n&fmt=png&od=1&shading=hill&pp=25.504143,86.466721;dfp"
  },
  {
    "name": "Dr A K Sultania Clinic",
    "address": "Mill Road, The Khagaria District Central Co-Op Bank Ltd Atm, Khagaria, Bihar 851204",
    "phone": "Dr A K Sultania Clinic",
    "hours": null,
    "image_url": "https://www.bing.com/maps/geoplat/REST/v1/Imagery/Map/RoadVibrant?ms=92,112&key=AnTcaqBi2ypp0xI-OZNi4W_ik2KhjgpqioTAtXLC8GzkMBQRMlyxvxyTnd5b73im&c=en-US&ur=in&da=n&logo=n&fmt=png&od=1&shading=hill&pp=25.503616,86.466461;clcp"
  },
  {
    "name": "Dr Satish Kumar Clinic",
    "address": "Kalibari, Khagaria, Bihar 851204",
    "phone": "Dr Satish Kumar Clinic",
    "hours": null,
    "image_url": "https://www.bing.com/maps/geoplat/REST/v1/Imagery/Map/RoadVibrant?ms=92,112&key=AnTcaqBi2ypp0xI-OZNi4W_ik2KhjgpqioTAtXLC8GzkMBQRMlyxvxyTnd5b73im&c=en-US&ur=in&da=n&logo=n&fmt=png&od=1&shading=hill&pp=25.502144,86.466675;dfp"
  },
  {
    "name": "Dr Rakesh Kumar Clinic",
    "address": "J P Nagar Baluahi Road, Khalifa Masjid, Khagaria, Bihar 851204",
    "phone": "Dr Rakesh Kumar Clinic",
    "hours": null,
    "image_url": "https://www.bing.com/maps/geoplat/REST/v1/Imagery/Map/RoadVibrant?ms=92,112&key=AnTcaqBi2ypp0xI-OZNi4W_ik2KhjgpqioTAtXLC8GzkMBQRMlyxvxyTnd5b73im&c=en-US&ur=in&da=n&logo=n&fmt=png&od=1&shading=hill&pp=25.5061,86.473038;dfp"
  },
  {
    "name": "Dr Sunil Kumar Gupta Clinic",
    "address": "Collectoriate Road, Hajipur Middle School Uttar Khagaria, Khagaria, Bihar 851204",
    "phone": "Dr Sunil Kumar Gupta Clinic",
    "hours": null,
    "image_url": "https://www.bing.com/maps/geoplat/REST/v1/Imagery/Map/RoadVibrant?ms=92,112&key=AnTcaqBi2ypp0xI-OZNi4W_ik2KhjgpqioTAtXLC8GzkMBQRMlyxvxyTnd5b73im&c=en-US&ur=in&da=n&logo=n&fmt=png&od=1&shading=hill&pp=25.50132,86.469864;dfp"
  },
  {
    "name": "Mahila Clinic",
    "address": "Mahatma Gandhi Road, Bank Of India Khagaria, Khagaria, Bihar 851204",
    "phone": "Mahila Clinic",
    "hours": null,
    "image_url": "/th?id=OLC.rJWDHu3dorM%2bHw480x360&w=92&h=112&c=8&rs=1&qlt=80&cdv=1&pid=Local"
  },
  {
    "name": "Shivam Clinic",
    "address": "Mahatma Gandhi Road, State Bank Of India Atm, Khagaria, Bihar 851204",
    "phone": "Shivam Clinic",
    "hours": null,
    "image_url": "https://www.bing.com/maps/geoplat/REST/v1/Imagery/Map/RoadVibrant?ms=92,112&key=AnTcaqBi2ypp0xI-OZNi4W_ik2KhjgpqioTAtXLC8GzkMBQRMlyxvxyTnd5b73im&c=en-US&ur=in&da=n&logo=n&fmt=png&od=1&shading=hill&pp=25.504694,86.48111;dfp"
  },
  {
    "name": "Dr Bijay Babu Ka Homoeopathic Chikitsalaya",
    "address": "Dakshin Bihar Gramin Bank Khagaria, Khagaria, Bihar 851204",
    "phone": "Dr Bijay Babu Ka Homoeopathic Chikitsalaya",
    "hours": null,
    "image_url": "https://www.bing.com/maps/geoplat/REST/v1/Imagery/Map/RoadVibrant?ms=92,112&key=AnTcaqBi2ypp0xI-OZNi4W_ik2KhjgpqioTAtXLC8GzkMBQRMlyxvxyTnd5b73im&c=en-US&ur=in&da=n&logo=n&fmt=png&od=1&shading=hill&pp=25.505138,86.462715;dfp"
  },
  {
    "name": "Panchvidya Homoeo Clinic",
    "address": "Collectoriate Road, Koshi College Post Office, Khagaria, Bihar 851204",
    "phone": "Panchvidya Homoeo Clinic",
    "hours": null,
    "image_url": "https://www.bing.com/maps/geoplat/REST/v1/Imagery/Map/RoadVibrant?ms=92,112&key=AnTcaqBi2ypp0xI-OZNi4W_ik2KhjgpqioTAtXLC8GzkMBQRMlyxvxyTnd5b73im&c=en-US&ur=in&da=n&logo=n&fmt=png&od=1&shading=hill&pp=25.507238,86.48336;dfp"
  },
  {
    "name": "Keshav Homoeopathic Clinic",
    "address": "Jail Road, Koshi College, Khagaria, Bihar 851205",
    "phone": "Keshav Homoeopathic Clinic",
    "hours": null,
    "image_url": "https://www.bing.com/maps/geoplat/REST/v1/Imagery/Map/RoadVibrant?ms=92,112&key=AnTcaqBi2ypp0xI-OZNi4W_ik2KhjgpqioTAtXLC8GzkMBQRMlyxvxyTnd5b73im&c=en-US&ur=in&da=n&logo=n&fmt=png&od=1&shading=hill&pp=25.507589,86.487129;dfp"
  },
  {
    "name": "Maa Chandula Rani Clinic And Dialysis Centre",
    "address": "Baluahi Rd, Khagaria, Bihar 851204, India, Begusarai, Bihar 851204",
    "phone": "Maa Chandula Rani Clinic And Dialysis Centre",
    "hours": null,
    "image_url": "https://www.bing.com/maps/geoplat/REST/v1/Imagery/Map/RoadVibrant?ms=92,112&key=AnTcaqBi2ypp0xI-OZNi4W_ik2KhjgpqioTAtXLC8GzkMBQRMlyxvxyTnd5b73im&c=en-US&ur=in&da=n&logo=n&fmt=png&od=1&shading=hill&pp=25.504066,86.479393;dfp"
  },
  {
    "name": "Verma Homeyopathic Clinic",
    "address": "Housr NO. 0 \\ Housr NO. 5, Ground, PLY Mill GA, MAL Godown Road, Khagaria, Bihar 851204",
    "phone": "Verma Homeyopathic Clinic",
    "hours": null,
    "image_url": "https://www.bing.com/maps/geoplat/REST/v1/Imagery/Map/RoadVibrant?ms=92,112&key=AnTcaqBi2ypp0xI-OZNi4W_ik2KhjgpqioTAtXLC8GzkMBQRMlyxvxyTnd5b73im&c=en-US&ur=in&da=n&logo=n&fmt=png&od=1&shading=hill&pp=25.505215,86.461006;dfp"
  },
  {
    "name": "Dr Lal Path Labs",
    "address": "Collectoriate Road, Sanhauli, Khagaria, Bihar 851205",
    "phone": "Dr Lal Path Labs",
    "hours": "OpenÂ· Closes 19:30",
    "image_url": null
  },
  {
    "name": "Suraksha C T Scan And Diagnostic Centre",
    "address": "Axis Bank Khagaria, Khagaria, Bihar 851204",
    "phone": "Suraksha C T Scan And Diagnostic Centre",
    "hours": null,
    "image_url": "https://www.bing.com/maps/geoplat/REST/v1/Imagery/Map/RoadVibrant?ms=92,112&key=AnTcaqBi2ypp0xI-OZNi4W_ik2KhjgpqioTAtXLC8GzkMBQRMlyxvxyTnd5b73im&c=en-US&ur=in&da=n&logo=n&fmt=png&od=1&shading=hill&pp=25.503904,86.473083;dfp"
  },
  {
    "name": "Maa Sushila Ultrasound",
    "address": "State Bank Of India Sohhauli Branch, Khagaria, Bihar 851205",
    "phone": "Maa Sushila Ultrasound",
    "hours": null,
    "image_url": "https://www.bing.com/maps/geoplat/REST/v1/Imagery/Map/RoadVibrant?ms=92,112&key=AnTcaqBi2ypp0xI-OZNi4W_ik2KhjgpqioTAtXLC8GzkMBQRMlyxvxyTnd5b73im&c=en-US&ur=in&da=n&logo=n&fmt=png&od=1&shading=hill&pp=25.512186,86.475166;dfp"
  },
  {
    "name": "Unique Ultrasound Diagnostic Centre",
    "address": "Collectoriate Road, Jiban Care Hospital, Khagaria, Bihar 851205",
    "phone": "Unique Ultrasound Diagnostic Centre",
    "hours": null,
    "image_url": "https://www.bing.com/maps/geoplat/REST/v1/Imagery/Map/RoadVibrant?ms=92,112&key=AnTcaqBi2ypp0xI-OZNi4W_ik2KhjgpqioTAtXLC8GzkMBQRMlyxvxyTnd5b73im&c=en-US&ur=in&da=n&logo=n&fmt=png&od=1&shading=hill&pp=25.507401,86.47274;dfp"
  },
  {
    "name": "Ranjan Digital X Ray",
    "address": "Collectoriate Road, St Xaviers High School, Khagaria, Bihar 851204",
    "phone": "Ranjan Digital X Ray",
    "hours": null,
    "image_url": "https://www.bing.com/maps/geoplat/REST/v1/Imagery/Map/RoadVibrant?ms=92,112&key=AnTcaqBi2ypp0xI-OZNi4W_ik2KhjgpqioTAtXLC8GzkMBQRMlyxvxyTnd5b73im&c=en-US&ur=in&da=n&logo=n&fmt=png&od=1&shading=hill&pp=25.507166,86.471046;dfp"
  }
]