[
  {
    "name": "Dr. Patibandla Sudharshan Rao- General Physician",
    "address": "Dr. P. Sudarshan Rao, No. 7533 Gandhi Chowk Main Road, Khammam, Telangana 507003",
    "phone": "Dr. Patibandla Sudharshan Rao- General Physician",
    "hours": "Open· Closes 14:00",
    "image_url": "https://www.bing.com/maps/geoplat/REST/v1/Imagery/Map/RoadVibrant?ms=92,134&key=AnTcaqBi2ypp0xI-OZNi4W_ik2KhjgpqioTAtXLC8GzkMBQRMlyxvxyTnd5b73im&c=en-US&ur=in&da=n&logo=n&fmt=png&od=1&shading=hill&pp=17.246347,80.135887;dfp"
  },
  {
    "name": "Dr. B. K. Prasad",
    "address": "Karthikeya Multi Speciality Hospital, Opposite Old LIC Office, Wyra Road, Nehru Nagar, Khammam, Telangan…",
    "phone": "Dr. B. K. Prasad",
    "hours": "Open· Closes 19:00",
    "image_url": "https://www.bing.com/maps/geoplat/REST/v1/Imagery/Map/RoadVibrant?ms=92,112&key=AnTcaqBi2ypp0xI-OZNi4W_ik2KhjgpqioTAtXLC8GzkMBQRMlyxvxyTnd5b73im&c=en-US&ur=in&da=n&logo=n&fmt=png&od=1&shading=hill&pp=17.251801,80.141724;dfp"
  },
  {
    "name": "Dr. Ram Prasad N- General Physician",
    "address": "Aadhya Hospital, Mayur Center, Khammam, Telangana 507001",
    "phone": "Dr. Ram Prasad N- General Physician",
    "hours": "Open· Closes 19:00",
    "image_url": "https://www.bing.com/maps/geoplat/REST/v1/Imagery/Map/RoadVibrant?ms=92,134&key=AnTcaqBi2ypp0xI-OZNi4W_ik2KhjgpqioTAtXLC8GzkMBQRMlyxvxyTnd5b73im&c=en-US&ur=in&da=n&logo=n&fmt=png&od=1&shading=hill&pp=17.252468,80.13871;dfp"
  },
  {
    "name": "Dr. Nehru Banoth- General Physician",
    "address": "Dr. Nehru Hospital, House 4/ 5/ 75/ 6/ 1, Mahabababad, Telangana 506101",
    "phone": "Dr. Nehru Banoth- General Physician",
    "hours": "Open· Closes 14:00",
    "image_url": "https://www.bing.com/maps/geoplat/REST/v1/Imagery/Map/RoadVibrant?ms=92,134&key=AnTcaqBi2ypp0xI-OZNi4W_ik2KhjgpqioTAtXLC8GzkMBQRMlyxvxyTnd5b73im&c=en-US&ur=in&da=n&logo=n&fmt=png&od=1&shading=hill&pp=17.248466,80.150734;dfp"
  },
  {
    "name": "Sri Sai Maruthi Multi Super Speciality Hospital",
    "address": "8/2/2027, Beside Thirumala Talkies, Khammam, Telangana 507001",
    "phone": "Sri Sai Maruthi Multi Super Speciality Hospital",
    "hours": null,
    "image_url": "/th?id=OLC.2IjdiVJ1zI9AkQ480x360&w=92&h=112&c=8&rs=1&qlt=80&cdv=1&pid=Local"
  },
  {
    "name": "Dr.Jahnavi chavalam( General and Laparoscopic Surgeon)",
    "address": "Belief Hospital, Wyra Rd, Nizampet, Khammam, Telangana",
    "phone": "Dr.Jahnavi chavalam( General and Laparoscopic Surgeon)",
    "hours": null,
    "image_url": "https://www.bing.com/maps/geoplat/REST/v1/Imagery/Map/RoadVibrant?ms=92,112&key=AnTcaqBi2ypp0xI-OZNi4W_ik2KhjgpqioTAtXLC8GzkMBQRMlyxvxyTnd5b73im&c=en-US&ur=in&da=n&logo=n&fmt=png&od=1&shading=hill&pp=17.247591,80.149918;dfp"
  },
  {
    "name": "Dr.ganga Raju",
    "address": "1, Wyra Rd, Balaji Nagar, Telangana 507001",
    "phone": "Dr.ganga Raju",
    "hours": null,
    "image_url": "https://www.bing.com/maps/geoplat/REST/v1/Imagery/Map/RoadVibrant?ms=92,112&key=AnTcaqBi2ypp0xI-OZNi4W_ik2KhjgpqioTAtXLC8GzkMBQRMlyxvxyTnd5b73im&c=en-US&ur=in&da=n&logo=n&fmt=png&od=1&shading=hill&pp=17.250801,80.147858;dfp"
  },
  {
    "name": "Dr. Kavyachand Yalamudi",
    "address": "44, 11-2-44, Wyra Road, Balaji Nagar, Khammam, Telangana",
    "phone": "Dr. Kavyachand Yalamudi",
    "hours": "Open· Closes 22:00",
    "image_url": "https://www.bing.com/maps/geoplat/REST/v1/Imagery/Map/RoadVibrant?ms=92,112&key=AnTcaqBi2ypp0xI-OZNi4W_ik2KhjgpqioTAtXLC8GzkMBQRMlyxvxyTnd5b73im&c=en-US&ur=in&da=n&logo=n&fmt=png&od=1&shading=hill&pp=17.252077,80.143616;dfp"
  },
  {
    "name": "Dr Sunil Kumar Jangala",
    "address": "Mayuri Centre, Khammam, Telangana 507001",
    "phone": "Dr Sunil Kumar Jangala",
    "hours": null,
    "image_url": "https://www.bing.com/maps/geoplat/REST/v1/Imagery/Map/RoadVibrant?ms=92,112&key=AnTcaqBi2ypp0xI-OZNi4W_ik2KhjgpqioTAtXLC8GzkMBQRMlyxvxyTnd5b73im&c=en-US&ur=in&da=n&logo=n&fmt=png&od=1&shading=hill&pp=17.251823,80.141441;dfp"
  },
  {
    "name": "Dr. deepak varma's classical homoeopathy",
    "address": "Hno 7-1-78, Prabath Takies Road, Opp Vijayalaxmi Hospital, Khammam, Telangana, Telangana 507001",
    "phone": "Dr. deepak varma's classical homoeopathy",
    "hours": "Open· Closes 14:00",
    "image_url": "https://www.bing.com/maps/geoplat/REST/v1/Imagery/Map/RoadVibrant?ms=92,134&key=AnTcaqBi2ypp0xI-OZNi4W_ik2KhjgpqioTAtXLC8GzkMBQRMlyxvxyTnd5b73im&c=en-US&ur=in&da=n&logo=n&fmt=png&od=1&shading=hill&pp=17.24898,80.146591;dfp"
  },
  {
    "name": "Dr Sriharsha Kollu Surgical Gastroenterologist",
    "address": "Aarogya Hospital, Wyra Road, Khammam, Telangana, Telangana 507001",
    "phone": "Dr Sriharsha Kollu Surgical Gastroenterologist",
    "hours": null,
    "image_url": null
  },
  {
    "name": "Bhaskar Clinic",
    "address": "Zaheer Pura Park, Grain Market Road, Khammam, Telangana 507001, India, Khammam, Telangana 507001",
    "phone": "Bhaskar Clinic",
    "hours": null,
    "image_url": "https://www.bing.com/maps/geoplat/REST/v1/Imagery/Map/RoadVibrant?ms=92,112&key=AnTcaqBi2ypp0xI-OZNi4W_ik2KhjgpqioTAtXLC8GzkMBQRMlyxvxyTnd5b73im&c=en-US&ur=in&da=n&logo=n&fmt=png&od=1&shading=hill&pp=17.241318,80.135551;dfp"
  },
  {
    "name": "Dr. Am Reddy",
    "address": "11-2-44 Balaji Nagar Road, Khammam, Telangana 507001",
    "phone": "Dr. Am Reddy",
    "hours": "Opens in 8 mins",
    "image_url": "https://www.bing.com/maps/geoplat/REST/v1/Imagery/Map/RoadVibrant?ms=92,134&key=AnTcaqBi2ypp0xI-OZNi4W_ik2KhjgpqioTAtXLC8GzkMBQRMlyxvxyTnd5b73im&c=en-US&ur=in&da=n&logo=n&fmt=png&od=1&shading=hill&pp=17.251753,80.143921;dfp"
  },
  {
    "name": "Dr Vinod Babu Nephrologist KHIMS hospital Khammam",
    "address": "Wyra Road, Khammam, Madhya Pradesh 507001",
    "phone": "Dr Vinod Babu Nephrologist KHIMS hospital Khammam",
    "hours": "Open 24 hours",
    "image_url": null
  },
  {
    "name": "Dr. Padmanabha Rao",
    "address": "11-2-44, Wyra Road, Khammam, Telangana",
    "phone": "Dr. Padmanabha Rao",
    "hours": "Closed· Opens 11:00",
    "image_url": "https://www.bing.com/maps/geoplat/REST/v1/Imagery/Map/RoadVibrant?ms=92,112&key=AnTcaqBi2ypp0xI-OZNi4W_ik2KhjgpqioTAtXLC8GzkMBQRMlyxvxyTnd5b73im&c=en-US&ur=in&da=n&logo=n&fmt=png&od=1&shading=hill&pp=17.25017,80.145386;dfp"
  },
  {
    "name": "Dr. Malisetty Gurunadham",
    "address": "H No 11-2-24, Wyra Road, Land Mark: Opp Kinera Hospital, Khammam",
    "phone": "Dr. Malisetty Gurunadham",
    "hours": "Closed· Opens 11:30",
    "image_url": "https://www.bing.com/maps/geoplat/REST/v1/Imagery/Map/RoadVibrant?ms=92,112&key=AnTcaqBi2ypp0xI-OZNi4W_ik2KhjgpqioTAtXLC8GzkMBQRMlyxvxyTnd5b73im&c=en-US&ur=in&da=n&logo=n&fmt=png&od=1&shading=hill&pp=17.250759,80.14447;dfp"
  },
  {
    "name": "Dr. Care Homeopathy Clinic & Hospital",
    "address": "11-2-44, Wyra Rd, Balaji Nagar, Khammam, Telangana 507001, India, Khammam, Khammam 507001",
    "phone": "Dr. Care Homeopathy Clinic & Hospital",
    "hours": "Open· Closes 20:00",
    "image_url": "https://www.bing.com/maps/geoplat/REST/v1/Imagery/Map/RoadVibrant?ms=92,134&key=AnTcaqBi2ypp0xI-OZNi4W_ik2KhjgpqioTAtXLC8GzkMBQRMlyxvxyTnd5b73im&c=en-US&ur=in&da=n&logo=n&fmt=png&od=1&shading=hill&pp=17.250759,80.14447;dfp"
  },
  {
    "name": "Apollo Hospitals Enterprise",
    "address": "16922- Khammam Rural - Yedulapuram, Warangal X Road, D.no.5-21, Khammam, Telangana 507002",
    "phone": "Apollo Hospitals Enterprise",
    "hours": null,
    "image_url": "https://www.bing.com/maps/geoplat/REST/v1/Imagery/Map/RoadVibrant?ms=92,112&key=AnTcaqBi2ypp0xI-OZNi4W_ik2KhjgpqioTAtXLC8GzkMBQRMlyxvxyTnd5b73im&c=en-US&ur=in&da=n&logo=n&fmt=png&od=1&shading=hill&pp=17.243877,80.113701;dfp"
  }
]