[
  {
    "name": "Dr. Jaina A Shah Md",
    "address": "Maternity - Nursing Homeopp D D Desai School, Sant, Kheda, Gujarat 387001",
    "phone": "Dr. Jaina A Shah Md",
    "hours": null,
    "image_url": "/th?id=OLC.fbiOT1hdoHMV9A480x360&w=92&h=112&c=8&rs=1&qlt=80&cdv=1&pid=Local"
  },
  {
    "name": "Dr. Mustak GulamMahmad Vahora- General Physician in Kheda",
    "address": "Dr. Mustak Gulammahmad Vahora, AL-Shifa Hospital, Near Mgvcl Office, Opp Hiramoti Hotel, Umreth-Dakor …",
    "phone": "Dr. Mustak GulamMahmad Vahora- General Physician in Kheda",
    "hours": "Open· Closes 12:30",
    "image_url": "https://www.bing.com/maps/geoplat/REST/v1/Imagery/Map/RoadVibrant?ms=92,134&key=AnTcaqBi2ypp0xI-OZNi4W_ik2KhjgpqioTAtXLC8GzkMBQRMlyxvxyTnd5b73im&c=en-US&ur=in&da=n&logo=n&fmt=png&od=1&shading=hill&pp=22.705383,73.118904;dfp"
  },
  {
    "name": "Om Sai Clinic",
    "address": "C.S No 3313, Opp Firesatation, Kapadvanj, Kheda, Gujarat 387620",
    "phone": "Om Sai Clinic",
    "hours": null,
    "image_url": "/th?id=OLC.SOEbYJFag5tNNQ480x360&w=92&h=112&c=8&rs=1&qlt=80&cdv=1&pid=Local"
  },
  {
    "name": "Dr. Jayesh Pavra",
    "address": "Shree Meladi Maa T B Hospital, Kheda, Gujarat",
    "phone": "Dr. Jayesh Pavra",
    "hours": "Closed· Opens 11:30",
    "image_url": "/th?id=OLC.you8uuH4CLj0Bw480x360&w=92&h=112&c=8&rs=1&qlt=80&cdv=1&pid=Local"
  },
  {
    "name": "Vatsala Clinic",
    "address": "Kheda City, Kheda Mahemdabad Road, Kheda, Gujarat 387411",
    "phone": "Vatsala Clinic",
    "hours": null,
    "image_url": "https://www.bing.com/maps/geoplat/REST/v1/Imagery/Map/RoadVibrant?ms=92,112&key=AnTcaqBi2ypp0xI-OZNi4W_ik2KhjgpqioTAtXLC8GzkMBQRMlyxvxyTnd5b73im&c=en-US&ur=in&da=n&logo=n&fmt=png&od=1&shading=hill&pp=22.748489,72.684952;dfp"
  },
  {
    "name": "Dr. Vaibhav Kumar- Orthopaedic Surgeon",
    "address": "Ved Orthopaedic & Icu Hospital, Near Varun Trelor Khatraj Chokdi, Ahmemdabad Road, Mahemdavad, Dis…",
    "phone": "Dr. Vaibhav Kumar- Orthopaedic Surgeon",
    "hours": "Open· Closes 21:00",
    "image_url": "/th?id=OLC.STBFw3fxlxr0Bg480x360&w=92&h=134&c=8&rs=1&qlt=80&cdv=1&pid=Local"
  },
  {
    "name": "Siddihi Clinic",
    "address": "Kheda Road, Kheda, Gujarat 387411",
    "phone": "Siddihi Clinic",
    "hours": null,
    "image_url": "https://www.bing.com/maps/geoplat/REST/v1/Imagery/Map/RoadVibrant?ms=92,112&key=AnTcaqBi2ypp0xI-OZNi4W_ik2KhjgpqioTAtXLC8GzkMBQRMlyxvxyTnd5b73im&c=en-US&ur=in&da=n&logo=n&fmt=png&od=1&shading=hill&pp=22.746086,72.685684;dfp"
  },
  {
    "name": "Zydus Super Speciality Clinic | Nadiad",
    "address": "15/A, Karmavir Samrajya Complex, Near Bank Of Baroda, VKV Road, Nadiad, Nadiad, Gujarat 387001",
    "phone": "Zydus Super Speciality Clinic | Nadiad",
    "hours": "Closed· Opens 17:00",
    "image_url": "https://www.bing.com/maps/geoplat/REST/v1/Imagery/Map/RoadVibrant?ms=92,112&key=AnTcaqBi2ypp0xI-OZNi4W_ik2KhjgpqioTAtXLC8GzkMBQRMlyxvxyTnd5b73im&c=en-US&ur=in&da=n&logo=n&fmt=png&od=1&shading=hill&pp=22.682314,72.868446;dfp"
  },
  {
    "name": "Vivek Clinic",
    "address": "Shree Ram Complex, Kapadvanj Road, Kathlal, Kapadvanj, Gujarat 387630",
    "phone": "Vivek Clinic",
    "hours": null,
    "image_url": "https://www.bing.com/maps/geoplat/REST/v1/Imagery/Map/RoadVibrant?ms=92,112&key=AnTcaqBi2ypp0xI-OZNi4W_ik2KhjgpqioTAtXLC8GzkMBQRMlyxvxyTnd5b73im&c=en-US&ur=in&da=n&logo=n&fmt=png&od=1&shading=hill&pp=22.89657,72.989265;dfp"
  },
  {
    "name": "Dr. Purshottum Das- General Physician",
    "address": "Sushil Hospital, Mayur Kunj Society, V K V Road, Nadiad Ho, Nadiad, Gujarat 387001",
    "phone": "Dr. Purshottum Das- General Physician",
    "hours": "Open· Closes 13:00",
    "image_url": "https://www.bing.com/maps/geoplat/REST/v1/Imagery/Map/RoadVibrant?ms=92,134&key=AnTcaqBi2ypp0xI-OZNi4W_ik2KhjgpqioTAtXLC8GzkMBQRMlyxvxyTnd5b73im&c=en-US&ur=in&da=n&logo=n&fmt=png&od=1&shading=hill&pp=22.682413,72.864876;dfp"
  },
  {
    "name": "Krishna Clinic and Maternity Hospital",
    "address": "B/h Government Hospital, Kuberji Mahadev Na Meda Upar, Kheda, Gujarat 387630",
    "phone": "Krishna Clinic and Maternity Hospital",
    "hours": null,
    "image_url": "https://www.bing.com/maps/geoplat/REST/v1/Imagery/Map/RoadVibrant?ms=92,112&key=AnTcaqBi2ypp0xI-OZNi4W_ik2KhjgpqioTAtXLC8GzkMBQRMlyxvxyTnd5b73im&c=en-US&ur=in&da=n&logo=n&fmt=png&od=1&shading=hill&pp=22.898455,72.990456;dfp"
  },
  {
    "name": "Dr Chirag Clinic",
    "address": "Balasinor Road, Sevaliya, Thasra, Gujarat 388245",
    "phone": "Dr Chirag Clinic",
    "hours": null,
    "image_url": "https://www.bing.com/maps/geoplat/REST/v1/Imagery/Map/RoadVibrant?ms=92,112&key=AnTcaqBi2ypp0xI-OZNi4W_ik2KhjgpqioTAtXLC8GzkMBQRMlyxvxyTnd5b73im&c=en-US&ur=in&da=n&logo=n&fmt=png&od=1&shading=hill&pp=22.822771,73.342506;dfp"
  },
  {
    "name": "Kalgi Homeopathic Clinic",
    "address": "Kathlal Market, Kapadvanj Road, Kathlal, Kapadvanj, Gujarat 387630",
    "phone": "Kalgi Homeopathic Clinic",
    "hours": null,
    "image_url": "https://www.bing.com/maps/geoplat/REST/v1/Imagery/Map/RoadVibrant?ms=92,112&key=AnTcaqBi2ypp0xI-OZNi4W_ik2KhjgpqioTAtXLC8GzkMBQRMlyxvxyTnd5b73im&c=en-US&ur=in&da=n&logo=n&fmt=png&od=1&shading=hill&pp=22.900581,72.990082;dfp"
  },
  {
    "name": "Nandini Clinic",
    "address": "Main Bazar, Chaklasi, Gujarat 387315",
    "phone": "Nandini Clinic",
    "hours": null,
    "image_url": null
  },
  {
    "name": "Shraddha Clinic",
    "address": "Thasra Road, Thasra, Gujarat 388250",
    "phone": "Shraddha Clinic",
    "hours": null,
    "image_url": "https://www.bing.com/maps/geoplat/REST/v1/Imagery/Map/RoadVibrant?ms=92,112&key=AnTcaqBi2ypp0xI-OZNi4W_ik2KhjgpqioTAtXLC8GzkMBQRMlyxvxyTnd5b73im&c=en-US&ur=in&da=n&logo=n&fmt=png&od=1&shading=hill&pp=22.799788,73.212402;dfp"
  },
  {
    "name": "Maa Clinic",
    "address": "Baliyadev, Vadad Chowkdi Road, Thasra, Gujarat 388250",
    "phone": "Maa Clinic",
    "hours": null,
    "image_url": "https://www.bing.com/maps/geoplat/REST/v1/Imagery/Map/RoadVibrant?ms=92,112&key=AnTcaqBi2ypp0xI-OZNi4W_ik2KhjgpqioTAtXLC8GzkMBQRMlyxvxyTnd5b73im&c=en-US&ur=in&da=n&logo=n&fmt=png&od=1&shading=hill&pp=22.799297,73.214745;dfp"
  },
  {
    "name": "Gayatri Clinic",
    "address": "Moto Saiyawado, Tower Road, Thasra, Gujarat 388250",
    "phone": "Gayatri Clinic",
    "hours": null,
    "image_url": "https://www.bing.com/maps/geoplat/REST/v1/Imagery/Map/RoadVibrant?ms=92,112&key=AnTcaqBi2ypp0xI-OZNi4W_ik2KhjgpqioTAtXLC8GzkMBQRMlyxvxyTnd5b73im&c=en-US&ur=in&da=n&logo=n&fmt=png&od=1&shading=hill&pp=22.797102,73.211945;dfp"
  },
  {
    "name": "Shree Clinic",
    "address": "Railway Station Road, Bhaikaka, Vallabh Vidyanagar, Anand, Gujarat 388120",
    "phone": "Shree Clinic",
    "hours": null,
    "image_url": "https://www.bing.com/maps/geoplat/REST/v1/Imagery/Map/RoadVibrant?ms=92,112&key=AnTcaqBi2ypp0xI-OZNi4W_ik2KhjgpqioTAtXLC8GzkMBQRMlyxvxyTnd5b73im&c=en-US&ur=in&da=n&logo=n&fmt=png&od=1&shading=hill&pp=22.545626,72.93383;dfp"
  }
]