[
  {
    "name": "Ramsha Clinic",
    "address": "Sitalpur Lakhimpur Road, Petrol Pump, Kheri, Uttar Pradesh 262701",
    "phone": "Ramsha Clinic",
    "hours": null,
    "image_url": "https://www.bing.com/maps/geoplat/REST/v1/Imagery/Map/RoadVibrant?ms=92,112&key=AnTcaqBi2ypp0xI-OZNi4W_ik2KhjgpqioTAtXLC8GzkMBQRMlyxvxyTnd5b73im&c=en-US&ur=in&da=n&logo=n&fmt=png&od=1&shading=hill&pp=27.902514,80.798439;dfp"
  },
  {
    "name": "Dr Subedh Sukla Clinic",
    "address": "Kheri Road, Lakhimpur, Uttar Pradesh 262701",
    "phone": "Dr Subedh Sukla Clinic",
    "hours": null,
    "image_url": "https://www.bing.com/maps/geoplat/REST/v1/Imagery/Map/RoadVibrant?ms=92,112&key=AnTcaqBi2ypp0xI-OZNi4W_ik2KhjgpqioTAtXLC8GzkMBQRMlyxvxyTnd5b73im&c=en-US&ur=in&da=n&logo=n&fmt=png&od=1&shading=hill&pp=27.945137,80.784142;dfp"
  },
  {
    "name": "Dr Vijay Prakash Clinic",
    "address": "Bus Stand Road, Kheri, Lakhimpur, Uttar Pradesh 262701",
    "phone": "Dr Vijay Prakash Clinic",
    "hours": null,
    "image_url": "https://www.bing.com/maps/geoplat/REST/v1/Imagery/Map/RoadVibrant?ms=92,112&key=AnTcaqBi2ypp0xI-OZNi4W_ik2KhjgpqioTAtXLC8GzkMBQRMlyxvxyTnd5b73im&c=en-US&ur=in&da=n&logo=n&fmt=png&od=1&shading=hill&pp=27.94042,80.775681;dfp"
  },
  {
    "name": "Dr. Rajesh Kumar Internal Medicine",
    "address": "Punjabi Colony Lakhimpur Kheri, Lakhimpur, Uttar Pradesh 262701",
    "phone": "Dr. Rajesh Kumar Internal Medicine",
    "hours": "Closed· Opens 17:00",
    "image_url": "/th?id=OLC.tIZVYhHnA25rag480x360&w=92&h=134&c=8&rs=1&qlt=80&cdv=1&pid=Local"
  },
  {
    "name": "Shree Bala Ji Phram Clinic",
    "address": "No, Arjun Purwa, Seth Ghat Road, Lakhimpur, Lakhimpur Kheri, Uttar Pradesh 262701",
    "phone": "Shree Bala Ji Phram Clinic",
    "hours": null,
    "image_url": "https://www.bing.com/maps/geoplat/REST/v1/Imagery/Map/RoadVibrant?ms=92,112&key=AnTcaqBi2ypp0xI-OZNi4W_ik2KhjgpqioTAtXLC8GzkMBQRMlyxvxyTnd5b73im&c=en-US&ur=in&da=n&logo=n&fmt=png&od=1&shading=hill&pp=27.927868,80.789421;dfp"
  },
  {
    "name": "Dinesh Agro Clinic Center",
    "address": "Lakhimpur, Bhanpuri, Khajuria, Lakhimpur Kheri, Uttar Pradesh 262904",
    "phone": "Dinesh Agro Clinic Center",
    "hours": null,
    "image_url": "https://www.bing.com/maps/geoplat/REST/v1/Imagery/Map/RoadVibrant?ms=92,112&key=AnTcaqBi2ypp0xI-OZNi4W_ik2KhjgpqioTAtXLC8GzkMBQRMlyxvxyTnd5b73im&c=en-US&ur=in&da=n&logo=n&fmt=png&od=1&shading=hill&pp=27.909845,80.793541;dfp"
  },
  {
    "name": "Deep Homeopathic Clinic & Research Centre Dr Desh Deepak Jaiswal MD",
    "address": "Islamiya Complex, Maharaj Nagar, Kheri Road, Lakhimpur Kheiri, Uttar Pradesh 262701",
    "phone": "Deep Homeopathic Clinic & Research Centre Dr Desh Deepak Jaiswal MD",
    "hours": "Closed· Opens 11:00",
    "image_url": null
  },
  {
    "name": "Dr M P Verma Clinic",
    "address": "Hargaon Road, Raj Garh, Lakhimpur, Uttar Pradesh 262701",
    "phone": "Dr M P Verma Clinic",
    "hours": null,
    "image_url": "https://www.bing.com/maps/geoplat/REST/v1/Imagery/Map/RoadVibrant?ms=92,112&key=AnTcaqBi2ypp0xI-OZNi4W_ik2KhjgpqioTAtXLC8GzkMBQRMlyxvxyTnd5b73im&c=en-US&ur=in&da=n&logo=n&fmt=png&od=1&shading=hill&pp=27.937601,80.774178;dfp"
  },
  {
    "name": "Patel Clinic",
    "address": "Sitalpur Lakhimpur Road, Railway Station, Lakhimpur, Uttar Pradesh 262701",
    "phone": "Patel Clinic",
    "hours": null,
    "image_url": "https://www.bing.com/maps/geoplat/REST/v1/Imagery/Map/RoadVibrant?ms=92,112&key=AnTcaqBi2ypp0xI-OZNi4W_ik2KhjgpqioTAtXLC8GzkMBQRMlyxvxyTnd5b73im&c=en-US&ur=in&da=n&logo=n&fmt=png&od=1&shading=hill&pp=27.935265,80.772522;dfp"
  },
  {
    "name": "Sanjeevani Homeopathic Clinic",
    "address": "Motinagar, Behjam Road(Near Vatsalya Nursing Home), Lakhimpur, Uttar Pradesh, Uttar Pradesh 262701",
    "phone": "Sanjeevani Homeopathic Clinic",
    "hours": "Open· Closes 14:00",
    "image_url": null
  },
  {
    "name": "Maya Clinic",
    "address": "Kukundar Road, Kheri, Lakhimpur, Uttar Pradesh 262701",
    "phone": "Maya Clinic",
    "hours": null,
    "image_url": "https://www.bing.com/maps/geoplat/REST/v1/Imagery/Map/RoadVibrant?ms=92,112&key=AnTcaqBi2ypp0xI-OZNi4W_ik2KhjgpqioTAtXLC8GzkMBQRMlyxvxyTnd5b73im&c=en-US&ur=in&da=n&logo=n&fmt=png&od=1&shading=hill&pp=27.940617,80.775993;dfp"
  },
  {
    "name": "Dr Rajesh homoeopathic clinic",
    "address": "Sh-21, Lakhimpur, Uttar Pradesh 262701",
    "phone": "Dr Rajesh homoeopathic clinic",
    "hours": null,
    "image_url": "https://www.bing.com/maps/geoplat/REST/v1/Imagery/Map/RoadVibrant?ms=92,112&key=AnTcaqBi2ypp0xI-OZNi4W_ik2KhjgpqioTAtXLC8GzkMBQRMlyxvxyTnd5b73im&c=en-US&ur=in&da=n&logo=n&fmt=png&od=1&shading=hill&pp=27.942129,80.776649;dfp"
  },
  {
    "name": "Kilkari Child Care & Fertility Center, Dr Anjani Mishra",
    "address": "Dr Anjani Mishra, Kashinagar, Lakhimpur, Uttar Pradesh",
    "phone": "Kilkari Child Care & Fertility Center, Dr Anjani Mishra",
    "hours": null,
    "image_url": "https://www.bing.com/maps/geoplat/REST/v1/Imagery/Map/RoadVibrant?ms=92,112&key=AnTcaqBi2ypp0xI-OZNi4W_ik2KhjgpqioTAtXLC8GzkMBQRMlyxvxyTnd5b73im&c=en-US&ur=in&da=n&logo=n&fmt=png&od=1&shading=hill&pp=27.927275,80.797234;dfp"
  },
  {
    "name": "Chandan Diagnostic Centre",
    "address": "1st Floor Kamnath Market Hospital, Road, Lakhimpur, Uttar Pradesh",
    "phone": "Chandan Diagnostic Centre",
    "hours": "Open· Closes 18:00",
    "image_url": null
  },
  {
    "name": "Dr Ravi Varma Dental Hospital",
    "address": "Kheri Road, Sojanya Chowk, Lakhimpur, Uttar Pradesh 262701",
    "phone": "Dr Ravi Varma Dental Hospital",
    "hours": null,
    "image_url": "https://www.bing.com/maps/geoplat/REST/v1/Imagery/Map/RoadVibrant?ms=92,112&key=AnTcaqBi2ypp0xI-OZNi4W_ik2KhjgpqioTAtXLC8GzkMBQRMlyxvxyTnd5b73im&c=en-US&ur=in&da=n&logo=n&fmt=png&od=1&shading=hill&pp=27.937,80.787003;dfp"
  },
  {
    "name": "Dr. Adil khan Dermatologist",
    "address": "Lakhimpur Kheri, Uttar Pradesh 262804",
    "phone": "Dr. Adil khan Dermatologist",
    "hours": "Open· Closes 20:00",
    "image_url": null
  }
]