[
  {
    "name": "Dr. Aditya Das",
    "address": "Khurdha Jadni Road, Khurdha, Orissa",
    "phone": "Dr. Aditya Das",
    "hours": "Closed· Opens 11:30",
    "image_url": "https://www.bing.com/maps/geoplat/REST/v1/Imagery/Map/RoadVibrant?ms=92,112&key=AnTcaqBi2ypp0xI-OZNi4W_ik2KhjgpqioTAtXLC8GzkMBQRMlyxvxyTnd5b73im&c=en-US&ur=in&da=n&logo=n&fmt=png&od=1&shading=hill&pp=20.184002,85.647644;dfp"
  },
  {
    "name": "Dr. Purnendu Kumar Behera | Sulapita Clinic",
    "address": "Near Post Office Khurda, Khorda, Orissa 752055, Khordha, Orissa, India, 752055, Khordha, Madhya Prad…",
    "phone": "Dr. Purnendu Kumar Behera | Sulapita Clinic",
    "hours": "Open· Closes 20:00",
    "image_url": "https://www.bing.com/maps/geoplat/REST/v1/Imagery/Map/RoadVibrant?ms=92,112&key=AnTcaqBi2ypp0xI-OZNi4W_ik2KhjgpqioTAtXLC8GzkMBQRMlyxvxyTnd5b73im&c=en-US&ur=in&da=n&logo=n&fmt=png&od=1&shading=hill&pp=20.159792,85.70356;clcp"
  },
  {
    "name": "Dr Sujata Kar - Best Obstetrician and Gynecologist Doctor",
    "address": "Kar Clinic & Hospital, A-32, Bhubaneswar, Khorda, Odisha 751002",
    "phone": "Dr Sujata Kar - Best Obstetrician and Gynecologist Doctor",
    "hours": null,
    "image_url": "https://www.bing.com/maps/geoplat/REST/v1/Imagery/Map/RoadVibrant?ms=92,112&key=AnTcaqBi2ypp0xI-OZNi4W_ik2KhjgpqioTAtXLC8GzkMBQRMlyxvxyTnd5b73im&c=en-US&ur=in&da=n&logo=n&fmt=png&od=1&shading=hill&pp=20.242149,85.850288;dfp"
  },
  {
    "name": "Dr.Mahesh Rath",
    "address": "Plot No, 557, Saheed Nagar Rd, Bhubaneswar, Khorda, Odisha 751002",
    "phone": "Dr.Mahesh Rath",
    "hours": null,
    "image_url": "https://www.bing.com/maps/geoplat/REST/v1/Imagery/Map/RoadVibrant?ms=92,112&key=AnTcaqBi2ypp0xI-OZNi4W_ik2KhjgpqioTAtXLC8GzkMBQRMlyxvxyTnd5b73im&c=en-US&ur=in&da=n&logo=n&fmt=png&od=1&shading=hill&pp=20.25016,85.836174;dfp"
  },
  {
    "name": "Chandan Clinic",
    "address": "Sh-13, Jatani 752050",
    "phone": "Chandan Clinic",
    "hours": null,
    "image_url": "/th?id=OLC.rxXgopQle%2fEaww480x360&w=92&h=112&c=8&rs=1&qlt=80&cdv=1&pid=Local"
  },
  {
    "name": "Dr. Mithun Chakravarti's HOMOEO CLINIC",
    "address": "Police Station, Town Committee Market Complex, Ground Floor, Room No-3 Opp. Tihu Bus Stand & Tihu, Tihu, A…",
    "phone": "Dr. Mithun Chakravarti's HOMOEO CLINIC",
    "hours": null,
    "image_url": "https://www.bing.com/maps/geoplat/REST/v1/Imagery/Map/RoadVibrant?ms=92,112&key=AnTcaqBi2ypp0xI-OZNi4W_ik2KhjgpqioTAtXLC8GzkMBQRMlyxvxyTnd5b73im&c=en-US&ur=in&da=n&logo=n&fmt=png&od=1&shading=hill&pp=20.158026,85.711403;dfp"
  },
  {
    "name": "Dr. Sunil Agrawala",
    "address": "Jatney, Orissa",
    "phone": "Dr. Sunil Agrawala",
    "hours": "Closed· Opens 19:00",
    "image_url": null
  },
  {
    "name": "Dr. U.N. sahoo- General Physician",
    "address": "Gayarani Sevasadan Telemedicine And Research Centre, Mig 186, Patrapada, Kalinga Bihar, Bhubanesw…",
    "phone": "Dr. U.N. sahoo- General Physician",
    "hours": "Open· Closes 13:00",
    "image_url": null
  },
  {
    "name": "Dr. Parth Samal- Homeopath In Bhubaneshwar",
    "address": "Samal Clinic, HIG- 221, K5, Kalinga Vihar, Patrapada, Near Of Eva's Dress Shop, Bhubaneswar 751019",
    "phone": "Dr. Parth Samal- Homeopath In Bhubaneshwar",
    "hours": "Closed· Opens 13:00",
    "image_url": "https://www.bing.com/maps/geoplat/REST/v1/Imagery/Map/RoadVibrant?ms=92,134&key=AnTcaqBi2ypp0xI-OZNi4W_ik2KhjgpqioTAtXLC8GzkMBQRMlyxvxyTnd5b73im&c=en-US&ur=in&da=n&logo=n&fmt=png&od=1&shading=hill&pp=20.23538,85.753685;dfp"
  },
  {
    "name": "Dr Ragini & Narendra Mohanty Foundation",
    "address": "Plot NO-113/3029, Khata-703, Kalinga Nagar, Patrapada, Bhubaneswar, Khordha, Odisha 751019",
    "phone": "Dr Ragini & Narendra Mohanty Foundation",
    "hours": null,
    "image_url": "https://www.bing.com/maps/geoplat/REST/v1/Imagery/Map/RoadVibrant?ms=92,112&key=AnTcaqBi2ypp0xI-OZNi4W_ik2KhjgpqioTAtXLC8GzkMBQRMlyxvxyTnd5b73im&c=en-US&ur=in&da=n&logo=n&fmt=png&od=1&shading=hill&pp=20.24087,85.758003;dfp"
  },
  {
    "name": "Sai Sradha Clinic and Sample Collection Center",
    "address": "Flat NO 004, Plot NO 50, Ghatikia, Bhubaneswar, Khordha, Odisha 751003",
    "phone": "Sai Sradha Clinic and Sample Collection Center",
    "hours": null,
    "image_url": "https://www.bing.com/maps/geoplat/REST/v1/Imagery/Map/RoadVibrant?ms=92,112&key=AnTcaqBi2ypp0xI-OZNi4W_ik2KhjgpqioTAtXLC8GzkMBQRMlyxvxyTnd5b73im&c=en-US&ur=in&da=n&logo=n&fmt=png&od=1&shading=hill&pp=20.283604,85.793427;dfp"
  },
  {
    "name": "Metropolis Healthcare Limited - Pathology Lab, Diagnostic Centre",
    "address": "House No M30, MIG, Chhak, Near Kalinga Hospital, Samanta Vihar, Khorda, Odisha",
    "phone": "Metropolis Healthcare Limited - Pathology Lab, Diagnostic Centre",
    "hours": "Open· Closes 19:30",
    "image_url": "https://www.bing.com/maps/geoplat/REST/v1/Imagery/Map/RoadVibrant?ms=92,112&key=AnTcaqBi2ypp0xI-OZNi4W_ik2KhjgpqioTAtXLC8GzkMBQRMlyxvxyTnd5b73im&c=en-US&ur=in&da=n&logo=n&fmt=png&od=1&shading=hill&pp=20.281466,85.762909;dfp"
  },
  {
    "name": "Bhagirathi Ayurveda Clinic",
    "address": "Plot No\\ 870, K\\4, Kalinga Vihar, Near Jagannath Temple, Bhubaneswar, Khordha, Odisha 751019",
    "phone": "Bhagirathi Ayurveda Clinic",
    "hours": null,
    "image_url": null
  },
  {
    "name": "Dr Das Kidney Care CLINIC-Dr Sukant Kishore Das",
    "address": "Near Bajarangi Pharmaceuticals Naka Gate, Khandagiri, Bhubaneswar, Odisha",
    "phone": "Dr Das Kidney Care CLINIC-Dr Sukant Kishore Das",
    "hours": null,
    "image_url": "https://www.bing.com/maps/geoplat/REST/v1/Imagery/Map/RoadVibrant?ms=92,112&key=AnTcaqBi2ypp0xI-OZNi4W_ik2KhjgpqioTAtXLC8GzkMBQRMlyxvxyTnd5b73im&c=en-US&ur=in&da=n&logo=n&fmt=png&od=1&shading=hill&pp=20.267538,85.783798;dfp"
  },
  {
    "name": "Dr Lal PathLabs - Patient Service Centre",
    "address": "Plot No 735/854, Laxmi Bazar, Tamando, Khordha, Khorda 752054",
    "phone": "Dr Lal PathLabs - Patient Service Centre",
    "hours": "Open· Closes 20:00",
    "image_url": "https://www.bing.com/maps/geoplat/REST/v1/Imagery/Map/RoadVibrant?ms=92,134&key=AnTcaqBi2ypp0xI-OZNi4W_ik2KhjgpqioTAtXLC8GzkMBQRMlyxvxyTnd5b73im&c=en-US&ur=in&da=n&logo=n&fmt=png&od=1&shading=hill&pp=20.236721,85.747482;dfp"
  },
  {
    "name": "Dr. Pradeep- Consultant Interventional Cardiologist",
    "address": "Saraswati Polyclinic, Housing Board Colony, Near Amri Hospital, Bhubaneswar 751030",
    "phone": "Dr. Pradeep- Consultant Interventional Cardiologist",
    "hours": "Closed· Opens 17:30",
    "image_url": null
  }
]