[
  {
    "name": "Dr Swati's Clinic",
    "address": "Tiril Road, Ranchi, Jharkhand 834001",
    "phone": "Dr Swati's Clinic",
    "hours": "Open· Closes 20:00",
    "image_url": "/th?id=OLC.J6PNsfiMs%2bYW%2fg480x360&w=92&h=134&c=8&rs=1&qlt=80&cdv=1&pid=Local"
  },
  {
    "name": "Dr. Sunil Kumar Singh- General Physician",
    "address": "Shyam Medical Hall, High Court Colony, Harmu Bypass Road, Landmark: Near Sahjanand Chowk, Ranchi, Jhar…",
    "phone": "Dr. Sunil Kumar Singh- General Physician",
    "hours": "Closed· Opens 17:00",
    "image_url": "https://www.bing.com/maps/geoplat/REST/v1/Imagery/Map/RoadVibrant?ms=92,134&key=AnTcaqBi2ypp0xI-OZNi4W_ik2KhjgpqioTAtXLC8GzkMBQRMlyxvxyTnd5b73im&c=en-US&ur=in&da=n&logo=n&fmt=png&od=1&shading=hill&pp=23.359596,85.303886;dfp"
  },
  {
    "name": "Dr. J K Rath- General Physician In Jharkhand",
    "address": "Dr. J K Rath's Clinic, Qr. No. K- 67, Shyamali Colony, Ranchi, Jharkhand 834002",
    "phone": "Dr. J K Rath- General Physician In Jharkhand",
    "hours": null,
    "image_url": "https://www.bing.com/maps/geoplat/REST/v1/Imagery/Map/RoadVibrant?ms=92,112&key=AnTcaqBi2ypp0xI-OZNi4W_ik2KhjgpqioTAtXLC8GzkMBQRMlyxvxyTnd5b73im&c=en-US&ur=in&da=n&logo=n&fmt=png&od=1&shading=hill&pp=23.339817,85.303375;dfp"
  },
  {
    "name": "Dr R.R Bhatta Charya",
    "address": "House-No-39/A Mandir Marg Hatia Station Road Near Durga Mandir Birsa Chowk. Ranchi, Ranchi, Jharkhan…",
    "phone": "Dr R.R Bhatta Charya",
    "hours": null,
    "image_url": "/th?id=OLC.kIW9Hlk7%2bf0sZQ480x360&w=92&h=112&c=8&rs=1&qlt=80&cdv=1&pid=Local"
  },
  {
    "name": "Health Check Clinic - Dr Neeraj Kumar, Consultant Physician I Dr",
    "address": "Harmu Maidan, MIG - A/33 Near, Patel Chowk, Ranchi, Jharkhand",
    "phone": "Health Check Clinic - Dr Neeraj Kumar, Consultant Physician I Dr",
    "hours": null,
    "image_url": "https://www.bing.com/maps/geoplat/REST/v1/Imagery/Map/RoadVibrant?ms=92,112&key=AnTcaqBi2ypp0xI-OZNi4W_ik2KhjgpqioTAtXLC8GzkMBQRMlyxvxyTnd5b73im&c=en-US&ur=in&da=n&logo=n&fmt=png&od=1&shading=hill&pp=23.356911,85.301605;dfp"
  },
  {
    "name": "Dr. Avinash Kumar Jha | GI Surgery, GI Oncologist & Bariatric Surgeon",
    "address": "Room No. 21, Ground Floor, Medanta Hospital Ranchi Irba, P.S: Ormanjhi, NH-33, Ranchi, Jharkhand",
    "phone": "Dr. Avinash Kumar Jha | GI Surgery, GI Oncologist & Bariatric Surgeon",
    "hours": null,
    "image_url": "https://www.bing.com/maps/geoplat/REST/v1/Imagery/Map/RoadVibrant?ms=92,112&key=AnTcaqBi2ypp0xI-OZNi4W_ik2KhjgpqioTAtXLC8GzkMBQRMlyxvxyTnd5b73im&c=en-US&ur=in&da=n&logo=n&fmt=png&od=1&shading=hill&pp=23.373682,85.333534;dfp"
  },
  {
    "name": "Dr Rohit Rungta- knee and hip surgeon",
    "address": "Anand Complex, Adjacent to Lalpur Thana, Hazaribag Rd, Next to Orchid Hospital, Ranchi, Jharkhand 834001",
    "phone": "Dr Rohit Rungta- knee and hip surgeon",
    "hours": null,
    "image_url": null
  },
  {
    "name": "Delta Multispeciality clinic",
    "address": "Near, Jk Bank Nagri, Near J&K Bank Nagri, Thalanga, Doda",
    "phone": "Delta Multispeciality clinic",
    "hours": null,
    "image_url": "https://www.bing.com/maps/geoplat/REST/v1/Imagery/Map/RoadVibrant?ms=92,112&key=AnTcaqBi2ypp0xI-OZNi4W_ik2KhjgpqioTAtXLC8GzkMBQRMlyxvxyTnd5b73im&c=en-US&ur=in&da=n&logo=n&fmt=png&od=1&shading=hill&pp=23.337837,85.31353;dfp"
  },
  {
    "name": "Dr Navin Burnwal-best kidney doctor and nephrologist",
    "address": "Orchid Hospital, H.B. Road Near Lalpur Thana, Ranchi, Jharkhand",
    "phone": "Dr Navin Burnwal-best kidney doctor and nephrologist",
    "hours": null,
    "image_url": "https://www.bing.com/maps/geoplat/REST/v1/Imagery/Map/RoadVibrant?ms=92,112&key=AnTcaqBi2ypp0xI-OZNi4W_ik2KhjgpqioTAtXLC8GzkMBQRMlyxvxyTnd5b73im&c=en-US&ur=in&da=n&logo=n&fmt=png&od=1&shading=hill&pp=23.370607,85.33931;dfp"
  },
  {
    "name": "Om Sai Piles Clinic - Best Piles Doctor/Best Piles Hospital",
    "address": "Chowk, Namkum Main Rd, Near Mahavir Mandir, Lichi Bagan, Lowadih, Ranchi, Jharkhand",
    "phone": "Om Sai Piles Clinic - Best Piles Doctor/Best Piles Hospital",
    "hours": null,
    "image_url": null
  },
  {
    "name": "Dr. Saumik Chatterjee",
    "address": "Sector 3, Dhurwa, Near Jsca Stadium Opp Prabhat Tara School, Ranchi, Ranchi 834004",
    "phone": "Dr. Saumik Chatterjee",
    "hours": "Open· Closes 14:00",
    "image_url": null
  },
  {
    "name": "Dr. Alok Ranjan",
    "address": "Harmu Colony, Ranchi. Landmark: Near Patel Chowk, Ranchi, Jharkhand",
    "phone": "Dr. Alok Ranjan",
    "hours": "Closed· Opens 19:00",
    "image_url": null
  },
  {
    "name": "Nephrologist Dr. Ashok Kumar Baidya:Nephron Kidney Kare Klinic, Ranchi",
    "address": "Near Karam Toli Chowk, Bariatu Road Bariatu Ranchi-834009, Ranchi, Jharkhand",
    "phone": "Nephrologist Dr. Ashok Kumar Baidya:Nephron Kidney Kare Klinic, Ranchi",
    "hours": null,
    "image_url": "https://www.bing.com/maps/geoplat/REST/v1/Imagery/Map/RoadVibrant?ms=92,112&key=AnTcaqBi2ypp0xI-OZNi4W_ik2KhjgpqioTAtXLC8GzkMBQRMlyxvxyTnd5b73im&c=en-US&ur=in&da=n&logo=n&fmt=png&od=1&shading=hill&pp=23.392523,85.376099;dfp"
  },
  {
    "name": "Dr Ashish Kumar Basant - Child Specialist | Best CONSULTANT PEDIATRICIAN | Ranchi, Jharkhand",
    "address": "OPD NO 19, Ground Floor, Paras Hospital, Opposite Prabhat Tara School, Sector 3, Dhurwa, Ranchi, Jharkh…",
    "phone": "Dr Ashish Kumar Basant - Child Specialist | Best CONSULTANT PEDIATRICIAN | Ranchi, Jharkhand",
    "hours": null,
    "image_url": "https://www.bing.com/maps/geoplat/REST/v1/Imagery/Map/RoadVibrant?ms=92,112&key=AnTcaqBi2ypp0xI-OZNi4W_ik2KhjgpqioTAtXLC8GzkMBQRMlyxvxyTnd5b73im&c=en-US&ur=in&da=n&logo=n&fmt=png&od=1&shading=hill&pp=23.309574,85.293884;dfp"
  },
  {
    "name": "Piles Cure Center (Ksharsutra -Piles Clinic & Piles doctor)",
    "address": "Piles Cure Center, Old HB Road, Near Madan Dhaba Kokar, Ranchi, Jharkhand 834001",
    "phone": "Piles Cure Center (Ksharsutra -Piles Clinic & Piles doctor)",
    "hours": "Open· Closes 19:00",
    "image_url": null
  },
  {
    "name": "Y&N Aarogyam Clinic",
    "address": "Bypass Rd, Sector 2, Masibari, Ranchi, Jharkhand",
    "phone": "Y&N Aarogyam Clinic",
    "hours": null,
    "image_url": null
  },
  {
    "name": "Dr B Kumar- Diabetologist And Cardiologist",
    "address": "Lotus Health Clinic, Bando Haat, Hawai Nagar Road No -13, Khunti Road, Gitilpiri, Hatia, Ranchi, Jharkhand 834…",
    "phone": "Dr B Kumar- Diabetologist And Cardiologist",
    "hours": "Open· Closes 21:00",
    "image_url": null
  },
  {
    "name": "Dr A K Thakur Clinic",
    "address": "C/O Rk Polyclinic 2nd Floor, Heritage Complex, Near Rmch, Bariatu Rd, Ranchi, Jharkhand",
    "phone": "Dr A K Thakur Clinic",
    "hours": null,
    "image_url": "https://www.bing.com/maps/geoplat/REST/v1/Imagery/Map/RoadVibrant?ms=92,112&key=AnTcaqBi2ypp0xI-OZNi4W_ik2KhjgpqioTAtXLC8GzkMBQRMlyxvxyTnd5b73im&c=en-US&ur=in&da=n&logo=n&fmt=png&od=1&shading=hill&pp=23.332911,85.315735;dfp"
  }
]