[
  {
    "name": "Dr S Rahman",
    "address": "Hospital Road, Gandhi Chowk, Kishanganj, Bihar 855107",
    "phone": "Dr S Rahman",
    "hours": null,
    "image_url": "https://www.bing.com/maps/geoplat/REST/v1/Imagery/Map/RoadVibrant?ms=92,112&key=AnTcaqBi2ypp0xI-OZNi4W_ik2KhjgpqioTAtXLC8GzkMBQRMlyxvxyTnd5b73im&c=en-US&ur=in&da=n&logo=n&fmt=png&od=1&shading=hill&pp=26.102938,87.950989;dfp"
  },
  {
    "name": "Dr Shiv Kumar Clinic",
    "address": "Subashpally Road, Hotel Daftari Palace, Paschim Pally, Kishanganj, Bihar 855108",
    "phone": "Dr Shiv Kumar Clinic",
    "hours": null,
    "image_url": "https://www.bing.com/maps/geoplat/REST/v1/Imagery/Map/RoadVibrant?ms=92,112&key=AnTcaqBi2ypp0xI-OZNi4W_ik2KhjgpqioTAtXLC8GzkMBQRMlyxvxyTnd5b73im&c=en-US&ur=in&da=n&logo=n&fmt=png&od=1&shading=hill&pp=26.107891,87.942421;dfp"
  },
  {
    "name": "Dr Tara Shweta Arya",
    "address": "Mgm Medical College Kishanganj, Kishanganj, Bihar, Bihar 855107",
    "phone": "Dr Tara Shweta Arya",
    "hours": null,
    "image_url": "https://www.bing.com/maps/geoplat/REST/v1/Imagery/Map/RoadVibrant?ms=92,112&key=AnTcaqBi2ypp0xI-OZNi4W_ik2KhjgpqioTAtXLC8GzkMBQRMlyxvxyTnd5b73im&c=en-US&ur=in&da=n&logo=n&fmt=png&od=1&shading=hill&pp=26.101746,87.957909;dfp"
  },
  {
    "name": "Shree Narayan Netralaya & Complete Gynae - Dr. Aakash Deep & Dr. Shweta Upadhyay",
    "address": "Bimla Complex, Mahavir Marg, Near Gurudwara, Kishanganj, Bihar 855107",
    "phone": "Shree Narayan Netralaya & Complete Gynae - Dr. Aakash Deep & Dr. Shweta Upadhyay",
    "hours": "Open· Closes 18:00",
    "image_url": "/th?id=OLC.d2jIBS2ONCzhkg480x360&w=92&h=112&c=8&rs=1&qlt=80&cdv=1&pid=Local"
  },
  {
    "name": "Dr R K Shaw Clinic",
    "address": "Purnea Siliguri Road, Hindustan Petroleum, Madni Nagar, Kishanganj, Bihar 855108",
    "phone": "Dr R K Shaw Clinic",
    "hours": null,
    "image_url": "/th?id=OLC.kFxy45VOSMtHHQ480x360&w=92&h=112&c=8&rs=1&qlt=80&cdv=1&pid=Local"
  },
  {
    "name": "Dr. Bharat Prasad- Urologist",
    "address": "Bharat Care Centre, Opposite Old Power House, Dharamganj, Kishanganj, Bihar 855107",
    "phone": "Dr. Bharat Prasad- Urologist",
    "hours": "Open· Closes 17:00",
    "image_url": "https://www.bing.com/maps/geoplat/REST/v1/Imagery/Map/RoadVibrant?ms=92,134&key=AnTcaqBi2ypp0xI-OZNi4W_ik2KhjgpqioTAtXLC8GzkMBQRMlyxvxyTnd5b73im&c=en-US&ur=in&da=n&logo=n&fmt=png&od=1&shading=hill&pp=26.10017,87.967201;dfp"
  },
  {
    "name": "K B Clinic",
    "address": "Kishanganj Bahadurganj Road, Paschim Pally Chowk, Kishanganj, Bihar 855108",
    "phone": "K B Clinic",
    "hours": null,
    "image_url": "https://www.bing.com/maps/geoplat/REST/v1/Imagery/Map/RoadVibrant?ms=92,112&key=AnTcaqBi2ypp0xI-OZNi4W_ik2KhjgpqioTAtXLC8GzkMBQRMlyxvxyTnd5b73im&c=en-US&ur=in&da=n&logo=n&fmt=png&od=1&shading=hill&pp=26.108084,87.944633;dfp"
  },
  {
    "name": "Dr M O Usman Gami Clinic",
    "address": "Dey Market Powakhali Road, National Public Scl Sishagachhi, Powakhali, Kishanganj, Bihar 855108",
    "phone": "Dr M O Usman Gami Clinic",
    "hours": null,
    "image_url": "https://www.bing.com/maps/geoplat/REST/v1/Imagery/Map/RoadVibrant?ms=92,112&key=AnTcaqBi2ypp0xI-OZNi4W_ik2KhjgpqioTAtXLC8GzkMBQRMlyxvxyTnd5b73im&c=en-US&ur=in&da=n&logo=n&fmt=png&od=1&shading=hill&pp=26.322655,87.955818;dfp"
  },
  {
    "name": "Dr Badrul Alam Ortho-trauma Clinic",
    "address": "Ghoramara, Bihar 855107, India, Kishanganj, Bihar 855107",
    "phone": "Dr Badrul Alam Ortho-trauma Clinic",
    "hours": null,
    "image_url": "https://www.bing.com/maps/geoplat/REST/v1/Imagery/Map/RoadVibrant?ms=92,112&key=AnTcaqBi2ypp0xI-OZNi4W_ik2KhjgpqioTAtXLC8GzkMBQRMlyxvxyTnd5b73im&c=en-US&ur=in&da=n&logo=n&fmt=png&od=1&shading=hill&pp=26.098841,87.913391;dfp"
  },
  {
    "name": "Dr. Niranjan Children Hospital & Research Center",
    "address": "Faringola, Near Ssb Camp, Kishanganj, Bihar, Bihar 855107",
    "phone": "Dr. Niranjan Children Hospital & Research Center",
    "hours": null,
    "image_url": null
  },
  {
    "name": "Dr. Jain's Maternity & Diagnostic Center",
    "address": "Dinajpur Road, Kishanganj 855107",
    "phone": "Dr. Jain's Maternity & Diagnostic Center",
    "hours": null,
    "image_url": "https://www.bing.com/maps/geoplat/REST/v1/Imagery/Map/RoadVibrant?ms=92,112&key=AnTcaqBi2ypp0xI-OZNi4W_ik2KhjgpqioTAtXLC8GzkMBQRMlyxvxyTnd5b73im&c=en-US&ur=in&da=n&logo=n&fmt=png&od=1&shading=hill&pp=26.098841,87.913391;dfp"
  },
  {
    "name": "Apollo Dialysis Clinic",
    "address": "Campus of Sadar Hospital Kishanganj. Hospital Road, Near Gandhi Chowk, Kishanganj, Bihar 855107",
    "phone": "Apollo Dialysis Clinic",
    "hours": "Open· Closes 20:00",
    "image_url": "https://www.bing.com/maps/geoplat/REST/v1/Imagery/Map/RoadVibrant?ms=92,134&key=AnTcaqBi2ypp0xI-OZNi4W_ik2KhjgpqioTAtXLC8GzkMBQRMlyxvxyTnd5b73im&c=en-US&ur=in&da=n&logo=n&fmt=png&od=1&shading=hill&pp=26.101023,87.948341;dfp"
  },
  {
    "name": "Perfect Diagnostic Centre",
    "address": "4w3x+m96, Churipatti Rd, Kagzia Basti, Bihar 855107",
    "phone": "Perfect Diagnostic Centre",
    "hours": null,
    "image_url": null
  },
  {
    "name": "Arsh Diagnostic Centre",
    "address": "Dharmasala Road, Hanuman Mandir, Kishanganj, Bihar 855107",
    "phone": "Arsh Diagnostic Centre",
    "hours": null,
    "image_url": null
  },
  {
    "name": "Jeeva Rekha Pathology",
    "address": "Purab Pally Road, Allahabad Bank, Dharamganj, Kishanganj, Bihar 855107",
    "phone": "Jeeva Rekha Pathology",
    "hours": null,
    "image_url": "https://www.bing.com/maps/geoplat/REST/v1/Imagery/Map/RoadVibrant?ms=92,112&key=AnTcaqBi2ypp0xI-OZNi4W_ik2KhjgpqioTAtXLC8GzkMBQRMlyxvxyTnd5b73im&c=en-US&ur=in&da=n&logo=n&fmt=png&od=1&shading=hill&pp=26.101765,87.958321;dfp"
  },
  {
    "name": "Asif Aqubal",
    "address": "Mohinuddinpur, Kishanganj, Bihar 855107",
    "phone": "Asif Aqubal",
    "hours": null,
    "image_url": "https://www.bing.com/maps/geoplat/REST/v1/Imagery/Map/RoadVibrant?ms=92,112&key=AnTcaqBi2ypp0xI-OZNi4W_ik2KhjgpqioTAtXLC8GzkMBQRMlyxvxyTnd5b73im&c=en-US&ur=in&da=n&logo=n&fmt=png&od=1&shading=hill&pp=26.098841,87.913391;dfp"
  }
]