[
  {
    "name": "Medicare clinic",
    "address": "HSR Layout Near HSR Layout Police Station Bangalore AND, SS Nagar, Near JSS Medical College Mysore, Ba…",
    "phone": "Medicare clinic",
    "hours": "Open· Closes 21:30",
    "image_url": "/th?id=OLC.DGWkPquL3HbF6g480x360&w=92&h=134&c=8&rs=1&qlt=80&cdv=1&pid=Local"
  },
  {
    "name": "Arogya Homoeopathy Family Speciality Clinic",
    "address": "Near Telephone Exchange Kelakam, Kelakam, Kerala 670674",
    "phone": "Arogya Homoeopathy Family Speciality Clinic",
    "hours": null,
    "image_url": "/th?id=OLC.q3b5Wfhbu6Swpg480x360&w=92&h=112&c=8&rs=1&qlt=80&cdv=1&pid=Local"
  },
  {
    "name": "Nangelil Ayurvedic Clinic",
    "address": "Malabar Road, Virajpet, Karnataka",
    "phone": "Nangelil Ayurvedic Clinic",
    "hours": "Open· Closes 17:00",
    "image_url": "/th?id=OLC.cMerfEML%2f0safA480x360&w=92&h=134&c=8&rs=1&qlt=80&cdv=1&pid=Local"
  },
  {
    "name": "Dr. Shyam Prasad P S",
    "address": "Gondi Basavanahalli Old Road, Madikeri, Karnataka",
    "phone": "Dr. Shyam Prasad P S",
    "hours": "Closes in 23 mins",
    "image_url": "/th?id=OLC.PJmf0znjWAqR%2bQ480x360&w=92&h=112&c=8&rs=1&qlt=80&cdv=1&pid=Local"
  },
  {
    "name": "Dr. Prajwal Kumar C | Genereal Hospatial Viraj Pet",
    "address": "Room no. 19, Next to Court Complex, Virajpet Main Road, Virajpet, Kodagu, Madhya Pradesh 521718",
    "phone": "Dr. Prajwal Kumar C | Genereal Hospatial Viraj Pet",
    "hours": "Open· Closes 17:00",
    "image_url": "/th?id=OLC.mdwCP6jLxv9Dxg480x360&w=92&h=134&c=8&rs=1&qlt=80&cdv=1&pid=Local"
  },
  {
    "name": "Ayurjeevan Ayurveda Hospital",
    "address": "Galibeedi Road, K. Nidugane Village, Near Golf Ground, Madikeri, Karnataka",
    "phone": "Ayurjeevan Ayurveda Hospital",
    "hours": null,
    "image_url": "https://www.bing.com/maps/geoplat/REST/v1/Imagery/Map/RoadVibrant?ms=92,112&key=AnTcaqBi2ypp0xI-OZNi4W_ik2KhjgpqioTAtXLC8GzkMBQRMlyxvxyTnd5b73im&c=en-US&ur=in&da=n&logo=n&fmt=png&od=1&shading=hill&pp=12.434241,75.719566;dfp"
  },
  {
    "name": "Vijaya Clinic",
    "address": "Vijaya Clinic 1, B M Road, Kushalnagar, Karnataka 571234",
    "phone": "Vijaya Clinic",
    "hours": null,
    "image_url": "https://www.bing.com/maps/geoplat/REST/v1/Imagery/Map/RoadVibrant?ms=92,112&key=AnTcaqBi2ypp0xI-OZNi4W_ik2KhjgpqioTAtXLC8GzkMBQRMlyxvxyTnd5b73im&c=en-US&ur=in&da=n&logo=n&fmt=png&od=1&shading=hill&pp=12.460524,75.960625;dfp"
  },
  {
    "name": "Family Clinic",
    "address": "College Road, State Bank Of India, Madikeri, Karnataka 571201",
    "phone": "Family Clinic",
    "hours": null,
    "image_url": "https://www.bing.com/maps/geoplat/REST/v1/Imagery/Map/RoadVibrant?ms=92,112&key=AnTcaqBi2ypp0xI-OZNi4W_ik2KhjgpqioTAtXLC8GzkMBQRMlyxvxyTnd5b73im&c=en-US&ur=in&da=n&logo=n&fmt=png&od=1&shading=hill&pp=12.424189,75.736534;dfp"
  },
  {
    "name": "Cp Ayurveda Hospital And Research Centre",
    "address": "Rayarome, Therthally, Kerala 670571, India, Kerala 670571",
    "phone": "Cp Ayurveda Hospital And Research Centre",
    "hours": null,
    "image_url": null
  },
  {
    "name": "Shambavi Clinic",
    "address": "Madikeri Main Road Madikeri, Madikeri, Karnataka 571201",
    "phone": "Shambavi Clinic",
    "hours": null,
    "image_url": "https://www.bing.com/maps/geoplat/REST/v1/Imagery/Map/RoadVibrant?ms=92,112&key=AnTcaqBi2ypp0xI-OZNi4W_ik2KhjgpqioTAtXLC8GzkMBQRMlyxvxyTnd5b73im&c=en-US&ur=in&da=n&logo=n&fmt=png&od=1&shading=hill&pp=12.428875,75.738739;dfp"
  },
  {
    "name": "Manjunath Clinic",
    "address": "Mangalore Mysore Highway, Kodagu, Sulya, Karnataka 574234",
    "phone": "Manjunath Clinic",
    "hours": null,
    "image_url": "https://www.bing.com/maps/geoplat/REST/v1/Imagery/Map/RoadVibrant?ms=92,112&key=AnTcaqBi2ypp0xI-OZNi4W_ik2KhjgpqioTAtXLC8GzkMBQRMlyxvxyTnd5b73im&c=en-US&ur=in&da=n&logo=n&fmt=png&od=1&shading=hill&pp=12.501144,75.538933;dfp"
  },
  {
    "name": "Asha Clinic",
    "address": "Pollibetta Road, Kodagu Dcc Bank Limited, Virajpet, Karnataka 571215",
    "phone": "Asha Clinic",
    "hours": null,
    "image_url": "https://www.bing.com/maps/geoplat/REST/v1/Imagery/Map/RoadVibrant?ms=92,112&key=AnTcaqBi2ypp0xI-OZNi4W_ik2KhjgpqioTAtXLC8GzkMBQRMlyxvxyTnd5b73im&c=en-US&ur=in&da=n&logo=n&fmt=png&od=1&shading=hill&pp=12.239856,75.919724;dfp"
  },
  {
    "name": "Vishwalatha Clinic",
    "address": "Sj Road, Hunsur, Karnataka 571105",
    "phone": "Vishwalatha Clinic",
    "hours": null,
    "image_url": "https://www.bing.com/maps/geoplat/REST/v1/Imagery/Map/RoadVibrant?ms=92,112&key=AnTcaqBi2ypp0xI-OZNi4W_ik2KhjgpqioTAtXLC8GzkMBQRMlyxvxyTnd5b73im&c=en-US&ur=in&da=n&logo=n&fmt=png&od=1&shading=hill&pp=12.306471,76.290405;dfp"
  },
  {
    "name": "Nanglil Ayurvedic Clinic",
    "address": "Iritty-Nedumpoil Road, Payancheri, Tellicherry, Kerala 670703",
    "phone": "Nanglil Ayurvedic Clinic",
    "hours": null,
    "image_url": "https://www.bing.com/maps/geoplat/REST/v1/Imagery/Map/RoadVibrant?ms=92,112&key=AnTcaqBi2ypp0xI-OZNi4W_ik2KhjgpqioTAtXLC8GzkMBQRMlyxvxyTnd5b73im&c=en-US&ur=in&da=n&logo=n&fmt=png&od=1&shading=hill&pp=11.977173,75.681335;dfp"
  },
  {
    "name": "Sri Vinayaka Clinic",
    "address": "Mysore Madikeri Road, Periyapatna, Piriyapatna, Karnataka 571107",
    "phone": "Sri Vinayaka Clinic",
    "hours": null,
    "image_url": "https://www.bing.com/maps/geoplat/REST/v1/Imagery/Map/RoadVibrant?ms=92,112&key=AnTcaqBi2ypp0xI-OZNi4W_ik2KhjgpqioTAtXLC8GzkMBQRMlyxvxyTnd5b73im&c=en-US&ur=in&da=n&logo=n&fmt=png&od=1&shading=hill&pp=12.337786,76.091606;dfp"
  },
  {
    "name": "Sree Krishna Clinic",
    "address": "Kothuparamba Iritty Road, Ulikkal Bus Stand, Ulikkal, Taliparamba, Kerala 670705",
    "phone": "Sree Krishna Clinic",
    "hours": null,
    "image_url": "https://www.bing.com/maps/geoplat/REST/v1/Imagery/Map/RoadVibrant?ms=92,112&key=AnTcaqBi2ypp0xI-OZNi4W_ik2KhjgpqioTAtXLC8GzkMBQRMlyxvxyTnd5b73im&c=en-US&ur=in&da=n&logo=n&fmt=png&od=1&shading=hill&pp=12.040134,75.665215;dfp"
  },
  {
    "name": "Chiranthana Clinic",
    "address": "Mangalore Mysore Highway, Sampaje, Sulya, Karnataka 574239",
    "phone": "Chiranthana Clinic",
    "hours": null,
    "image_url": "https://www.bing.com/maps/geoplat/REST/v1/Imagery/Map/RoadVibrant?ms=92,112&key=AnTcaqBi2ypp0xI-OZNi4W_ik2KhjgpqioTAtXLC8GzkMBQRMlyxvxyTnd5b73im&c=en-US&ur=in&da=n&logo=n&fmt=png&od=1&shading=hill&pp=12.52294,75.433762;dfp"
  },
  {
    "name": "Bharath Ayurveda Chikitsalaya",
    "address": "Fx48+3xj, Bypass Rd, Kushalnagar, Coorg 571234",
    "phone": "Bharath Ayurveda Chikitsalaya",
    "hours": null,
    "image_url": "https://www.bing.com/maps/geoplat/REST/v1/Imagery/Map/RoadVibrant?ms=92,112&key=AnTcaqBi2ypp0xI-OZNi4W_ik2KhjgpqioTAtXLC8GzkMBQRMlyxvxyTnd5b73im&c=en-US&ur=in&da=n&logo=n&fmt=png&od=1&shading=hill&pp=12.4574,75.959396;dfp"
  }
]