[
  {
    "name": "Dr. Prasanna Kumar N",
    "address": "Bangarpet Kolar Road, Beside Hotel Hari Darshan, Kolar, Karnataka",
    "phone": "Dr. Prasanna Kumar N",
    "hours": "Open· Closes 14:00",
    "image_url": "/th?id=OLC.7i1%2bJ8J0a7oPzQ480x360&w=92&h=112&c=8&rs=1&qlt=80&cdv=1&pid=Local"
  },
  {
    "name": "Dr. Yashwanth Lakshmaiah- General Physician",
    "address": "Akshaya Nursing Home, 3rd Cross Road, Gowripet, Karnataka 563101",
    "phone": "Dr. Yashwanth Lakshmaiah- General Physician",
    "hours": "Closed· Opens 11:00",
    "image_url": "https://www.bing.com/maps/geoplat/REST/v1/Imagery/Map/RoadVibrant?ms=92,134&key=AnTcaqBi2ypp0xI-OZNi4W_ik2KhjgpqioTAtXLC8GzkMBQRMlyxvxyTnd5b73im&c=en-US&ur=in&da=n&logo=n&fmt=png&od=1&shading=hill&pp=13.133741,78.131973;dfp"
  },
  {
    "name": "Dr. Latha K P | M.B.B.S. M.D.D.G.O",
    "address": "1 Cross. Gowripet . Kolar, Kolar, Karnataka, India, 563101, Kolar, Madhya Pradesh 563101",
    "phone": "Dr. Latha K P | M.B.B.S. M.D.D.G.O",
    "hours": "Open· Closes 18:00",
    "image_url": "https://www.bing.com/maps/geoplat/REST/v1/Imagery/Map/RoadVibrant?ms=92,134&key=AnTcaqBi2ypp0xI-OZNi4W_ik2KhjgpqioTAtXLC8GzkMBQRMlyxvxyTnd5b73im&c=en-US&ur=in&da=n&logo=n&fmt=png&od=1&shading=hill&pp=13.115578,78.099419;dfp"
  },
  {
    "name": "Dr V Lakshmaiah Clinic",
    "address": "Gowripet 3Rd Cross Street, Kolar, Karnataka 563101",
    "phone": "Dr V Lakshmaiah Clinic",
    "hours": null,
    "image_url": "https://www.bing.com/maps/geoplat/REST/v1/Imagery/Map/RoadVibrant?ms=92,112&key=AnTcaqBi2ypp0xI-OZNi4W_ik2KhjgpqioTAtXLC8GzkMBQRMlyxvxyTnd5b73im&c=en-US&ur=in&da=n&logo=n&fmt=png&od=1&shading=hill&pp=13.133836,78.134018;dfp"
  },
  {
    "name": "Dr PV Manohar Clinic",
    "address": "Antharaganga Road, Kolar, Karnataka 563101",
    "phone": "Dr PV Manohar Clinic",
    "hours": null,
    "image_url": "https://www.bing.com/maps/geoplat/REST/v1/Imagery/Map/RoadVibrant?ms=92,112&key=AnTcaqBi2ypp0xI-OZNi4W_ik2KhjgpqioTAtXLC8GzkMBQRMlyxvxyTnd5b73im&c=en-US&ur=in&da=n&logo=n&fmt=png&od=1&shading=hill&pp=13.136541,78.128036;dfp"
  },
  {
    "name": "Dr. Lakshit | general medicine | Srinivasa health care",
    "address": "Chikkatirupathi, Kolar, Karnataka, India, 563101, Kolar, Madhya Pradesh 563101",
    "phone": "Dr. Lakshit | general medicine | Srinivasa health care",
    "hours": "Open· Closes 18:00",
    "image_url": "https://www.bing.com/maps/geoplat/REST/v1/Imagery/Map/RoadVibrant?ms=92,134&key=AnTcaqBi2ypp0xI-OZNi4W_ik2KhjgpqioTAtXLC8GzkMBQRMlyxvxyTnd5b73im&c=en-US&ur=in&da=n&logo=n&fmt=png&od=1&shading=hill&pp=13.136261,78.129128;dfp"
  },
  {
    "name": "Dr. Sreenath S",
    "address": "89, Bangarpet Road, Near Medall Diagnostics, Kolar, Karnataka",
    "phone": "Dr. Sreenath S",
    "hours": "Closed· Opens 17:00",
    "image_url": "https://www.bing.com/maps/geoplat/REST/v1/Imagery/Map/RoadVibrant?ms=92,112&key=AnTcaqBi2ypp0xI-OZNi4W_ik2KhjgpqioTAtXLC8GzkMBQRMlyxvxyTnd5b73im&c=en-US&ur=in&da=n&logo=n&fmt=png&od=1&shading=hill&pp=13.120914,78.135918;dfp"
  },
  {
    "name": "Dr. Shivas Hospital",
    "address": "1st Main Road, Kolar, Karnataka 563101",
    "phone": "Dr. Shivas Hospital",
    "hours": null,
    "image_url": "https://www.bing.com/maps/geoplat/REST/v1/Imagery/Map/RoadVibrant?ms=92,112&key=AnTcaqBi2ypp0xI-OZNi4W_ik2KhjgpqioTAtXLC8GzkMBQRMlyxvxyTnd5b73im&c=en-US&ur=in&da=n&logo=n&fmt=png&od=1&shading=hill&pp=13.122646,78.127907;dfp"
  },
  {
    "name": "Dr. Nukapur Hospital",
    "address": "Bus Stand, Sharada Talkies Road, Near Ksrtc, Kolar, Karnataka 563101, India, Kolar, Karnataka 563101",
    "phone": "Dr. Nukapur Hospital",
    "hours": null,
    "image_url": "https://www.bing.com/maps/geoplat/REST/v1/Imagery/Map/RoadVibrant?ms=92,112&key=AnTcaqBi2ypp0xI-OZNi4W_ik2KhjgpqioTAtXLC8GzkMBQRMlyxvxyTnd5b73im&c=en-US&ur=in&da=n&logo=n&fmt=png&od=1&shading=hill&pp=13.135389,78.129097;dfp"
  },
  {
    "name": "Guru Sparsha Clinic",
    "address": "Karanji Katte Main Road, Kolar, Karnataka 563101",
    "phone": "Guru Sparsha Clinic",
    "hours": null,
    "image_url": "https://www.bing.com/maps/geoplat/REST/v1/Imagery/Map/RoadVibrant?ms=92,112&key=AnTcaqBi2ypp0xI-OZNi4W_ik2KhjgpqioTAtXLC8GzkMBQRMlyxvxyTnd5b73im&c=en-US&ur=in&da=n&logo=n&fmt=png&od=1&shading=hill&pp=13.138062,78.128746;dfp"
  },
  {
    "name": "Naveen Clinic",
    "address": "M B Road, Kolar, Karnataka 563101",
    "phone": "Naveen Clinic",
    "hours": null,
    "image_url": "https://www.bing.com/maps/geoplat/REST/v1/Imagery/Map/RoadVibrant?ms=92,112&key=AnTcaqBi2ypp0xI-OZNi4W_ik2KhjgpqioTAtXLC8GzkMBQRMlyxvxyTnd5b73im&c=en-US&ur=in&da=n&logo=n&fmt=png&od=1&shading=hill&pp=13.137093,78.129852;dfp"
  },
  {
    "name": "Dr. Krishna Shetty M V",
    "address": "Shanaishwara Swamy Temple Road. Landmark: Behind Tirumala Dairy, Kolar, Karnataka",
    "phone": "Dr. Krishna Shetty M V",
    "hours": "Open· Closes 14:00",
    "image_url": "https://www.bing.com/maps/geoplat/REST/v1/Imagery/Map/RoadVibrant?ms=92,112&key=AnTcaqBi2ypp0xI-OZNi4W_ik2KhjgpqioTAtXLC8GzkMBQRMlyxvxyTnd5b73im&c=en-US&ur=in&da=n&logo=n&fmt=png&od=1&shading=hill&pp=13.137091,78.136444;dfp"
  },
  {
    "name": "Dr. Niranjan Reddy | Cardiologist | RLJ Narayana Heart Centre",
    "address": "R L Jalappa Hospital & Research Centre, Sdumc Campus Rd, Tamaka, Kolar, Karnataka 563101",
    "phone": "Dr. Niranjan Reddy | Cardiologist | RLJ Narayana Heart Centre",
    "hours": "Open· Closes 17:00",
    "image_url": null
  },
  {
    "name": "Child Neurologist: Dr C P Ravi Kumar",
    "address": "Leelavathi Childrens Hospital, Neeli Krishnappa Rd, Doddapet, Kolar, Karnataka",
    "phone": "Child Neurologist: Dr C P Ravi Kumar",
    "hours": null,
    "image_url": "https://www.bing.com/maps/geoplat/REST/v1/Imagery/Map/RoadVibrant?ms=92,112&key=AnTcaqBi2ypp0xI-OZNi4W_ik2KhjgpqioTAtXLC8GzkMBQRMlyxvxyTnd5b73im&c=en-US&ur=in&da=n&logo=n&fmt=png&od=1&shading=hill&pp=13.128452,78.133377;dfp"
  },
  {
    "name": "Shifa Clinic",
    "address": "Chikkaballapur Road, Millath Nagar, Kolar, Karnataka 563101",
    "phone": "Shifa Clinic",
    "hours": null,
    "image_url": "https://www.bing.com/maps/geoplat/REST/v1/Imagery/Map/RoadVibrant?ms=92,112&key=AnTcaqBi2ypp0xI-OZNi4W_ik2KhjgpqioTAtXLC8GzkMBQRMlyxvxyTnd5b73im&c=en-US&ur=in&da=n&logo=n&fmt=png&od=1&shading=hill&pp=13.14781,78.128799;dfp"
  },
  {
    "name": "Cm Polyclinic And Cm Skin Clinic",
    "address": "Doddapet, Kolar, Karnataka 563101, India, Kolar 563101",
    "phone": "Cm Polyclinic And Cm Skin Clinic",
    "hours": null,
    "image_url": "https://www.bing.com/maps/geoplat/REST/v1/Imagery/Map/RoadVibrant?ms=92,112&key=AnTcaqBi2ypp0xI-OZNi4W_ik2KhjgpqioTAtXLC8GzkMBQRMlyxvxyTnd5b73im&c=en-US&ur=in&da=n&logo=n&fmt=png&od=1&shading=hill&pp=13.13335,78.129143;dfp"
  },
  {
    "name": "Dr.Niranjan K Reddy, CARDIOLOGIST. S V P POLYCLINIC& DIAGNOSTIC LABORATORY",
    "address": "OPP SNR Hospital, Railway Station Rd, Near Saibaba Temple, Kanakanapalya, Kolar, Karnataka",
    "phone": "Dr.Niranjan K Reddy, CARDIOLOGIST. S V P POLYCLINIC& DIAGNOSTIC LABORATORY",
    "hours": null,
    "image_url": "https://www.bing.com/maps/geoplat/REST/v1/Imagery/Map/RoadVibrant?ms=92,112&key=AnTcaqBi2ypp0xI-OZNi4W_ik2KhjgpqioTAtXLC8GzkMBQRMlyxvxyTnd5b73im&c=en-US&ur=in&da=n&logo=n&fmt=png&od=1&shading=hill&pp=12.996535,77.759537;dfp"
  }
]