[
  {
    "name": "Dr.Sachinkumar Kalyani",
    "address": "Kolhapur, Maharashtra 416008",
    "phone": "Dr.Sachinkumar Kalyani",
    "hours": null,
    "image_url": "/th?id=OLC.pPzihl6x92ZSzw480x360&w=92&h=112&c=8&rs=1&qlt=80&cdv=1&pid=Local"
  },
  {
    "name": "Mauli Clinic Kolhapur",
    "address": "Mauli Clinic, 18, Sharada Vihar, Isolation Ring Road, Kolhapur, Maharashtra, Maharashtra 416012",
    "phone": "Mauli Clinic Kolhapur",
    "hours": "Closed· Opens 19:00",
    "image_url": "/th?id=OLC.4wrLM9cTwKkc7g480x360&w=92&h=134&c=8&rs=1&qlt=80&cdv=1&pid=Local"
  },
  {
    "name": "Dr Zahir Ahmad K Patwekar - Rehmat Clinic",
    "address": "Bindu Chowk, Near Kasab Masjid Mutton Market, Shivaji Peth A Ward, C Ward, Kolhapur, Maharashtra",
    "phone": "Dr Zahir Ahmad K Patwekar - Rehmat Clinic",
    "hours": null,
    "image_url": "https://www.bing.com/maps/geoplat/REST/v1/Imagery/Map/RoadVibrant?ms=92,112&key=AnTcaqBi2ypp0xI-OZNi4W_ik2KhjgpqioTAtXLC8GzkMBQRMlyxvxyTnd5b73im&c=en-US&ur=in&da=n&logo=n&fmt=png&od=1&shading=hill&pp=16.696743,74.224747;dfp"
  },
  {
    "name": "Dr Varsha Porwal",
    "address": "Arihant Clinic, 1074/k, Anandi Prasad Apartment, Tandale Galli, Near old Deval Club, Khasbag Road, Kolhapur, M…",
    "phone": "Dr Varsha Porwal",
    "hours": "Closed· Opens 11:00",
    "image_url": "/th?id=OLC.O%2b9CwViJFwo7JQ480x360&w=92&h=134&c=8&rs=1&qlt=80&cdv=1&pid=Local"
  },
  {
    "name": "Madhavbaug Clinic - Crusher Corner, Kolhapur",
    "address": "V R Plaza, 1st Floor, Crusher Corner, Sambhajinagar, Radhanagri Road, Kolhapur - 416012, Kolhapur, Mahar…",
    "phone": "Madhavbaug Clinic - Crusher Corner, Kolhapur",
    "hours": null,
    "image_url": "https://www.bing.com/maps/geoplat/REST/v1/Imagery/Map/RoadVibrant?ms=92,112&key=AnTcaqBi2ypp0xI-OZNi4W_ik2KhjgpqioTAtXLC8GzkMBQRMlyxvxyTnd5b73im&c=en-US&ur=in&da=n&logo=n&fmt=png&od=1&shading=hill&pp=16.677315,74.206581;dfp"
  },
  {
    "name": "Sharma Clinic",
    "address": "350 E Ward, Near Rankala Stand, Gujari Road, Kolhapur, Maharashtra 416012",
    "phone": "Sharma Clinic",
    "hours": "Closed· Opens 11:00",
    "image_url": "/th?id=OLC.0Y7qMncHpH5HZg480x360&w=92&h=134&c=8&rs=1&qlt=80&cdv=1&pid=Local"
  },
  {
    "name": "Parshwa Clinic - Dr. Niranjan Rathod",
    "address": "105, First Floor, DC Plaza, Assembly Rd, Near Rajmandir Icecream, Kolhapur, Maharashtra",
    "phone": "Parshwa Clinic - Dr. Niranjan Rathod",
    "hours": null,
    "image_url": "https://www.bing.com/maps/geoplat/REST/v1/Imagery/Map/RoadVibrant?ms=92,112&key=AnTcaqBi2ypp0xI-OZNi4W_ik2KhjgpqioTAtXLC8GzkMBQRMlyxvxyTnd5b73im&c=en-US&ur=in&da=n&logo=n&fmt=png&od=1&shading=hill&pp=16.707174,74.23288;dfp"
  },
  {
    "name": "Dr. Hetal Shah",
    "address": "Amey Multispecialty Hospital Skylon Tower, Chakkinaka, Kalyan East, Maharashtra",
    "phone": "Dr. Hetal Shah",
    "hours": null,
    "image_url": "https://www.bing.com/maps/geoplat/REST/v1/Imagery/Map/RoadVibrant?ms=92,112&key=AnTcaqBi2ypp0xI-OZNi4W_ik2KhjgpqioTAtXLC8GzkMBQRMlyxvxyTnd5b73im&c=en-US&ur=in&da=n&logo=n&fmt=png&od=1&shading=hill&pp=16.694427,74.246254;dfp"
  },
  {
    "name": "Sharada Clinic - Erram Multispeciality",
    "address": "Ramanand Nagar Road, Kolhapur, Maharashtra 416013",
    "phone": "Sharada Clinic - Erram Multispeciality",
    "hours": null,
    "image_url": null
  },
  {
    "name": "Dr. Malgave's clinic",
    "address": "Jain Galli, Dilbahar Talim, Azad Chowk, Kolhapur, Maharashtra",
    "phone": "Dr. Malgave's clinic",
    "hours": null,
    "image_url": "https://www.bing.com/maps/geoplat/REST/v1/Imagery/Map/RoadVibrant?ms=92,112&key=AnTcaqBi2ypp0xI-OZNi4W_ik2KhjgpqioTAtXLC8GzkMBQRMlyxvxyTnd5b73im&c=en-US&ur=in&da=n&logo=n&fmt=png&od=1&shading=hill&pp=16.691563,74.22644;dfp"
  },
  {
    "name": "Anandsidh Clinic",
    "address": "Near Renuka Mandir, 11th Ln, opp. Ayurvishwa Medical, Rajarampuri, Kolhapur, Maharashtra",
    "phone": "Anandsidh Clinic",
    "hours": null,
    "image_url": "https://www.bing.com/maps/geoplat/REST/v1/Imagery/Map/RoadVibrant?ms=92,112&key=AnTcaqBi2ypp0xI-OZNi4W_ik2KhjgpqioTAtXLC8GzkMBQRMlyxvxyTnd5b73im&c=en-US&ur=in&da=n&logo=n&fmt=png&od=1&shading=hill&pp=16.693312,74.247635;dfp"
  },
  {
    "name": "Crystal Spine & Pain Clinic, Kolhapur.Dr Vijay Chavan, Dr Rashmee Chavan",
    "address": "Venus Corner, Near Modern Computers, Rote Plaza, Kolhapur, Maharashtra 416003",
    "phone": "Crystal Spine & Pain Clinic, Kolhapur.Dr Vijay Chavan, Dr Rashmee Chavan",
    "hours": null,
    "image_url": null
  },
  {
    "name": "Dr. Namrata Shirsat Lokhande",
    "address": "Shivneri Tower, Near Janani Hospital, 8th Lane, Kolhapur, Maharashtra",
    "phone": "Dr. Namrata Shirsat Lokhande",
    "hours": "Opens in 8 mins",
    "image_url": null
  },
  {
    "name": "Dr. Indraneel Ashok Jadhav",
    "address": "1st Floor, Tathastu Corner Mall, Shahupuri, E Ward, Kolhapur, Maharashtra",
    "phone": "Dr. Indraneel Ashok Jadhav",
    "hours": "Open· Closes 18:00",
    "image_url": null
  },
  {
    "name": "Prabhu Clinic",
    "address": "Shahupuri, Kolhapur, Maharashtra 416001",
    "phone": "Prabhu Clinic",
    "hours": null,
    "image_url": null
  },
  {
    "name": "Patil Om Clinic",
    "address": "Shri Virshaiv Co-Operative Bank, Gargoti Road, Kalamba, Kolhapur, Maharashtra 416007",
    "phone": "Patil Om Clinic",
    "hours": null,
    "image_url": "https://www.bing.com/maps/geoplat/REST/v1/Imagery/Map/RoadVibrant?ms=92,112&key=AnTcaqBi2ypp0xI-OZNi4W_ik2KhjgpqioTAtXLC8GzkMBQRMlyxvxyTnd5b73im&c=en-US&ur=in&da=n&logo=n&fmt=png&od=1&shading=hill&pp=16.664576,74.210693;dfp"
  },
  {
    "name": "Sanjivani Clinic",
    "address": "Ring Road Phulewadi, Kolhapur, Maharashtra 416011",
    "phone": "Sanjivani Clinic",
    "hours": null,
    "image_url": null
  },
  {
    "name": "Dr. Shubhada Dharmadhikari - Shivalay Diabetes Clinic",
    "address": "2561, B, Khasbag, Near Private Highschool, Mangalwar Peth, Kolhapur, Maharashtra",
    "phone": "Dr. Shubhada Dharmadhikari - Shivalay Diabetes Clinic",
    "hours": null,
    "image_url": "https://www.bing.com/maps/geoplat/REST/v1/Imagery/Map/RoadVibrant?ms=92,112&key=AnTcaqBi2ypp0xI-OZNi4W_ik2KhjgpqioTAtXLC8GzkMBQRMlyxvxyTnd5b73im&c=en-US&ur=in&da=n&logo=n&fmt=png&od=1&shading=hill&pp=16.692205,74.227173;dfp"
  }
]