[
  {
    "name": "Dr. Amitava Sarkar",
    "address": "13/ 1 Chakraberia Road( North), Calcutta- 700020, Landmark, Kolkata 700020",
    "phone": "Dr. Amitava Sarkar",
    "hours": "Closed· Opens 18:00",
    "image_url": "https://www.bing.com/maps/geoplat/REST/v1/Imagery/Map/RoadVibrant?ms=92,112&key=AnTcaqBi2ypp0xI-OZNi4W_ik2KhjgpqioTAtXLC8GzkMBQRMlyxvxyTnd5b73im&c=en-US&ur=in&da=n&logo=n&fmt=png&od=1&shading=hill&pp=22.572645,88.363892;dfp"
  },
  {
    "name": "Dr. Saakshi Bhartia General Physician",
    "address": "Jyotsna Apartment, Kolkata, West Bengal 700054",
    "phone": "Dr. Saakshi Bhartia General Physician",
    "hours": "Open· Closes 22:30",
    "image_url": "https://www.bing.com/maps/geoplat/REST/v1/Imagery/Map/RoadVibrant?ms=92,134&key=AnTcaqBi2ypp0xI-OZNi4W_ik2KhjgpqioTAtXLC8GzkMBQRMlyxvxyTnd5b73im&c=en-US&ur=in&da=n&logo=n&fmt=png&od=1&shading=hill&pp=22.580133,88.390465;dfp"
  },
  {
    "name": "Dr. Sukanya Bhattacharya - Best General Physician | Kolkata",
    "address": "BMC Pharmacy 15/1/3, Jogmaya Devi Lane, Shantinivas, Second St, Flooor, Kolkata, West Bengal",
    "phone": "Dr. Sukanya Bhattacharya - Best General Physician | Kolkata",
    "hours": null,
    "image_url": "https://www.bing.com/maps/geoplat/REST/v1/Imagery/Map/RoadVibrant?ms=92,112&key=AnTcaqBi2ypp0xI-OZNi4W_ik2KhjgpqioTAtXLC8GzkMBQRMlyxvxyTnd5b73im&c=en-US&ur=in&da=n&logo=n&fmt=png&od=1&shading=hill&pp=22.554031,88.370697;dfp"
  },
  {
    "name": "Dr. Nitin Mittal",
    "address": "147/1A,1st Floor,Sananda Apartment,Near Hanuman Mandir,Block B,Laketown, Kolkata, West Bengal 700089",
    "phone": "Dr. Nitin Mittal",
    "hours": null,
    "image_url": "https://www.bing.com/maps/geoplat/REST/v1/Imagery/Map/RoadVibrant?ms=92,112&key=AnTcaqBi2ypp0xI-OZNi4W_ik2KhjgpqioTAtXLC8GzkMBQRMlyxvxyTnd5b73im&c=en-US&ur=in&da=n&logo=n&fmt=png&od=1&shading=hill&pp=22.567032,88.390282;dfp"
  },
  {
    "name": "Dr.Mainak Baksi | Best General Physician  | Fever & Diabetes Doctor",
    "address": "71/A, Lenin Sarani Rd, Taltala, Kolkata, West Bengal",
    "phone": "Dr.Mainak Baksi | Best General Physician  | Fever & Diabetes Doctor",
    "hours": null,
    "image_url": "https://www.bing.com/maps/geoplat/REST/v1/Imagery/Map/RoadVibrant?ms=92,112&key=AnTcaqBi2ypp0xI-OZNi4W_ik2KhjgpqioTAtXLC8GzkMBQRMlyxvxyTnd5b73im&c=en-US&ur=in&da=n&logo=n&fmt=png&od=1&shading=hill&pp=22.563597,88.35743;dfp"
  },
  {
    "name": "Best General Physician - Dr.Sourav Mukherjee, Treated 13K+ Patients | Fever & Diabetes Doctor | Kolkata",
    "address": "71/A, Lenin Sarani Rd, Taltala, Kolkata, West Bengal",
    "phone": "Best General Physician - Dr.Sourav Mukherjee, Treated 13K+ Patients | Fever & Diabetes Doctor | Kolkata",
    "hours": null,
    "image_url": "https://www.bing.com/maps/geoplat/REST/v1/Imagery/Map/RoadVibrant?ms=92,112&key=AnTcaqBi2ypp0xI-OZNi4W_ik2KhjgpqioTAtXLC8GzkMBQRMlyxvxyTnd5b73im&c=en-US&ur=in&da=n&logo=n&fmt=png&od=1&shading=hill&pp=22.563597,88.35743;dfp"
  },
  {
    "name": "Dr. Rajarshi Dutta",
    "address": "11/1 Biresh Guha Street, Kolkata, West Bengal",
    "phone": "Dr. Rajarshi Dutta",
    "hours": "Closed· Opens tomorrow 10:00",
    "image_url": null
  },
  {
    "name": "Dr. Khanna Manoj",
    "address": "F14, 49, Acharya Jagadish Chandra Bose Rd(SH-1), Raja Bazar, Sealdah, Kolkata, West Bengal 700011",
    "phone": "Dr. Khanna Manoj",
    "hours": "Open· Closes 18:00",
    "image_url": "https://www.bing.com/maps/geoplat/REST/v1/Imagery/Map/RoadVibrant?ms=92,134&key=AnTcaqBi2ypp0xI-OZNi4W_ik2KhjgpqioTAtXLC8GzkMBQRMlyxvxyTnd5b73im&c=en-US&ur=in&da=n&logo=n&fmt=png&od=1&shading=hill&pp=22.568382,88.372429;dfp"
  },
  {
    "name": "Dr. Partha Sarkar's Clinic",
    "address": "A J C Bose Road, Kolkata, West Bengal 700014",
    "phone": "Dr. Partha Sarkar's Clinic",
    "hours": null,
    "image_url": null
  },
  {
    "name": "Dr Kaushik Rakshit",
    "address": "146, Bidhan Sarani, Manicktala, Darjipara, Kolkata, West Bengal",
    "phone": "Dr Kaushik Rakshit",
    "hours": null,
    "image_url": "https://www.bing.com/maps/geoplat/REST/v1/Imagery/Map/RoadVibrant?ms=92,112&key=AnTcaqBi2ypp0xI-OZNi4W_ik2KhjgpqioTAtXLC8GzkMBQRMlyxvxyTnd5b73im&c=en-US&ur=in&da=n&logo=n&fmt=png&od=1&shading=hill&pp=22.561525,88.362305;dfp"
  },
  {
    "name": "Dr Nandita Saha",
    "address": "180 Acharya Jagadish Chandra Bose Road, Kolkata, West Bengal 700014",
    "phone": "Dr Nandita Saha",
    "hours": "Open· Closes 13:00",
    "image_url": null
  },
  {
    "name": "Dr Md Mahfuz Mallick MBBS DCH PGPN BOSTON (USA)",
    "address": "Modern Health Care, 6, Abdul Halim Ln, Maula Ali, Taltala, West Bengal 700016",
    "phone": "Dr Md Mahfuz Mallick MBBS DCH PGPN BOSTON (USA)",
    "hours": null,
    "image_url": null
  },
  {
    "name": "Dr. Subimal Ganguli",
    "address": "194A, Maniktala Main Road, Jyotsna Appartment, Kolkata, West Bengal",
    "phone": "Dr. Subimal Ganguli",
    "hours": "Open· Closes 12:00",
    "image_url": null
  },
  {
    "name": "Dr. S. Pramanik",
    "address": "90, Collin Street, Elliot Road, Landmark: Near Yasin Stores, Kolkata, West Bengal",
    "phone": "Dr. S. Pramanik",
    "hours": "Closed· Opens tomorrow 11:00",
    "image_url": "https://www.bing.com/maps/geoplat/REST/v1/Imagery/Map/RoadVibrant?ms=92,112&key=AnTcaqBi2ypp0xI-OZNi4W_ik2KhjgpqioTAtXLC8GzkMBQRMlyxvxyTnd5b73im&c=en-US&ur=in&da=n&logo=n&fmt=png&od=1&shading=hill&pp=22.554253,88.356453;dfp"
  },
  {
    "name": "Dr. Md Asif Nizam",
    "address": "28/H/1, Sir Syed Ahmed Road, Kolkata, West Bengal",
    "phone": "Dr. Md Asif Nizam",
    "hours": "Closed· Opens 19:00",
    "image_url": null
  },
  {
    "name": "Dr. Shabbir Ahmed",
    "address": "96, Collin Street, Elliot Road, Landmark: Near Kalanga Masjid., Kolkata 700016",
    "phone": "Dr. Shabbir Ahmed",
    "hours": "Opens in 8 mins",
    "image_url": null
  },
  {
    "name": "Dr. Amit Dutt Dwary - Best Oncologist",
    "address": "Apollo Gleneagles Cancer Hospital, 58, Canal Circular Rd, Ultadanga, Kolkata, West Bengal",
    "phone": "Dr. Amit Dutt Dwary - Best Oncologist",
    "hours": null,
    "image_url": "https://www.bing.com/maps/geoplat/REST/v1/Imagery/Map/RoadVibrant?ms=92,112&key=AnTcaqBi2ypp0xI-OZNi4W_ik2KhjgpqioTAtXLC8GzkMBQRMlyxvxyTnd5b73im&c=en-US&ur=in&da=n&logo=n&fmt=png&od=1&shading=hill&pp=22.574095,88.399513;dfp"
  },
  {
    "name": "Datta Dr Partha Sarathi",
    "address": "171a/a1, SN Banerjee Road(SH-2), Near Barrackpur Railway Station, Barrackpur, Kolkata, West Bengal 700…",
    "phone": "Datta Dr Partha Sarathi",
    "hours": "Open· Closes 20:00",
    "image_url": "https://www.bing.com/maps/geoplat/REST/v1/Imagery/Map/RoadVibrant?ms=92,134&key=AnTcaqBi2ypp0xI-OZNi4W_ik2KhjgpqioTAtXLC8GzkMBQRMlyxvxyTnd5b73im&c=en-US&ur=in&da=n&logo=n&fmt=png&od=1&shading=hill&pp=22.563034,88.352242;dfp"
  }
]