[
  {
    "name": "Dr. Sujay's Heart Care Clinic",
    "address": "Anjili Rd, Opposite Sankers Hospital, Near Kailas Dental Clinic, Kadapakkada, Kerala 691001",
    "phone": "Dr. Sujay's Heart Care Clinic",
    "hours": "Closed· Opens 17:00",
    "image_url": "/th?id=OLC.5qm0cIEDgTWxLg480x360&w=92&h=134&c=8&rs=1&qlt=80&cdv=1&pid=Local"
  },
  {
    "name": "Dr. Mukil Chandran",
    "address": "Bhagya Ara108A, Mundakkal, Nawadeep Public School, Polayathode-Chayakkadamukku Road, Kollam, Kerala …",
    "phone": "Dr. Mukil Chandran",
    "hours": "Open· Closes 18:00",
    "image_url": "https://www.bing.com/maps/geoplat/REST/v1/Imagery/Map/RoadVibrant?ms=92,134&key=AnTcaqBi2ypp0xI-OZNi4W_ik2KhjgpqioTAtXLC8GzkMBQRMlyxvxyTnd5b73im&c=en-US&ur=in&da=n&logo=n&fmt=png&od=1&shading=hill&pp=8.868576,76.606018;dfp"
  },
  {
    "name": "Dr. RENU CHANDRAN MD",
    "address": "Prathibha Junction, Kadapakkada, Kollam, Kerala",
    "phone": "Dr. RENU CHANDRAN MD",
    "hours": null,
    "image_url": "https://www.bing.com/maps/geoplat/REST/v1/Imagery/Map/RoadVibrant?ms=92,112&key=AnTcaqBi2ypp0xI-OZNi4W_ik2KhjgpqioTAtXLC8GzkMBQRMlyxvxyTnd5b73im&c=en-US&ur=in&da=n&logo=n&fmt=png&od=1&shading=hill&pp=8.886832,76.605247;dfp"
  },
  {
    "name": "Dr. Sujay Renga",
    "address": "120, Ganapathi Nagar, Thamarakkulam, Kollam (Quilon), India - 691001, Kollam (Quilon), Kerala 691001",
    "phone": "Dr. Sujay Renga",
    "hours": null,
    "image_url": "https://www.bing.com/maps/geoplat/REST/v1/Imagery/Map/RoadVibrant?ms=92,112&key=AnTcaqBi2ypp0xI-OZNi4W_ik2KhjgpqioTAtXLC8GzkMBQRMlyxvxyTnd5b73im&c=en-US&ur=in&da=n&logo=n&fmt=png&od=1&shading=hill&pp=8.887772,76.600075;dfp"
  },
  {
    "name": "Dr. V. Ajayakumar",
    "address": "88, Vikas Nagar, Viskas Nagar, Pattathanam, Kollam, Kerala",
    "phone": "Dr. V. Ajayakumar",
    "hours": null,
    "image_url": "https://www.bing.com/maps/geoplat/REST/v1/Imagery/Map/RoadVibrant?ms=92,112&key=AnTcaqBi2ypp0xI-OZNi4W_ik2KhjgpqioTAtXLC8GzkMBQRMlyxvxyTnd5b73im&c=en-US&ur=in&da=n&logo=n&fmt=png&od=1&shading=hill&pp=8.8859,76.605225;dfp"
  },
  {
    "name": "SCOTDS Dr Visakh Suku",
    "address": "Mundakkal, Kollam, Kerala",
    "phone": "SCOTDS Dr Visakh Suku",
    "hours": null,
    "image_url": "https://www.bing.com/maps/geoplat/REST/v1/Imagery/Map/RoadVibrant?ms=92,112&key=AnTcaqBi2ypp0xI-OZNi4W_ik2KhjgpqioTAtXLC8GzkMBQRMlyxvxyTnd5b73im&c=en-US&ur=in&da=n&logo=n&fmt=png&od=1&shading=hill&pp=8.875427,76.600815;dfp"
  },
  {
    "name": "Dr. Nair's Hospital",
    "address": "Residency Road, Asramam, Quilon, Kerala 691002",
    "phone": "Dr. Nair's Hospital",
    "hours": null,
    "image_url": null
  },
  {
    "name": "Dr. Reshma Krishnan",
    "address": "Near Kalidasakalakendra, Kollam, Kerala",
    "phone": "Dr. Reshma Krishnan",
    "hours": "Open· Closes 18:00",
    "image_url": "https://www.bing.com/maps/geoplat/REST/v1/Imagery/Map/RoadVibrant?ms=92,112&key=AnTcaqBi2ypp0xI-OZNi4W_ik2KhjgpqioTAtXLC8GzkMBQRMlyxvxyTnd5b73im&c=en-US&ur=in&da=n&logo=n&fmt=png&od=1&shading=hill&pp=8.880754,76.609329;dfp"
  },
  {
    "name": "Devi clinical",
    "address": "Hospital Road, Quilon, Kerala 691001",
    "phone": "Devi clinical",
    "hours": null,
    "image_url": null
  },
  {
    "name": "Dr. Sreedas G | Nephrology Clinic",
    "address": "Janayugam Nagar, House NO# 3, Kadapakada, Kollam, Kerala, India, 691008, Kollam, Madhya Pradesh 691008",
    "phone": "Dr. Sreedas G | Nephrology Clinic",
    "hours": "Closed· Opens tomorrow 17:00",
    "image_url": null
  },
  {
    "name": "Dr. Purushothaman Kollam",
    "address": "Ushus S-27, Sankar Nagar Housing Board Colony, Chinnakada, Kollam, Kerala",
    "phone": "Dr. Purushothaman Kollam",
    "hours": "Open· Closes 21:00",
    "image_url": null
  },
  {
    "name": "Praveen Namboodiri's Clinic",
    "address": "2, Kappalandimukku-Kadappakkada Rd, Kadapakkada, Kollam, Kerala",
    "phone": "Praveen Namboodiri's Clinic",
    "hours": null,
    "image_url": "https://www.bing.com/maps/geoplat/REST/v1/Imagery/Map/RoadVibrant?ms=92,112&key=AnTcaqBi2ypp0xI-OZNi4W_ik2KhjgpqioTAtXLC8GzkMBQRMlyxvxyTnd5b73im&c=en-US&ur=in&da=n&logo=n&fmt=png&od=1&shading=hill&pp=8.887169,76.605293;dfp"
  },
  {
    "name": "Santhigiri Ayurveda & Siddha Hospital - Polayathode, Kollam",
    "address": "Polayathode, Opp. Mundakkal Village Office, Amruthakulam, Kollam-691016, Kollam, Kerala",
    "phone": "Santhigiri Ayurveda & Siddha Hospital - Polayathode, Kollam",
    "hours": null,
    "image_url": null
  },
  {
    "name": "Dr.Gokul Raj",
    "address": "Eravipuram, Quilon, Kerala 691016",
    "phone": "Dr.Gokul Raj",
    "hours": null,
    "image_url": null
  },
  {
    "name": "Dr Vipin Vijay MD. Pain & Rehabilitation Physician",
    "address": "House No:229E, Bhavana Nagar, Prathibha Junction, Kollam. Near District Co-Operative Press-Kollam, Quilo…",
    "phone": "Dr Vipin Vijay MD. Pain & Rehabilitation Physician",
    "hours": "Closed· Opens Wed 17:00",
    "image_url": null
  },
  {
    "name": "Dr Sreekanth's Allergy and Immunotherapy Centre",
    "address": "Co-Operative Urban Bank, Near Quilon, Chandanathope, Kottamkara, Kerala",
    "phone": "Dr Sreekanth's Allergy and Immunotherapy Centre",
    "hours": null,
    "image_url": "https://www.bing.com/maps/geoplat/REST/v1/Imagery/Map/RoadVibrant?ms=92,112&key=AnTcaqBi2ypp0xI-OZNi4W_ik2KhjgpqioTAtXLC8GzkMBQRMlyxvxyTnd5b73im&c=en-US&ur=in&da=n&logo=n&fmt=png&od=1&shading=hill&pp=8.883198,76.599701;dfp"
  },
  {
    "name": "Charaka Ayurvedic Clinic",
    "address": "City Central Nagar, Near Josco Jewellers, Chinnakada, Kollam, Kerala, Kerala 691001",
    "phone": "Charaka Ayurvedic Clinic",
    "hours": null,
    "image_url": "https://www.bing.com/maps/geoplat/REST/v1/Imagery/Map/RoadVibrant?ms=92,112&key=AnTcaqBi2ypp0xI-OZNi4W_ik2KhjgpqioTAtXLC8GzkMBQRMlyxvxyTnd5b73im&c=en-US&ur=in&da=n&logo=n&fmt=png&od=1&shading=hill&pp=20,77;dfp"
  },
  {
    "name": "Kottakkal Arya Vaidya Sala Agency",
    "address": "Andamukkam Rd, Andamukkom, Kollam, Kerala 691001, India, Kollam, Kerala 691001",
    "phone": "Kottakkal Arya Vaidya Sala Agency",
    "hours": null,
    "image_url": null
  }
]