[
  {
    "name": "Dr.k.g Kulkarni Hospital",
    "address": "Police Station Road, Koppal, Karnataka 583231",
    "phone": "Dr.k.g Kulkarni Hospital",
    "hours": null,
    "image_url": "/th?id=OLC.HoPYv0KgCEEaag480x360&w=92&h=112&c=8&rs=1&qlt=80&cdv=1&pid=Local"
  },
  {
    "name": "Prashanth Clinic",
    "address": "Bellary Hubli Road, Koppal, Karnataka 583231",
    "phone": "Prashanth Clinic",
    "hours": null,
    "image_url": "https://www.bing.com/maps/geoplat/REST/v1/Imagery/Map/RoadVibrant?ms=92,112&key=AnTcaqBi2ypp0xI-OZNi4W_ik2KhjgpqioTAtXLC8GzkMBQRMlyxvxyTnd5b73im&c=en-US&ur=in&da=n&logo=n&fmt=png&od=1&shading=hill&pp=15.349769,76.161285;dfp"
  },
  {
    "name": "Saradhi Clinic",
    "address": "Salarjing Road, Koppal, Karnataka 583231",
    "phone": "Saradhi Clinic",
    "hours": null,
    "image_url": "https://www.bing.com/maps/geoplat/REST/v1/Imagery/Map/RoadVibrant?ms=92,112&key=AnTcaqBi2ypp0xI-OZNi4W_ik2KhjgpqioTAtXLC8GzkMBQRMlyxvxyTnd5b73im&c=en-US&ur=in&da=n&logo=n&fmt=png&od=1&shading=hill&pp=15.346436,76.158264;dfp"
  },
  {
    "name": "Nalwad Clinic",
    "address": "Jawahar Road, Koppal, Karnataka 583231",
    "phone": "Nalwad Clinic",
    "hours": null,
    "image_url": "/th?id=OLC.bGqUh1iJPmCHDQ480x360&w=92&h=112&c=8&rs=1&qlt=80&cdv=1&pid=Local"
  },
  {
    "name": "Amareswara Clinic",
    "address": "Salarjing Road, Koppal, Karnataka 583231",
    "phone": "Amareswara Clinic",
    "hours": null,
    "image_url": "https://www.bing.com/maps/geoplat/REST/v1/Imagery/Map/RoadVibrant?ms=92,112&key=AnTcaqBi2ypp0xI-OZNi4W_ik2KhjgpqioTAtXLC8GzkMBQRMlyxvxyTnd5b73im&c=en-US&ur=in&da=n&logo=n&fmt=png&od=1&shading=hill&pp=15.339775,76.155197;dfp"
  },
  {
    "name": "Dr Mahesh R Govankop",
    "address": "Diwator Nagar, Koppal, Karnataka 583231, India, Diwator Nagar, Karnataka 583231",
    "phone": "Dr Mahesh R Govankop",
    "hours": null,
    "image_url": "/th?id=OLC.dZ8W8CTtFcxNlQ480x360&w=92&h=112&c=8&rs=1&qlt=80&cdv=1&pid=Local"
  },
  {
    "name": "Santhu Clinic",
    "address": "Jawahar Road, Koppal, Karnataka 583231",
    "phone": "Santhu Clinic",
    "hours": null,
    "image_url": "https://www.bing.com/maps/geoplat/REST/v1/Imagery/Map/RoadVibrant?ms=92,112&key=AnTcaqBi2ypp0xI-OZNi4W_ik2KhjgpqioTAtXLC8GzkMBQRMlyxvxyTnd5b73im&c=en-US&ur=in&da=n&logo=n&fmt=png&od=1&shading=hill&pp=15.342445,76.155159;dfp"
  },
  {
    "name": "Dr Annie Besant Memorial",
    "address": "Near Govt Hospital Bhagynagar, Koppal, Karnataka 583238",
    "phone": "Dr Annie Besant Memorial",
    "hours": null,
    "image_url": "https://www.bing.com/maps/geoplat/REST/v1/Imagery/Map/RoadVibrant?ms=92,112&key=AnTcaqBi2ypp0xI-OZNi4W_ik2KhjgpqioTAtXLC8GzkMBQRMlyxvxyTnd5b73im&c=en-US&ur=in&da=n&logo=n&fmt=png&od=1&shading=hill&pp=15.368354,76.144585;dfp"
  },
  {
    "name": "Shreyaunsh Clinic",
    "address": "Jawahar Rd, Near Masjid E Yusufiya, Koppal, Karnataka 583231, India, Koppal, Karnataka 583231",
    "phone": "Shreyaunsh Clinic",
    "hours": null,
    "image_url": "https://www.bing.com/maps/geoplat/REST/v1/Imagery/Map/RoadVibrant?ms=92,112&key=AnTcaqBi2ypp0xI-OZNi4W_ik2KhjgpqioTAtXLC8GzkMBQRMlyxvxyTnd5b73im&c=en-US&ur=in&da=n&logo=n&fmt=png&od=1&shading=hill&pp=15.34613,76.164429;dfp"
  },
  {
    "name": "Aswini Clinic",
    "address": "Gadag Road, Bannikatti, Koppal, Karnataka 584130",
    "phone": "Aswini Clinic",
    "hours": null,
    "image_url": "https://www.bing.com/maps/geoplat/REST/v1/Imagery/Map/RoadVibrant?ms=92,112&key=AnTcaqBi2ypp0xI-OZNi4W_ik2KhjgpqioTAtXLC8GzkMBQRMlyxvxyTnd5b73im&c=en-US&ur=in&da=n&logo=n&fmt=png&od=1&shading=hill&pp=15.351341,76.144127;dfp"
  },
  {
    "name": "Dr. Binayke Hospital",
    "address": "Bharat Complex, Jawahar Rd, Athwadi Bazzar, Selu, Maharashtra 431503, India, Parbhani, Maharashtra 431…",
    "phone": "Dr. Binayke Hospital",
    "hours": null,
    "image_url": "https://www.bing.com/maps/geoplat/REST/v1/Imagery/Map/RoadVibrant?ms=92,112&key=AnTcaqBi2ypp0xI-OZNi4W_ik2KhjgpqioTAtXLC8GzkMBQRMlyxvxyTnd5b73im&c=en-US&ur=in&da=n&logo=n&fmt=png&od=1&shading=hill&pp=15.350741,76.153412;dfp"
  },
  {
    "name": "Yashas Clinic",
    "address": "1\\292\\2, Handigol Sudhakar Shivaraj, Ward 13, 2921 Challeshwar Nagar Kuknoor, Kuknoor, Koppal, Karnata…",
    "phone": "Yashas Clinic",
    "hours": null,
    "image_url": "https://www.bing.com/maps/geoplat/REST/v1/Imagery/Map/RoadVibrant?ms=92,112&key=AnTcaqBi2ypp0xI-OZNi4W_ik2KhjgpqioTAtXLC8GzkMBQRMlyxvxyTnd5b73im&c=en-US&ur=in&da=n&logo=n&fmt=png&od=1&shading=hill&pp=15.48972,75.993889;dfp"
  },
  {
    "name": "Primary Health Centre",
    "address": "Koppal Bevoor Kushtagi Road, Irakalgada, Koppal, Karnataka 583287",
    "phone": "Primary Health Centre",
    "hours": null,
    "image_url": "https://www.bing.com/maps/geoplat/REST/v1/Imagery/Map/RoadVibrant?ms=92,112&key=AnTcaqBi2ypp0xI-OZNi4W_ik2KhjgpqioTAtXLC8GzkMBQRMlyxvxyTnd5b73im&c=en-US&ur=in&da=n&logo=n&fmt=png&od=1&shading=hill&pp=15.465052,76.21772;dfp"
  },
  {
    "name": "Shri Gavishree Ayurvedic Clinic with Panchakarma Unit",
    "address": "SH36, B.T.Patil Nagar, Koppal, Karnataka",
    "phone": "Shri Gavishree Ayurvedic Clinic with Panchakarma Unit",
    "hours": null,
    "image_url": null
  },
  {
    "name": "SJG Ayurvedic Medical College",
    "address": "sjg Ayurvedic Medical Collage & Research Centre, Near Gavimath, Koppal, Karnataka 583231",
    "phone": "SJG Ayurvedic Medical College",
    "hours": null,
    "image_url": null
  },
  {
    "name": "Anugraha Clinic, Dr. Basavaraj Bachalapur",
    "address": "3rd Cross, 2nd Cross Gavishree Nagar, Near ITI College, Gavimutt Road, Koppal, Karnataka",
    "phone": "Anugraha Clinic, Dr. Basavaraj Bachalapur",
    "hours": null,
    "image_url": "https://www.bing.com/maps/geoplat/REST/v1/Imagery/Map/RoadVibrant?ms=92,112&key=AnTcaqBi2ypp0xI-OZNi4W_ik2KhjgpqioTAtXLC8GzkMBQRMlyxvxyTnd5b73im&c=en-US&ur=in&da=n&logo=n&fmt=png&od=1&shading=hill&pp=13.000903,77.608284;dfp"
  }
]