[
  {
    "name": "Dr. A.Chowdhury | Orthopaedics&Rheumatology",
    "address": "Bus Stand Manendragarh(C.G), Koriya, Chhattisgarh, India, 497442, Koriya, Madhya Pradesh 497442",
    "phone": "Dr. A.Chowdhury | Orthopaedics&Rheumatology",
    "hours": "Open· Closes 18:00",
    "image_url": "/th?id=OLC.xj0DNb55BVnv6w480x360&w=92&h=134&c=8&rs=1&qlt=80&cdv=1&pid=Local"
  },
  {
    "name": "Dr Ansari Clinic",
    "address": "Deviji Road, Kotma, Madhya Pradesh 484886",
    "phone": "Dr Ansari Clinic",
    "hours": null,
    "image_url": "https://www.bing.com/maps/geoplat/REST/v1/Imagery/Map/RoadVibrant?ms=92,112&key=AnTcaqBi2ypp0xI-OZNi4W_ik2KhjgpqioTAtXLC8GzkMBQRMlyxvxyTnd5b73im&c=en-US&ur=in&da=n&logo=n&fmt=png&od=1&shading=hill&pp=23.203667,81.97728;dfp"
  },
  {
    "name": "Dr. Vinay Shankar Singh",
    "address": "Saraswati Shishu Mandir Complex, Near Civil Court, Manendragarh H O, Manendragarh - 497442, Koriya, C…",
    "phone": "Dr. Vinay Shankar Singh",
    "hours": "Open· Closes 20:30",
    "image_url": "https://www.bing.com/maps/geoplat/REST/v1/Imagery/Map/RoadVibrant?ms=92,112&key=AnTcaqBi2ypp0xI-OZNi4W_ik2KhjgpqioTAtXLC8GzkMBQRMlyxvxyTnd5b73im&c=en-US&ur=in&da=n&logo=n&fmt=png&od=1&shading=hill&pp=23.215437,82.206673;dfp"
  },
  {
    "name": "Nidaan Clinic",
    "address": "Near Joda Talab, Purani Basti, Manendragarh, Madhya Pradesh 497442",
    "phone": "Nidaan Clinic",
    "hours": "Closed· Opens 17:30",
    "image_url": "/th?id=OLC.QcmRSF1Nop%2bgAw480x360&w=92&h=134&c=8&rs=1&qlt=80&cdv=1&pid=Local"
  },
  {
    "name": "Dr. Balendu Shah- General Surgeon",
    "address": "Star Medical, Hospital Road, Near Trauma Centre, Waidhan, Madhya Pradesh 486886",
    "phone": "Dr. Balendu Shah- General Surgeon",
    "hours": "Closed· Opens 13:00",
    "image_url": "https://www.bing.com/maps/geoplat/REST/v1/Imagery/Map/RoadVibrant?ms=92,134&key=AnTcaqBi2ypp0xI-OZNi4W_ik2KhjgpqioTAtXLC8GzkMBQRMlyxvxyTnd5b73im&c=en-US&ur=in&da=n&logo=n&fmt=png&od=1&shading=hill&pp=24.069901,82.611534;dfp"
  },
  {
    "name": "Primary Health Centre",
    "address": "Main Road Odagi, Kalamanjan Odagi, Surajpur, Chhattisgarh 497231",
    "phone": "Primary Health Centre",
    "hours": null,
    "image_url": "https://www.bing.com/maps/geoplat/REST/v1/Imagery/Map/RoadVibrant?ms=92,112&key=AnTcaqBi2ypp0xI-OZNi4W_ik2KhjgpqioTAtXLC8GzkMBQRMlyxvxyTnd5b73im&c=en-US&ur=in&da=n&logo=n&fmt=png&od=1&shading=hill&pp=23.479397,82.804619;dfp"
  },
  {
    "name": "Dr. L K Pandey- Dermatologist",
    "address": "Prisha Skin Clinic & Diagnostic Center, Pharmaji Life Sciences, Opp. Singrauli Palace Hotel, Main Road, Bilo…",
    "phone": "Dr. L K Pandey- Dermatologist",
    "hours": "Closed· Opens 17:00",
    "image_url": null
  },
  {
    "name": "Dr. L K Pandey- Dermatologist in Singrauli",
    "address": "Prisha Skin Clinic & Diagnostic Center Pharmaji Life Sciences, Opp Singrauli Palace Hotel Main Road, Bilou…",
    "phone": "Dr. L K Pandey- Dermatologist in Singrauli",
    "hours": null,
    "image_url": "https://www.bing.com/maps/geoplat/REST/v1/Imagery/Map/RoadVibrant?ms=92,112&key=AnTcaqBi2ypp0xI-OZNi4W_ik2KhjgpqioTAtXLC8GzkMBQRMlyxvxyTnd5b73im&c=en-US&ur=in&da=n&logo=n&fmt=png&od=1&shading=hill&pp=24.070711,82.623383;dfp"
  },
  {
    "name": "Dr.Ganga vaishya clinic",
    "address": "Plaza, Ram Lila Maidan, Waidhan, Madhya Pradesh",
    "phone": "Dr.Ganga vaishya clinic",
    "hours": null,
    "image_url": "https://www.bing.com/maps/geoplat/REST/v1/Imagery/Map/RoadVibrant?ms=92,112&key=AnTcaqBi2ypp0xI-OZNi4W_ik2KhjgpqioTAtXLC8GzkMBQRMlyxvxyTnd5b73im&c=en-US&ur=in&da=n&logo=n&fmt=png&od=1&shading=hill&pp=24.067207,82.629463;clcp"
  },
  {
    "name": "Dr Mansuori Clinic",
    "address": "Anuppur Road, Anuppur, Madhya Pradesh 484224",
    "phone": "Dr Mansuori Clinic",
    "hours": null,
    "image_url": "https://www.bing.com/maps/geoplat/REST/v1/Imagery/Map/RoadVibrant?ms=92,112&key=AnTcaqBi2ypp0xI-OZNi4W_ik2KhjgpqioTAtXLC8GzkMBQRMlyxvxyTnd5b73im&c=en-US&ur=in&da=n&logo=n&fmt=png&od=1&shading=hill&pp=23.119638,81.697098;dfp"
  },
  {
    "name": "Ayush Poly Clinic Baikunthpur Churcha",
    "address": "Churcha Main Road, Churcha, Chhattisgarh",
    "phone": "Ayush Poly Clinic Baikunthpur Churcha",
    "hours": null,
    "image_url": "https://www.bing.com/maps/geoplat/REST/v1/Imagery/Map/RoadVibrant?ms=92,112&key=AnTcaqBi2ypp0xI-OZNi4W_ik2KhjgpqioTAtXLC8GzkMBQRMlyxvxyTnd5b73im&c=en-US&ur=in&da=n&logo=n&fmt=png&od=1&shading=hill&pp=23.3186,82.523712;dfp"
  },
  {
    "name": "Dr. Sangeeta Tiwari Hospital",
    "address": "Near Kali Temple, Bijuri, Madhya Pradesh 484440, India, Bijur, Maharashtra 484440",
    "phone": "Dr. Sangeeta Tiwari Hospital",
    "hours": null,
    "image_url": "https://www.bing.com/maps/geoplat/REST/v1/Imagery/Map/RoadVibrant?ms=92,112&key=AnTcaqBi2ypp0xI-OZNi4W_ik2KhjgpqioTAtXLC8GzkMBQRMlyxvxyTnd5b73im&c=en-US&ur=in&da=n&logo=n&fmt=png&od=1&shading=hill&pp=21.214149,81.348358;dfp"
  },
  {
    "name": "Lifecare Homeopathic Clinic",
    "address": "Bhawani Tigadda, Mahalpararoad, Baikunthpur, Chhattisgarh 497335",
    "phone": "Lifecare Homeopathic Clinic",
    "hours": "Closed· Opens 17:00",
    "image_url": null
  },
  {
    "name": "Palak Skin Clinic & Pharmacy",
    "address": "Beside Agrasen Honda Showroom, Opposite Axis Bank Main Road, Tali Road, Waidhan, Madhya Pradesh",
    "phone": "Palak Skin Clinic & Pharmacy",
    "hours": null,
    "image_url": null
  },
  {
    "name": "DR. Rakesh Kumar Sharma Hospital and Research Centre",
    "address": "Ward N-10, Mahal Para Palace Road, Sharma HospItal Baikunthpur, Koriya, Chhattisgarh 497335",
    "phone": "DR. Rakesh Kumar Sharma Hospital and Research Centre",
    "hours": null,
    "image_url": "https://www.bing.com/maps/geoplat/REST/v1/Imagery/Map/RoadVibrant?ms=92,112&key=AnTcaqBi2ypp0xI-OZNi4W_ik2KhjgpqioTAtXLC8GzkMBQRMlyxvxyTnd5b73im&c=en-US&ur=in&da=n&logo=n&fmt=png&od=1&shading=hill&pp=19.088055,82.020592;dfp"
  },
  {
    "name": "Shree Swastik Homeopathic Clinic",
    "address": "Shop 144, Plaza, Ganiyari Road, Ambedkar Chowk, Waidhan, Singrauli, Madhya Pradesh 486886",
    "phone": "Shree Swastik Homeopathic Clinic",
    "hours": null,
    "image_url": null
  },
  {
    "name": "Dr Nitin's Clinic",
    "address": "H. No: 487, Main Road Bilaunji, Waidhan, Singrauli, Madhya Pradesh",
    "phone": "Dr Nitin's Clinic",
    "hours": null,
    "image_url": null
  }
]