[
  {
    "name": "Sudha Hospital & Medical Research Centre",
    "address": "11-A, Talwandi, Jhalawar Road, Ladpura, Rajasthan 324005",
    "phone": "Sudha Hospital & Medical Research Centre",
    "hours": "Open· Closes 14:00",
    "image_url": "/th?id=OLC.O%2bHIKtrdVuHbKw480x360&w=92&h=134&c=8&rs=1&qlt=80&cdv=1&pid=Local"
  },
  {
    "name": "Dr. Kunal Mittal",
    "address": "6, New Colony, Near Sheetla Mata Mandir, Gumanpura, Kota 324007",
    "phone": "Dr. Kunal Mittal",
    "hours": "Closed· Opens 16:00",
    "image_url": "/th?id=OLC.SRvi1KkCU6QMZQ480x360&w=92&h=134&c=8&rs=1&qlt=80&cdv=1&pid=Local"
  },
  {
    "name": "Dr. Yash Bhargava",
    "address": "No.257 A, Sheela Choudhary Road, Opp. Paras Hotel, Vip Colony, Talwandi, Kota 324005",
    "phone": "Dr. Yash Bhargava",
    "hours": "Open· Closes 20:00",
    "image_url": "/th?id=OLC.SEZkuVcsZPt0Gw480x360&w=92&h=134&c=8&rs=1&qlt=80&cdv=1&pid=Local"
  },
  {
    "name": "Kota Heart Institute And General Hospital",
    "address": "2-K-24, Vigyan Nagar, Kota, Rajasthan 324005",
    "phone": "Kota Heart Institute And General Hospital",
    "hours": null,
    "image_url": "/th?id=OLC.a%2bNE5OYx%2fJWTZg480x360&w=92&h=112&c=8&rs=1&qlt=80&cdv=1&pid=Local"
  },
  {
    "name": "Shuddhi Ayurveda Panchakarma Hospital Kota - A Unit of Jeena Sikho Lifecare Limited(On Panel RGHS, ECHS, …",
    "address": "1-C-3, SFS, Sheela Choudhary Rd, Talwandi, Kota, Rajasthan 324005",
    "phone": "Shuddhi Ayurveda Panchakarma Hospital Kota - A Unit of Jeena Sikho Lifecare Limited(On Panel RGHS, ECHS, …",
    "hours": "Open· Closes 18:00",
    "image_url": "/th?id=OLC.TZKXYBYBVaxHLw480x360&w=92&h=134&c=8&rs=1&qlt=80&cdv=1&pid=Local"
  },
  {
    "name": "Dr Kamal Bhargava Clinic",
    "address": "A58, Ridhi Sidhi Nagar, Kunadi, Electricity Board Area, Kota, Rajasthan",
    "phone": "Dr Kamal Bhargava Clinic",
    "hours": null,
    "image_url": "https://www.bing.com/maps/geoplat/REST/v1/Imagery/Map/RoadVibrant?ms=92,112&key=AnTcaqBi2ypp0xI-OZNi4W_ik2KhjgpqioTAtXLC8GzkMBQRMlyxvxyTnd5b73im&c=en-US&ur=in&da=n&logo=n&fmt=png&od=1&shading=hill&pp=25.200031,75.838516;dfp"
  },
  {
    "name": "Rajvansh Clinic (Dr.R.K.Rajvanshi)",
    "address": "Shop Number 28, Icici ATM, CAD Cir, Sant Tulsi Market, Shakti Nagar, Dadabari, Kota, Rajasthan",
    "phone": "Rajvansh Clinic (Dr.R.K.Rajvanshi)",
    "hours": null,
    "image_url": null
  },
  {
    "name": "Dr. Saurabh Chittora",
    "address": "1422, B Road, Sector - B, Shrinath Puram, Kota, Rajasthan 324010, India, Kota, Rajasthan 324010",
    "phone": "Dr. Saurabh Chittora",
    "hours": null,
    "image_url": null
  },
  {
    "name": "Dr. Manisha Mittal",
    "address": "6 Bankers Colony, Kota, Rajasthan",
    "phone": "Dr. Manisha Mittal",
    "hours": "Open· Closes 14:00",
    "image_url": null
  },
  {
    "name": "Bhargava Clinic",
    "address": "Station Main Road, Kota, Madhya Pradesh 324001",
    "phone": "Bhargava Clinic",
    "hours": "Closed· Opens 18:00",
    "image_url": null
  },
  {
    "name": "Dr. Manish Mehta",
    "address": "279, Dadabari Extension, Landmark: Near Dadabari Badminton Hall, Kota, Kota 324009",
    "phone": "Dr. Manish Mehta",
    "hours": "Closed· Opens 17:00",
    "image_url": "https://www.bing.com/maps/geoplat/REST/v1/Imagery/Map/RoadVibrant?ms=92,134&key=AnTcaqBi2ypp0xI-OZNi4W_ik2KhjgpqioTAtXLC8GzkMBQRMlyxvxyTnd5b73im&c=en-US&ur=in&da=n&logo=n&fmt=png&od=1&shading=hill&pp=25.15485,75.829987;dfp"
  },
  {
    "name": "Dr. Amit Patel",
    "address": "1, Keshav Nagar, Kunadi, Landmark: Near St. Jhones School, Kota",
    "phone": "Dr. Amit Patel",
    "hours": "Closed· Opens 16:00",
    "image_url": "https://www.bing.com/maps/geoplat/REST/v1/Imagery/Map/RoadVibrant?ms=92,112&key=AnTcaqBi2ypp0xI-OZNi4W_ik2KhjgpqioTAtXLC8GzkMBQRMlyxvxyTnd5b73im&c=en-US&ur=in&da=n&logo=n&fmt=png&od=1&shading=hill&pp=25.213665,75.89225;dfp"
  },
  {
    "name": "Dr. Vikrant Mathur",
    "address": "1-a-7, Sfs, Landmark: Behind Hdfc Bank, Kota 324005",
    "phone": "Dr. Vikrant Mathur",
    "hours": "Open· Closes 13:30",
    "image_url": "https://www.bing.com/maps/geoplat/REST/v1/Imagery/Map/RoadVibrant?ms=92,134&key=AnTcaqBi2ypp0xI-OZNi4W_ik2KhjgpqioTAtXLC8GzkMBQRMlyxvxyTnd5b73im&c=en-US&ur=in&da=n&logo=n&fmt=png&od=1&shading=hill&pp=25.150551,75.84491;dfp"
  },
  {
    "name": "Dr Ashutosh & Dr Vinita's Clinic",
    "address": "5-d-7, Rangbari Yojana Near Rangbari Balaji Circle, Kota, Rajasthan 324005",
    "phone": "Dr Ashutosh & Dr Vinita's Clinic",
    "hours": null,
    "image_url": "https://www.bing.com/maps/geoplat/REST/v1/Imagery/Map/RoadVibrant?ms=92,112&key=AnTcaqBi2ypp0xI-OZNi4W_ik2KhjgpqioTAtXLC8GzkMBQRMlyxvxyTnd5b73im&c=en-US&ur=in&da=n&logo=n&fmt=png&od=1&shading=hill&pp=25.128086,75.834763;dfp"
  },
  {
    "name": "Dr. Dk Gupta Clinic",
    "address": "Vallabh Bari, Ballabhbari, Gumanpura, Kota, Rajasthan 324006, India, Kota, Rajasthan, Rajasthan 324006",
    "phone": "Dr. Dk Gupta Clinic",
    "hours": null,
    "image_url": "https://www.bing.com/maps/geoplat/REST/v1/Imagery/Map/RoadVibrant?ms=92,112&key=AnTcaqBi2ypp0xI-OZNi4W_ik2KhjgpqioTAtXLC8GzkMBQRMlyxvxyTnd5b73im&c=en-US&ur=in&da=n&logo=n&fmt=png&od=1&shading=hill&pp=25.175295,75.846237;dfp"
  },
  {
    "name": "Shah Clinic",
    "address": "Avantika, 122A Vallabhbadi Patel, Gumanpura, Kota, Rajasthan",
    "phone": "Shah Clinic",
    "hours": null,
    "image_url": "https://www.bing.com/maps/geoplat/REST/v1/Imagery/Map/RoadVibrant?ms=92,112&key=AnTcaqBi2ypp0xI-OZNi4W_ik2KhjgpqioTAtXLC8GzkMBQRMlyxvxyTnd5b73im&c=en-US&ur=in&da=n&logo=n&fmt=png&od=1&shading=hill&pp=25.178486,75.845131;dfp"
  },
  {
    "name": "Dr. Vivek Singhvi",
    "address": "464 -a, Talwandi ., Landmark: Near Dav School, Talwandi, Rajasthan 324005",
    "phone": "Dr. Vivek Singhvi",
    "hours": "Open· Closes 13:30",
    "image_url": "https://www.bing.com/maps/geoplat/REST/v1/Imagery/Map/RoadVibrant?ms=92,134&key=AnTcaqBi2ypp0xI-OZNi4W_ik2KhjgpqioTAtXLC8GzkMBQRMlyxvxyTnd5b73im&c=en-US&ur=in&da=n&logo=n&fmt=png&od=1&shading=hill&pp=25.150745,75.846657;dfp"
  },
  {
    "name": "Dr. Jasvinder Singh Saroya",
    "address": "Saroya Campus Chhavani Road, Kota, Rajasthan",
    "phone": "Dr. Jasvinder Singh Saroya",
    "hours": "Closed· Opens 11:00",
    "image_url": "https://www.bing.com/maps/geoplat/REST/v1/Imagery/Map/RoadVibrant?ms=92,112&key=AnTcaqBi2ypp0xI-OZNi4W_ik2KhjgpqioTAtXLC8GzkMBQRMlyxvxyTnd5b73im&c=en-US&ur=in&da=n&logo=n&fmt=png&od=1&shading=hill&pp=25.175261,75.846123;dfp"
  }
]