[
  {
    "name": "Dr.Masilamani clinic",
    "address": "Near sai Baba Temple, PTV Colony, Thiruvalluvar Nagar, Krishnagiri, Tamil Nadu",
    "phone": "Dr.Masilamani clinic",
    "hours": null,
    "image_url": "/th?id=OLC.BgvPmphW6WW8iw480x360&w=92&h=112&c=8&rs=1&qlt=80&cdv=1&pid=Local"
  },
  {
    "name": "Almaa Siddha Care Clinic",
    "address": "Door No:-2/24 Mel Pudur Main Road, Next to PNS Institute, Krishnagiri, Tamil Nadu 635001",
    "phone": "Almaa Siddha Care Clinic",
    "hours": null,
    "image_url": "/th?id=OLC.dc%2f8tx09vi8HvQ480x360&w=92&h=112&c=8&rs=1&qlt=80&cdv=1&pid=Local"
  },
  {
    "name": "Dr. Deepak Anand. R",
    "address": "Number 35, Shantinagar, Krishnagiri, Tamil Nadu",
    "phone": "Dr. Deepak Anand. R",
    "hours": "Open· Closes 14:00",
    "image_url": "https://www.bing.com/maps/geoplat/REST/v1/Imagery/Map/RoadVibrant?ms=92,112&key=AnTcaqBi2ypp0xI-OZNi4W_ik2KhjgpqioTAtXLC8GzkMBQRMlyxvxyTnd5b73im&c=en-US&ur=in&da=n&logo=n&fmt=png&od=1&shading=hill&pp=12.524767,78.210464;dfp"
  },
  {
    "name": "Dr. Narasimharaju B, Treated 15K+ Patients | Best Ent Specialist  | Ear, Nose, Throat Specialist",
    "address": "12, Sri Vijayalakshmi Hospital, Old, Sub Jail Rd, Bairappa Colony, Dowladabad, Krishnagiri, Tamil Nadu",
    "phone": "Dr. Narasimharaju B, Treated 15K+ Patients | Best Ent Specialist  | Ear, Nose, Throat Specialist",
    "hours": null,
    "image_url": "https://www.bing.com/maps/geoplat/REST/v1/Imagery/Map/RoadVibrant?ms=92,112&key=AnTcaqBi2ypp0xI-OZNi4W_ik2KhjgpqioTAtXLC8GzkMBQRMlyxvxyTnd5b73im&c=en-US&ur=in&da=n&logo=n&fmt=png&od=1&shading=hill&pp=12.517245,78.222054;dfp"
  },
  {
    "name": "Dr. Praveen Kumar Venkataraman, Treated 11K+ Patients | Best Orthopaedician | Fracture | Sports Injur…",
    "address": "Vani Hospital, Krishnagiri, Peddathanapalli, Tamil Nadu",
    "phone": "Dr. Praveen Kumar Venkataraman, Treated 11K+ Patients | Best Orthopaedician | Fracture | Sports Injur…",
    "hours": null,
    "image_url": "https://www.bing.com/maps/geoplat/REST/v1/Imagery/Map/RoadVibrant?ms=92,112&key=AnTcaqBi2ypp0xI-OZNi4W_ik2KhjgpqioTAtXLC8GzkMBQRMlyxvxyTnd5b73im&c=en-US&ur=in&da=n&logo=n&fmt=png&od=1&shading=hill&pp=12.511816,78.220436;dfp"
  },
  {
    "name": "Sankar Clinic",
    "address": "296/565, Gandhi Road, Old Pet, Krishnagiri, Tamil Nadu",
    "phone": "Sankar Clinic",
    "hours": "Open· Closes 21:00",
    "image_url": "https://www.bing.com/maps/geoplat/REST/v1/Imagery/Map/RoadVibrant?ms=92,112&key=AnTcaqBi2ypp0xI-OZNi4W_ik2KhjgpqioTAtXLC8GzkMBQRMlyxvxyTnd5b73im&c=en-US&ur=in&da=n&logo=n&fmt=png&od=1&shading=hill&pp=12.5249,78.22084;dfp"
  },
  {
    "name": "Navashakthi Clinic",
    "address": "31 3, Vadamalampatti, Puliyampatti, Bargur, Pochampalli, Krishnagiri, Tamil Nadu 635206",
    "phone": "Navashakthi Clinic",
    "hours": null,
    "image_url": "https://www.bing.com/maps/geoplat/REST/v1/Imagery/Map/RoadVibrant?ms=92,112&key=AnTcaqBi2ypp0xI-OZNi4W_ik2KhjgpqioTAtXLC8GzkMBQRMlyxvxyTnd5b73im&c=en-US&ur=in&da=n&logo=n&fmt=png&od=1&shading=hill&pp=12.520055,78.220276;dfp"
  },
  {
    "name": "V2 Clinic",
    "address": "64/A, Gandhi Nagar, Krishnagiri, Bazeer Mohamed Layout, Krishnagiri, Tamil Nadu 635001",
    "phone": "V2 Clinic",
    "hours": null,
    "image_url": "https://www.bing.com/maps/geoplat/REST/v1/Imagery/Map/RoadVibrant?ms=92,112&key=AnTcaqBi2ypp0xI-OZNi4W_ik2KhjgpqioTAtXLC8GzkMBQRMlyxvxyTnd5b73im&c=en-US&ur=in&da=n&logo=n&fmt=png&od=1&shading=hill&pp=12.533156,78.221672;dfp"
  },
  {
    "name": "A V Clinic / Dermatology",
    "address": "3rd Cross Street, Krishnagiri, Tamil Nadu 635002",
    "phone": "A V Clinic / Dermatology",
    "hours": "Closed· Opens 12:00",
    "image_url": "https://www.bing.com/maps/geoplat/REST/v1/Imagery/Map/RoadVibrant?ms=92,134&key=AnTcaqBi2ypp0xI-OZNi4W_ik2KhjgpqioTAtXLC8GzkMBQRMlyxvxyTnd5b73im&c=en-US&ur=in&da=n&logo=n&fmt=png&od=1&shading=hill&pp=12.522289,78.215225;dfp"
  },
  {
    "name": "Dr Nagesh Hospital",
    "address": "5/79 Main Road, Thally Denkanikottai, Krishnagiri, Tamil Nadu 635118",
    "phone": "Dr Nagesh Hospital",
    "hours": null,
    "image_url": "https://www.bing.com/maps/geoplat/REST/v1/Imagery/Map/RoadVibrant?ms=92,112&key=AnTcaqBi2ypp0xI-OZNi4W_ik2KhjgpqioTAtXLC8GzkMBQRMlyxvxyTnd5b73im&c=en-US&ur=in&da=n&logo=n&fmt=png&od=1&shading=hill&pp=12.525221,78.212517;dfp"
  },
  {
    "name": "Sri Sai Clinic",
    "address": "19\\4C3, Salem Main Road, Uthangarai, Krishnagiri, Tamil Nadu 635206",
    "phone": "Sri Sai Clinic",
    "hours": null,
    "image_url": "https://www.bing.com/maps/geoplat/REST/v1/Imagery/Map/RoadVibrant?ms=92,112&key=AnTcaqBi2ypp0xI-OZNi4W_ik2KhjgpqioTAtXLC8GzkMBQRMlyxvxyTnd5b73im&c=en-US&ur=in&da=n&logo=n&fmt=png&od=1&shading=hill&pp=12.511528,78.221756;dfp"
  },
  {
    "name": "Deepa Clinic",
    "address": "5/79C Near BUS Stand, Thally Denkanikottai, Krishnagiri, Tamil Nadu 635118",
    "phone": "Deepa Clinic",
    "hours": null,
    "image_url": "https://www.bing.com/maps/geoplat/REST/v1/Imagery/Map/RoadVibrant?ms=92,112&key=AnTcaqBi2ypp0xI-OZNi4W_ik2KhjgpqioTAtXLC8GzkMBQRMlyxvxyTnd5b73im&c=en-US&ur=in&da=n&logo=n&fmt=png&od=1&shading=hill&pp=12.532783,78.219048;dfp"
  },
  {
    "name": "Saba Clinic",
    "address": "74/247, Sub Jail Road, Newpet, Krishnagiri, Tamil Nadu 635001",
    "phone": "Saba Clinic",
    "hours": null,
    "image_url": "https://www.bing.com/maps/geoplat/REST/v1/Imagery/Map/RoadVibrant?ms=92,112&key=AnTcaqBi2ypp0xI-OZNi4W_ik2KhjgpqioTAtXLC8GzkMBQRMlyxvxyTnd5b73im&c=en-US&ur=in&da=n&logo=n&fmt=png&od=1&shading=hill&pp=12.513417,78.222176;dfp"
  },
  {
    "name": "Ilavirutham Siddha Clinic.",
    "address": "108A, 10, Irrattai Street, Lalpettai, Tamil Nadu",
    "phone": "Ilavirutham Siddha Clinic.",
    "hours": null,
    "image_url": "https://www.bing.com/maps/geoplat/REST/v1/Imagery/Map/RoadVibrant?ms=92,112&key=AnTcaqBi2ypp0xI-OZNi4W_ik2KhjgpqioTAtXLC8GzkMBQRMlyxvxyTnd5b73im&c=en-US&ur=in&da=n&logo=n&fmt=png&od=1&shading=hill&pp=12.533931,78.218163;dfp"
  },
  {
    "name": "Dr Ambedkar Sc/St Educational Trust",
    "address": "2/271 Sonnampatti Village Hanumanthapuram Post, Karimangalam Taluk, Dharmapuri, Tamil Nadu 636802",
    "phone": "Dr Ambedkar Sc/St Educational Trust",
    "hours": null,
    "image_url": "https://www.bing.com/maps/geoplat/REST/v1/Imagery/Map/RoadVibrant?ms=92,112&key=AnTcaqBi2ypp0xI-OZNi4W_ik2KhjgpqioTAtXLC8GzkMBQRMlyxvxyTnd5b73im&c=en-US&ur=in&da=n&logo=n&fmt=png&od=1&shading=hill&pp=12.513964,78.223854;dfp"
  },
  {
    "name": "Dr Dharani's Skin Speciality Clinic",
    "address": "GRM Complex, Near ST John Bosco Girls High School, Shanthi Nagar, Denkanikottai Road, Hosur, Krishnagiri…",
    "phone": "Dr Dharani's Skin Speciality Clinic",
    "hours": null,
    "image_url": "https://www.bing.com/maps/geoplat/REST/v1/Imagery/Map/RoadVibrant?ms=92,112&key=AnTcaqBi2ypp0xI-OZNi4W_ik2KhjgpqioTAtXLC8GzkMBQRMlyxvxyTnd5b73im&c=en-US&ur=in&da=n&logo=n&fmt=png&od=1&shading=hill&pp=12.727531,77.824852;dfp"
  }
]