[
  {
    "name": "Roopa Orthopedic & Joint Replacement Hospital",
    "address": "Ramayanapuvari Street, Opposite Highschool Road Bus Stop, Vijayawada, Krishna, Andhra Pradesh 520010",
    "phone": "Roopa Orthopedic & Joint Replacement Hospital",
    "hours": null,
    "image_url": "/th?id=OLC.p0%2bCSNiW8Mj59A480x360&w=92&h=112&c=8&rs=1&qlt=80&cdv=1&pid=Local"
  },
  {
    "name": "Sri Lakshmi Clinic",
    "address": "Bypass Road, Mubarak Nagar, Gudivada, Andhra Pradesh 521301",
    "phone": "Sri Lakshmi Clinic",
    "hours": null,
    "image_url": "/th?id=OLC.WGdhvxG41RA%2fiA480x360&w=92&h=112&c=8&rs=1&qlt=80&cdv=1&pid=Local"
  },
  {
    "name": "London Endocrine and Diabetes (LEAD) clinic || Best Endocrinologist || Best Diabetologist || Dr Ganguri Mura…",
    "address": "Dasarivari Street, Suryaraopeta, Vijayawada, Andhra Pradesh",
    "phone": "London Endocrine and Diabetes (LEAD) clinic || Best Endocrinologist || Best Diabetologist || Dr Ganguri Mura…",
    "hours": null,
    "image_url": "https://www.bing.com/maps/geoplat/REST/v1/Imagery/Map/RoadVibrant?ms=92,112&key=AnTcaqBi2ypp0xI-OZNi4W_ik2KhjgpqioTAtXLC8GzkMBQRMlyxvxyTnd5b73im&c=en-US&ur=in&da=n&logo=n&fmt=png&od=1&shading=hill&pp=16.512869,80.637665;dfp"
  },
  {
    "name": "Dr. Nagesh- Homeopathy",
    "address": "99/286 Chinnapeta Bethavolu Gubibada Krishna District, Bethavolu, Andhra Pradesh 521301",
    "phone": "Dr. Nagesh- Homeopathy",
    "hours": "Open· Closes 16:00",
    "image_url": "https://www.bing.com/maps/geoplat/REST/v1/Imagery/Map/RoadVibrant?ms=92,134&key=AnTcaqBi2ypp0xI-OZNi4W_ik2KhjgpqioTAtXLC8GzkMBQRMlyxvxyTnd5b73im&c=en-US&ur=in&da=n&logo=n&fmt=png&od=1&shading=hill&pp=16.429962,80.956993;dfp"
  },
  {
    "name": "Dr. Ch. Krishna Priya",
    "address": "H.No. 59-14-2A, 4th Floor, Santhi Plaza, Vijayawada, Andhra Pradesh",
    "phone": "Dr. Ch. Krishna Priya",
    "hours": "Open· Closes 19:00",
    "image_url": "https://www.bing.com/maps/geoplat/REST/v1/Imagery/Map/RoadVibrant?ms=92,112&key=AnTcaqBi2ypp0xI-OZNi4W_ik2KhjgpqioTAtXLC8GzkMBQRMlyxvxyTnd5b73im&c=en-US&ur=in&da=n&logo=n&fmt=png&od=1&shading=hill&pp=16.512915,80.667686;dfp"
  },
  {
    "name": "Practo Care Surgeries - Dr K Ashok Kumar",
    "address": "Room No 1, No 29/19/42, Dornakal Road, Vijayawada, Andhra Pradesh 520002",
    "phone": "Practo Care Surgeries - Dr K Ashok Kumar",
    "hours": "Open· Closes 20:00",
    "image_url": "https://www.bing.com/maps/geoplat/REST/v1/Imagery/Map/RoadVibrant?ms=92,134&key=AnTcaqBi2ypp0xI-OZNi4W_ik2KhjgpqioTAtXLC8GzkMBQRMlyxvxyTnd5b73im&c=en-US&ur=in&da=n&logo=n&fmt=png&od=1&shading=hill&pp=16.514397,80.636032;dfp"
  },
  {
    "name": "Dr Akhil's Clinic & Diagnostics",
    "address": "Doct NO.3560/2011, Ground Floor, Near Venkateswara Theater, Main Road, Kondapalli Ibrahimpatnam, Krishn…",
    "phone": "Dr Akhil's Clinic & Diagnostics",
    "hours": null,
    "image_url": "https://www.bing.com/maps/geoplat/REST/v1/Imagery/Map/RoadVibrant?ms=92,112&key=AnTcaqBi2ypp0xI-OZNi4W_ik2KhjgpqioTAtXLC8GzkMBQRMlyxvxyTnd5b73im&c=en-US&ur=in&da=n&logo=n&fmt=png&od=1&shading=hill&pp=16.615767,80.540657;dfp"
  },
  {
    "name": "Dr. Kundha Shreedhar",
    "address": "24-2-16A, NRP, Road Gandhi Nagar, Landmark: Near Inox Theater, Vijayawada, Andhra Pradesh",
    "phone": "Dr. Kundha Shreedhar",
    "hours": "Closed· Opens 18:00",
    "image_url": "https://www.bing.com/maps/geoplat/REST/v1/Imagery/Map/RoadVibrant?ms=92,112&key=AnTcaqBi2ypp0xI-OZNi4W_ik2KhjgpqioTAtXLC8GzkMBQRMlyxvxyTnd5b73im&c=en-US&ur=in&da=n&logo=n&fmt=png&od=1&shading=hill&pp=16.518829,80.630974;dfp"
  },
  {
    "name": "Dr Gautam's Allergy & Skin Clinic & Research Center",
    "address": "Opposite Eluru Road, Gudivada, Andhra Pradesh 521301",
    "phone": "Dr Gautam's Allergy & Skin Clinic & Research Center",
    "hours": null,
    "image_url": "https://www.bing.com/maps/geoplat/REST/v1/Imagery/Map/RoadVibrant?ms=92,112&key=AnTcaqBi2ypp0xI-OZNi4W_ik2KhjgpqioTAtXLC8GzkMBQRMlyxvxyTnd5b73im&c=en-US&ur=in&da=n&logo=n&fmt=png&od=1&shading=hill&pp=16.44743,80.990517;dfp"
  },
  {
    "name": "Dr P Avinash | Pediatrician",
    "address": "Avideep Mother and Children Hospital, Railway Station Rd, Railway Colony, Tadepalligudem, Andhra Pradesh",
    "phone": "Dr P Avinash | Pediatrician",
    "hours": null,
    "image_url": null
  },
  {
    "name": "Bezavada Arthroscopy & Sports Injuries Clinic, Orthopedic doctors",
    "address": "Madhu Gardens, Madhu Chowk, Opposite Praveen Cardiac Centre, Mogalrajapuram, Christurajupuram, Vij…",
    "phone": "Bezavada Arthroscopy & Sports Injuries Clinic, Orthopedic doctors",
    "hours": null,
    "image_url": "https://www.bing.com/maps/geoplat/REST/v1/Imagery/Map/RoadVibrant?ms=92,112&key=AnTcaqBi2ypp0xI-OZNi4W_ik2KhjgpqioTAtXLC8GzkMBQRMlyxvxyTnd5b73im&c=en-US&ur=in&da=n&logo=n&fmt=png&od=1&shading=hill&pp=16.507864,80.644943;dfp"
  },
  {
    "name": "Dr.B.V.GURUNADH SARMA JOINT REPLACEMENT & Paediatric Orthopaedic SURGEON.'B'ONE Clinic",
    "address": "23-21-15, Mudigonda Vari St, Satyaranayana Puram, Vijayawada, Andhra Pradesh",
    "phone": "Dr.B.V.GURUNADH SARMA JOINT REPLACEMENT & Paediatric Orthopaedic SURGEON.'B'ONE Clinic",
    "hours": "Open· Closes 13:00",
    "image_url": null
  },
  {
    "name": "Dr. Naveen Kumar Venigalla",
    "address": "Pantakalava Road, Near SBI Bank, Vijayawada, Andhra Pradesh 520010",
    "phone": "Dr. Naveen Kumar Venigalla",
    "hours": "Closed· Opens 18:00",
    "image_url": null
  },
  {
    "name": "Dr. Gopi Krishna",
    "address": "NH-5, Soumya Nagar, Vijayawada, Andhra Pradesh",
    "phone": "Dr. Gopi Krishna",
    "hours": "Open· Closes 13:00",
    "image_url": "https://www.bing.com/maps/geoplat/REST/v1/Imagery/Map/RoadVibrant?ms=92,112&key=AnTcaqBi2ypp0xI-OZNi4W_ik2KhjgpqioTAtXLC8GzkMBQRMlyxvxyTnd5b73im&c=en-US&ur=in&da=n&logo=n&fmt=png&od=1&shading=hill&pp=16.520056,80.675102;dfp"
  },
  {
    "name": "Dr. Srinath Reddy Narahari",
    "address": "Ramesh Hospitals, Near Iti College, Machavaram, Vijayawada, Andhra Pradesh 520007",
    "phone": "Dr. Srinath Reddy Narahari",
    "hours": "Open· Closes 17:00",
    "image_url": "https://www.bing.com/maps/geoplat/REST/v1/Imagery/Map/RoadVibrant?ms=92,112&key=AnTcaqBi2ypp0xI-OZNi4W_ik2KhjgpqioTAtXLC8GzkMBQRMlyxvxyTnd5b73im&c=en-US&ur=in&da=n&logo=n&fmt=png&od=1&shading=hill&pp=16.505699,80.660103;dfp"
  },
  {
    "name": "Dr. Ch Manoj Kumar",
    "address": "NH-5, Soumya Nagar, Vijayawada, Andhra Pradesh",
    "phone": "Dr. Ch Manoj Kumar",
    "hours": "Closed· Opens 11:00",
    "image_url": "https://www.bing.com/maps/geoplat/REST/v1/Imagery/Map/RoadVibrant?ms=92,112&key=AnTcaqBi2ypp0xI-OZNi4W_ik2KhjgpqioTAtXLC8GzkMBQRMlyxvxyTnd5b73im&c=en-US&ur=in&da=n&logo=n&fmt=png&od=1&shading=hill&pp=16.520056,80.675102;dfp"
  },
  {
    "name": "Dr. Ravi Chowdary",
    "address": "Communist Bazar, Challapalli, Krishna, Andhra Pradesh",
    "phone": "Dr. Ravi Chowdary",
    "hours": "Closed· Opens 13:00",
    "image_url": null
  }
]