[
  {
    "name": "Dr. Ab khaliq sheikh | General Surgeon | Sunrise polyclinic baber lane kupwara",
    "address": "Sunrise Polyclinic Baber Lane Kupwara, Kupwara, Jammu and Kashmir, India, 193222, Kupwara, Madhya …",
    "phone": "Dr. Ab khaliq sheikh | General Surgeon | Sunrise polyclinic baber lane kupwara",
    "hours": "Closed· Opens Wed 09:30",
    "image_url": "/th?id=OLC.Uw7lfR1YFq014A480x360&w=92&h=134&c=8&rs=1&qlt=80&cdv=1&pid=Local"
  },
  {
    "name": "Ibne_sena Diagnostics And Imaging Center",
    "address": "Iqbal Market, Kupwara Tregam Road, Kupwara 193222",
    "phone": "Ibne_sena Diagnostics And Imaging Center",
    "hours": null,
    "image_url": "/th?id=OLC.fjpZKeRwQdh01A480x360&w=92&h=112&c=8&rs=1&qlt=80&cdv=1&pid=Local"
  },
  {
    "name": "Dr Lal PathLabs - Patient Service Centre",
    "address": "Shop No 2, Ground Floor, Handwara, Kupwara 193221",
    "phone": "Dr Lal PathLabs - Patient Service Centre",
    "hours": "Open· Closes 19:00",
    "image_url": "https://www.bing.com/maps/geoplat/REST/v1/Imagery/Map/RoadVibrant?ms=92,134&key=AnTcaqBi2ypp0xI-OZNi4W_ik2KhjgpqioTAtXLC8GzkMBQRMlyxvxyTnd5b73im&c=en-US&ur=in&da=n&logo=n&fmt=png&od=1&shading=hill&pp=34.399616,74.281746;dfp"
  },
  {
    "name": "Dr.Shah's Dental Clinic",
    "address": "Iqbal Market, Hospital Road, Near SDH, Kupwara",
    "phone": "Dr.Shah's Dental Clinic",
    "hours": null,
    "image_url": "https://www.bing.com/maps/geoplat/REST/v1/Imagery/Map/RoadVibrant?ms=92,112&key=AnTcaqBi2ypp0xI-OZNi4W_ik2KhjgpqioTAtXLC8GzkMBQRMlyxvxyTnd5b73im&c=en-US&ur=in&da=n&logo=n&fmt=png&od=1&shading=hill&pp=34.524601,74.259598;dfp"
  },
  {
    "name": "DR. Arjumand's Dental Clinic",
    "address": "Near Sdh Kupwara, Hospital Road, Kupwara 193222",
    "phone": "DR. Arjumand's Dental Clinic",
    "hours": null,
    "image_url": "https://www.bing.com/maps/geoplat/REST/v1/Imagery/Map/RoadVibrant?ms=92,112&key=AnTcaqBi2ypp0xI-OZNi4W_ik2KhjgpqioTAtXLC8GzkMBQRMlyxvxyTnd5b73im&c=en-US&ur=in&da=n&logo=n&fmt=png&od=1&shading=hill&pp=34.535908,74.269989;dfp"
  }
]