[
  {
    "name": "Dr. Vijay Mohan Gummalla",
    "address": "Shop Number 3, Venkata Ramana Colony Road, Kurnool, Andhra Pradesh",
    "phone": "Dr. Vijay Mohan Gummalla",
    "hours": "Open· Closes 14:00",
    "image_url": "/th?id=OLC.PStDJNAabTAgSA480x360&w=92&h=112&c=8&rs=1&qlt=80&cdv=1&pid=Local"
  },
  {
    "name": "Dr",
    "address": "Shop No 106 107 New Bus Stand Road, Kurnool, Andhra Pradesh 518003",
    "phone": "Dr",
    "hours": null,
    "image_url": "https://www.bing.com/maps/geoplat/REST/v1/Imagery/Map/RoadVibrant?ms=92,112&key=AnTcaqBi2ypp0xI-OZNi4W_ik2KhjgpqioTAtXLC8GzkMBQRMlyxvxyTnd5b73im&c=en-US&ur=in&da=n&logo=n&fmt=png&od=1&shading=hill&pp=15.830454,78.040192;dfp"
  },
  {
    "name": "Dr. Am Reddy",
    "address": "Main Road, Narasimha Rao Peta, Kurnool, Andhra Pradesh 518004",
    "phone": "Dr. Am Reddy",
    "hours": "Opens in 8 mins",
    "image_url": "/th?id=OLC.LZuzlwqP87CXYQ480x360&w=92&h=112&c=8&rs=1&qlt=80&cdv=1&pid=Local"
  },
  {
    "name": "Dr Sarayu Reddy Sankepally - Best General Physician",
    "address": "Sy. No. 419/B2, Near Apsrtc Bus Stand, Sampath Nagar, Kurnool, Andhra Pradesh",
    "phone": "Dr Sarayu Reddy Sankepally - Best General Physician",
    "hours": null,
    "image_url": "https://www.bing.com/maps/geoplat/REST/v1/Imagery/Map/RoadVibrant?ms=92,112&key=AnTcaqBi2ypp0xI-OZNi4W_ik2KhjgpqioTAtXLC8GzkMBQRMlyxvxyTnd5b73im&c=en-US&ur=in&da=n&logo=n&fmt=png&od=1&shading=hill&pp=15.823648,78.023766;dfp"
  },
  {
    "name": "Medicover Hospitals Kurnool | Best Hospitals",
    "address": "Sy. No. 419/B2, Near Apsrtc Bus Stand, Sampath Nagar, Kurnool, Andhra Pradesh 518003",
    "phone": "Medicover Hospitals Kurnool | Best Hospitals",
    "hours": "Open 24 hours",
    "image_url": "/th?id=OLC.nric0ggAvuIyjw480x360&w=92&h=134&c=8&rs=1&qlt=80&cdv=1&pid=Local"
  },
  {
    "name": "Dr. Chaitanya Kumar N",
    "address": "43/238 NVR Plaza, Sankal Bagh, Kothapeta, Kurnool, Andhra Pradesh",
    "phone": "Dr. Chaitanya Kumar N",
    "hours": "Closed· Opens 18:30",
    "image_url": "https://www.bing.com/maps/geoplat/REST/v1/Imagery/Map/RoadVibrant?ms=92,112&key=AnTcaqBi2ypp0xI-OZNi4W_ik2KhjgpqioTAtXLC8GzkMBQRMlyxvxyTnd5b73im&c=en-US&ur=in&da=n&logo=n&fmt=png&od=1&shading=hill&pp=15.838928,78.041962;dfp"
  },
  {
    "name": "Dr A Srujana - Rheumatologist",
    "address": "Sy No 419 B2, Near Apsrtc Bus Stand Sampath Nagar, Kurnool 518003",
    "phone": "Dr A Srujana - Rheumatologist",
    "hours": "Open· Closes 17:00",
    "image_url": "https://www.bing.com/maps/geoplat/REST/v1/Imagery/Map/RoadVibrant?ms=92,134&key=AnTcaqBi2ypp0xI-OZNi4W_ik2KhjgpqioTAtXLC8GzkMBQRMlyxvxyTnd5b73im&c=en-US&ur=in&da=n&logo=n&fmt=png&od=1&shading=hill&pp=15.824656,78.032303;dfp"
  },
  {
    "name": "Dr. Haricharan Perigela",
    "address": "51/916-B-86-C, SVR Complex, Kurnool, Andhra Pradesh",
    "phone": "Dr. Haricharan Perigela",
    "hours": "Closed· Opens 16:00",
    "image_url": null
  },
  {
    "name": "Dr Diguvinti Sreeramulu",
    "address": "Gayathri Estate, Kurnool, Andhra Pradesh, India, 518001, Kurnool, Madhya Pradesh 518001",
    "phone": "Dr Diguvinti Sreeramulu",
    "hours": "Open· Closes 18:00",
    "image_url": null
  },
  {
    "name": "Dr N Chaitanya Kumar | Best Cardiologist",
    "address": "Medicover Hospital, Near Apsrtc Bus Stand, Sampath Nagar, Kurnool, Telangana",
    "phone": "Dr N Chaitanya Kumar | Best Cardiologist",
    "hours": "Open· Closes 17:00",
    "image_url": "https://www.bing.com/maps/geoplat/REST/v1/Imagery/Map/RoadVibrant?ms=92,112&key=AnTcaqBi2ypp0xI-OZNi4W_ik2KhjgpqioTAtXLC8GzkMBQRMlyxvxyTnd5b73im&c=en-US&ur=in&da=n&logo=n&fmt=png&od=1&shading=hill&pp=15.824656,78.032303;dfp"
  },
  {
    "name": "Kanishka clinic",
    "address": "Gayathri Estates, Kurnool, Andhra Pradesh 518002",
    "phone": "Kanishka clinic",
    "hours": null,
    "image_url": null
  },
  {
    "name": "Dr. G. Sree Hari Reddy",
    "address": "46/93-35-1, Budhawarpet, Kurnool, Andhra Pradesh",
    "phone": "Dr. G. Sree Hari Reddy",
    "hours": "Open· Closes 12:00",
    "image_url": null
  },
  {
    "name": "Dr. H. Abdul Naveed",
    "address": "No.27-28, Kurnool, Andhra Pradesh",
    "phone": "Dr. H. Abdul Naveed",
    "hours": "Open· Closes 14:00",
    "image_url": null
  },
  {
    "name": "Dr. K. Rafiq Ahamed",
    "address": "One Town Road, 1 Town Kurnool, Kurnool, Andhra Pradesh 518001",
    "phone": "Dr. K. Rafiq Ahamed",
    "hours": "Closed· Opens 11:00",
    "image_url": "https://www.bing.com/maps/geoplat/REST/v1/Imagery/Map/RoadVibrant?ms=92,112&key=AnTcaqBi2ypp0xI-OZNi4W_ik2KhjgpqioTAtXLC8GzkMBQRMlyxvxyTnd5b73im&c=en-US&ur=in&da=n&logo=n&fmt=png&od=1&shading=hill&pp=15.825006,78.051422;dfp"
  },
  {
    "name": "Dr. A.M. Iliyas Basha",
    "address": "46/93-35-1, Budhawarpet, Kurnool, Andhra Pradesh",
    "phone": "Dr. A.M. Iliyas Basha",
    "hours": "Open· Closes 12:00",
    "image_url": null
  },
  {
    "name": "Dr. Mohan's Diabetes Specialities Centre",
    "address": "No 46/95, First Floor, Budhvarpeta Main Road, Opp to KMC, Kurnool, Andhra Pradesh 518002",
    "phone": "Dr. Mohan's Diabetes Specialities Centre",
    "hours": "Open· Closes 16:30",
    "image_url": null
  },
  {
    "name": "Sisuraksha children's clinic",
    "address": "Near big Bazaar, Nandyal, Road, Kurnool, Andhra Pradesh",
    "phone": "Sisuraksha children's clinic",
    "hours": null,
    "image_url": "https://www.bing.com/maps/geoplat/REST/v1/Imagery/Map/RoadVibrant?ms=92,112&key=AnTcaqBi2ypp0xI-OZNi4W_ik2KhjgpqioTAtXLC8GzkMBQRMlyxvxyTnd5b73im&c=en-US&ur=in&da=n&logo=n&fmt=png&od=1&shading=hill&pp=15.82216,78.041046;dfp"
  },
  {
    "name": "Siva Sai Ram Clinic",
    "address": "Industrial Estate Road, Mandala Parishad Adharshya Primary School, Kurnool, Andhra Pradesh 518003",
    "phone": "Siva Sai Ram Clinic",
    "hours": null,
    "image_url": "https://www.bing.com/maps/geoplat/REST/v1/Imagery/Map/RoadVibrant?ms=92,112&key=AnTcaqBi2ypp0xI-OZNi4W_ik2KhjgpqioTAtXLC8GzkMBQRMlyxvxyTnd5b73im&c=en-US&ur=in&da=n&logo=n&fmt=png&od=1&shading=hill&pp=15.797452,78.020157;dfp"
  }
]