[
  {
    "name": "Dr. Sumit Saini (Aarogya clinic)",
    "address": "Indri Road, Near Govt School, Umri Town, Kurukshetra, Haryana 136131",
    "phone": "Dr. Sumit Saini (Aarogya clinic)",
    "hours": "Open· Closes 14:00",
    "image_url": "/th?id=OLC.6tmUKO%2brGDQlWg480x360&w=92&h=134&c=8&rs=1&qlt=80&cdv=1&pid=Local"
  },
  {
    "name": "Dr. Maratha Clinic",
    "address": "Pehowa Road, Near Theme Park, Dukh Bhanjan Colony, Kurukshetra, Thanesar, Haryana",
    "phone": "Dr. Maratha Clinic",
    "hours": null,
    "image_url": "https://www.bing.com/maps/geoplat/REST/v1/Imagery/Map/RoadVibrant?ms=92,112&key=AnTcaqBi2ypp0xI-OZNi4W_ik2KhjgpqioTAtXLC8GzkMBQRMlyxvxyTnd5b73im&c=en-US&ur=in&da=n&logo=n&fmt=png&od=1&shading=hill&pp=29.959846,76.771286;dfp"
  },
  {
    "name": "Dr. Ashwani Kumar Mehra",
    "address": "SCO-Ground Floor, Opp. Sec 7 Bus Stop, Pipli Road, Near Raashanwala, Kurukshetra, Haryana",
    "phone": "Dr. Ashwani Kumar Mehra",
    "hours": null,
    "image_url": "https://www.bing.com/maps/geoplat/REST/v1/Imagery/Map/RoadVibrant?ms=92,112&key=AnTcaqBi2ypp0xI-OZNi4W_ik2KhjgpqioTAtXLC8GzkMBQRMlyxvxyTnd5b73im&c=en-US&ur=in&da=n&logo=n&fmt=png&od=1&shading=hill&pp=29.976299,76.8927;dfp"
  },
  {
    "name": "Dr. Manoj Khurana laparoscopic Gall bladder stone, Hernia & Bariatric Surgeon",
    "address": "Behind old bus Stand, Jyoti Nagar, Kurukshetra, Haryana",
    "phone": "Dr. Manoj Khurana laparoscopic Gall bladder stone, Hernia & Bariatric Surgeon",
    "hours": null,
    "image_url": "https://www.bing.com/maps/geoplat/REST/v1/Imagery/Map/RoadVibrant?ms=92,112&key=AnTcaqBi2ypp0xI-OZNi4W_ik2KhjgpqioTAtXLC8GzkMBQRMlyxvxyTnd5b73im&c=en-US&ur=in&da=n&logo=n&fmt=png&od=1&shading=hill&pp=29.972521,76.838028;dfp"
  },
  {
    "name": "Kapil Clinic",
    "address": "841, Sector 7, Kurukshetra, Haryana, Haryana 136118",
    "phone": "Kapil Clinic",
    "hours": "Open· Closes 20:00",
    "image_url": "/th?id=OLC.G8INjDxcji%2bReg480x360&w=92&h=134&c=8&rs=1&qlt=80&cdv=1&pid=Local"
  },
  {
    "name": "SHARMA clinic.",
    "address": "Vill Jhansa, Distt Kurukshetra, Haryana",
    "phone": "SHARMA clinic.",
    "hours": null,
    "image_url": "https://www.bing.com/maps/geoplat/REST/v1/Imagery/Map/RoadVibrant?ms=92,112&key=AnTcaqBi2ypp0xI-OZNi4W_ik2KhjgpqioTAtXLC8GzkMBQRMlyxvxyTnd5b73im&c=en-US&ur=in&da=n&logo=n&fmt=png&od=1&shading=hill&pp=29.966042,76.819885;dfp"
  },
  {
    "name": "Aastha Clinic",
    "address": "Shop No. 173, Sector-3, Kurukshetra, Haryana 136118",
    "phone": "Aastha Clinic",
    "hours": "Open· Closes 13:00",
    "image_url": null
  },
  {
    "name": "DR Jain Neurocare and Multi-speciality Hospital",
    "address": "Anand Orthopaedic Centre, Opposite Theme Park, Kurukshetra, Haryana, Haryana 136118",
    "phone": "DR Jain Neurocare and Multi-speciality Hospital",
    "hours": "Open· Closes 07:00",
    "image_url": null
  },
  {
    "name": "गुप्त रोग विशेषज्ञ | Hero Clinic | Kurukshetra",
    "address": "1St Floor, Aggarsain Chowk, Mohan Nagar, Kurukshetra, Haryana 136118",
    "phone": "गुप्त रोग विशेषज्ञ | Hero Clinic | Kurukshetra",
    "hours": null,
    "image_url": "https://www.bing.com/maps/geoplat/REST/v1/Imagery/Map/RoadVibrant?ms=92,112&key=AnTcaqBi2ypp0xI-OZNi4W_ik2KhjgpqioTAtXLC8GzkMBQRMlyxvxyTnd5b73im&c=en-US&ur=in&da=n&logo=n&fmt=png&od=1&shading=hill&pp=29.973585,76.855827;dfp"
  },
  {
    "name": "Bs Heartcare and Multispeciality Hospital",
    "address": "Opp. New Bus Stand, Pipli Road, Kurukshetra, Haryana 136118",
    "phone": "Bs Heartcare and Multispeciality Hospital",
    "hours": "Open 24 hours",
    "image_url": null
  },
  {
    "name": "Chhabra Clinic",
    "address": "Sector 13, Kurukshetra, Haryana",
    "phone": "Chhabra Clinic",
    "hours": null,
    "image_url": "https://www.bing.com/maps/geoplat/REST/v1/Imagery/Map/RoadVibrant?ms=92,112&key=AnTcaqBi2ypp0xI-OZNi4W_ik2KhjgpqioTAtXLC8GzkMBQRMlyxvxyTnd5b73im&c=en-US&ur=in&da=n&logo=n&fmt=png&od=1&shading=hill&pp=29.970547,76.859612;dfp"
  },
  {
    "name": "Dr. Daksh Khurana",
    "address": "Thanesar Town, Kurukshetra, Haryana",
    "phone": "Dr. Daksh Khurana",
    "hours": null,
    "image_url": "https://www.bing.com/maps/geoplat/REST/v1/Imagery/Map/RoadVibrant?ms=92,112&key=AnTcaqBi2ypp0xI-OZNi4W_ik2KhjgpqioTAtXLC8GzkMBQRMlyxvxyTnd5b73im&c=en-US&ur=in&da=n&logo=n&fmt=png&od=1&shading=hill&pp=29.966183,76.841255;dfp"
  },
  {
    "name": "Dr Anuj, Bal Shalya Chikitsak - Ped Surgeon",
    "address": "Radha Kishan Hospital, Red Road, Kurukshetra, Haryana, Haryana 136118",
    "phone": "Dr Anuj, Bal Shalya Chikitsak - Ped Surgeon",
    "hours": null,
    "image_url": null
  },
  {
    "name": "Shree Guru Kripa Endocrine Clinic",
    "address": "House No 634P, Thanesar, Sector\\2, Near Op Jindal Chowk, Kurukshetra, Haryana 136118",
    "phone": "Shree Guru Kripa Endocrine Clinic",
    "hours": null,
    "image_url": null
  },
  {
    "name": "Dr. Pankaj Gupta",
    "address": "House Number-143, Sector 7, Kurukshetra, Haryana",
    "phone": "Dr. Pankaj Gupta",
    "hours": "Open· Closes 13:15",
    "image_url": null
  },
  {
    "name": "Singla Clinic",
    "address": "Nand Colony, Nh65 Kaithal Ambala Road, Pehowa, Haryana 136128",
    "phone": "Singla Clinic",
    "hours": null,
    "image_url": "https://www.bing.com/maps/geoplat/REST/v1/Imagery/Map/RoadVibrant?ms=92,112&key=AnTcaqBi2ypp0xI-OZNi4W_ik2KhjgpqioTAtXLC8GzkMBQRMlyxvxyTnd5b73im&c=en-US&ur=in&da=n&logo=n&fmt=png&od=1&shading=hill&pp=29.980362,76.584183;dfp"
  },
  {
    "name": "DR.Chopra Homoepathic Clinic Kurukshetra",
    "address": "S\\O Puran Singh, H.No 697 Shastri Nager Thanesar, H.No 697 Shastri Nager, Thanesar, Shastri Nager, Kur…",
    "phone": "DR.Chopra Homoepathic Clinic Kurukshetra",
    "hours": null,
    "image_url": "https://www.bing.com/maps/geoplat/REST/v1/Imagery/Map/RoadVibrant?ms=92,112&key=AnTcaqBi2ypp0xI-OZNi4W_ik2KhjgpqioTAtXLC8GzkMBQRMlyxvxyTnd5b73im&c=en-US&ur=in&da=n&logo=n&fmt=png&od=1&shading=hill&pp=29.970093,76.837105;dfp"
  },
  {
    "name": "CareWell Homoeo Clinic",
    "address": "Urban Estate, Sector 7, Kurukshetra, Haryana 136118, India, Kurukshetra, Haryana, Haryana 136118",
    "phone": "CareWell Homoeo Clinic",
    "hours": null,
    "image_url": null
  }
]