[
  {
    "name": "Dr. Paras Nath Gupta- General Physician",
    "address": "Ananda Hospital, Sirsia Pakwainar, Kushinagar, Uttar Pradesh 274403",
    "phone": "Dr. Paras Nath Gupta- General Physician",
    "hours": "Opens in 8 mins",
    "image_url": "https://www.bing.com/maps/geoplat/REST/v1/Imagery/Map/RoadVibrant?ms=92,134&key=AnTcaqBi2ypp0xI-OZNi4W_ik2KhjgpqioTAtXLC8GzkMBQRMlyxvxyTnd5b73im&c=en-US&ur=in&da=n&logo=n&fmt=png&od=1&shading=hill&pp=26.741695,83.884964;dfp"
  },
  {
    "name": "Dr. Yogeshwar Madheshia- Consultant Physician",
    "address": "Hitaishi Hospital, Kasia- Gorakhpur Rd, 300Mtr West From Bus Stand, Kushinagar, Uttar Pradesh 274402",
    "phone": "Dr. Yogeshwar Madheshia- Consultant Physician",
    "hours": "Open· Closes 19:00",
    "image_url": "https://www.bing.com/maps/geoplat/REST/v1/Imagery/Map/RoadVibrant?ms=92,134&key=AnTcaqBi2ypp0xI-OZNi4W_ik2KhjgpqioTAtXLC8GzkMBQRMlyxvxyTnd5b73im&c=en-US&ur=in&da=n&logo=n&fmt=png&od=1&shading=hill&pp=26.749258,83.904449;dfp"
  },
  {
    "name": "Natural Health Clinic",
    "address": "Buddha Marg, Post Office Kushinagar, Kushinagar, Uttar Pradesh 274403",
    "phone": "Natural Health Clinic",
    "hours": null,
    "image_url": "https://www.bing.com/maps/geoplat/REST/v1/Imagery/Map/RoadVibrant?ms=92,112&key=AnTcaqBi2ypp0xI-OZNi4W_ik2KhjgpqioTAtXLC8GzkMBQRMlyxvxyTnd5b73im&c=en-US&ur=in&da=n&logo=n&fmt=png&od=1&shading=hill&pp=26.741379,83.889198;dfp"
  },
  {
    "name": "Dr R S YADAV MD Internal Medicine",
    "address": "Pulse Hospital, Sapha Road, Kasia, Kasia, Kushinagar, Uttar Pradesh 274402",
    "phone": "Dr R S YADAV MD Internal Medicine",
    "hours": "Open· Closes 14:00",
    "image_url": "https://www.bing.com/maps/geoplat/REST/v1/Imagery/Map/RoadVibrant?ms=92,134&key=AnTcaqBi2ypp0xI-OZNi4W_ik2KhjgpqioTAtXLC8GzkMBQRMlyxvxyTnd5b73im&c=en-US&ur=in&da=n&logo=n&fmt=png&od=1&shading=hill&pp=26.749887,83.909554;dfp"
  },
  {
    "name": "Dr. Bhawana Gupta- Obstetrician & Gynecologist",
    "address": "Hitaishi Hospital, 28B, Kasia - Gorakhpur Rd, Kushinagar, Uttar Pradesh 274402",
    "phone": "Dr. Bhawana Gupta- Obstetrician & Gynecologist",
    "hours": "Open· Closes 15:00",
    "image_url": "https://www.bing.com/maps/geoplat/REST/v1/Imagery/Map/RoadVibrant?ms=92,134&key=AnTcaqBi2ypp0xI-OZNi4W_ik2KhjgpqioTAtXLC8GzkMBQRMlyxvxyTnd5b73im&c=en-US&ur=in&da=n&logo=n&fmt=png&od=1&shading=hill&pp=26.749487,83.906326;dfp"
  },
  {
    "name": "Dr J K Patel",
    "address": "Ramkola Road, Nagar Palika Parishad Kushinagar, Kasia Bazar, Kasia Kushinagar, Uttar Pradesh 274308",
    "phone": "Dr J K Patel",
    "hours": null,
    "image_url": "https://www.bing.com/maps/geoplat/REST/v1/Imagery/Map/RoadVibrant?ms=92,112&key=AnTcaqBi2ypp0xI-OZNi4W_ik2KhjgpqioTAtXLC8GzkMBQRMlyxvxyTnd5b73im&c=en-US&ur=in&da=n&logo=n&fmt=png&od=1&shading=hill&pp=26.743797,83.916847;dfp"
  },
  {
    "name": "Anushka Life Care Clinic",
    "address": "Near Navin Sabji Mandi Kasya Padrauna Kasya Road, Kushinagar, Uttar Pradesh 274402",
    "phone": "Anushka Life Care Clinic",
    "hours": null,
    "image_url": "https://www.bing.com/maps/geoplat/REST/v1/Imagery/Map/RoadVibrant?ms=92,112&key=AnTcaqBi2ypp0xI-OZNi4W_ik2KhjgpqioTAtXLC8GzkMBQRMlyxvxyTnd5b73im&c=en-US&ur=in&da=n&logo=n&fmt=png&od=1&shading=hill&pp=26.749617,83.903038;dfp"
  },
  {
    "name": "Dr Gaurav",
    "address": "Ramkola Road, Hanuman Mandir Mukhya Dwar, Kasia Bazar, Kasia Kushinagar, Uttar Pradesh 274308",
    "phone": "Dr Gaurav",
    "hours": null,
    "image_url": "https://www.bing.com/maps/geoplat/REST/v1/Imagery/Map/RoadVibrant?ms=92,112&key=AnTcaqBi2ypp0xI-OZNi4W_ik2KhjgpqioTAtXLC8GzkMBQRMlyxvxyTnd5b73im&c=en-US&ur=in&da=n&logo=n&fmt=png&od=1&shading=hill&pp=26.746786,83.915924;dfp"
  },
  {
    "name": "Dr Lk Gupta Clinic",
    "address": "Padrona Road Kasia, Kasia, Uttar Pradesh 274402",
    "phone": "Dr Lk Gupta Clinic",
    "hours": null,
    "image_url": "https://www.bing.com/maps/geoplat/REST/v1/Imagery/Map/RoadVibrant?ms=92,112&key=AnTcaqBi2ypp0xI-OZNi4W_ik2KhjgpqioTAtXLC8GzkMBQRMlyxvxyTnd5b73im&c=en-US&ur=in&da=n&logo=n&fmt=png&od=1&shading=hill&pp=26.740746,83.915527;dfp"
  },
  {
    "name": "Qazi Poly Clinic",
    "address": "Sapaha Road, Tahsil Kasia, Kasia Bazar, Kasia Kushinagar, Uttar Pradesh 274308",
    "phone": "Qazi Poly Clinic",
    "hours": null,
    "image_url": "https://www.bing.com/maps/geoplat/REST/v1/Imagery/Map/RoadVibrant?ms=92,112&key=AnTcaqBi2ypp0xI-OZNi4W_ik2KhjgpqioTAtXLC8GzkMBQRMlyxvxyTnd5b73im&c=en-US&ur=in&da=n&logo=n&fmt=png&od=1&shading=hill&pp=26.750267,83.912697;dfp"
  },
  {
    "name": "Dr Shubh Lal Ortho Clinic",
    "address": "28b, Kasia - Gorakhpur Rd, Kushinagar, Uttar Pradesh 274402, India, Uttar Pradesh 274402",
    "phone": "Dr Shubh Lal Ortho Clinic",
    "hours": null,
    "image_url": "https://www.bing.com/maps/geoplat/REST/v1/Imagery/Map/RoadVibrant?ms=92,112&key=AnTcaqBi2ypp0xI-OZNi4W_ik2KhjgpqioTAtXLC8GzkMBQRMlyxvxyTnd5b73im&c=en-US&ur=in&da=n&logo=n&fmt=png&od=1&shading=hill&pp=26.747501,83.902489;dfp"
  },
  {
    "name": "Dr. AK Pandey Hospital",
    "address": "Kasia - NH 28, Deoria Rd, Kasia Bazaar, Uttar Pradesh",
    "phone": "Dr. AK Pandey Hospital",
    "hours": null,
    "image_url": "https://www.bing.com/maps/geoplat/REST/v1/Imagery/Map/RoadVibrant?ms=92,112&key=AnTcaqBi2ypp0xI-OZNi4W_ik2KhjgpqioTAtXLC8GzkMBQRMlyxvxyTnd5b73im&c=en-US&ur=in&da=n&logo=n&fmt=png&od=1&shading=hill&pp=26.76124,83.915337;dfp"
  },
  {
    "name": "New Clinic",
    "address": "Padrona Road, Kasia, Uttar Pradesh 274402",
    "phone": "New Clinic",
    "hours": null,
    "image_url": "https://www.bing.com/maps/geoplat/REST/v1/Imagery/Map/RoadVibrant?ms=92,112&key=AnTcaqBi2ypp0xI-OZNi4W_ik2KhjgpqioTAtXLC8GzkMBQRMlyxvxyTnd5b73im&c=en-US&ur=in&da=n&logo=n&fmt=png&od=1&shading=hill&pp=26.742233,83.920723;dfp"
  },
  {
    "name": "Dr. Rana",
    "address": "NH 28 B, Kasia Kushinagar, Opposite Budha Hotel, Kotwa, Uttar Pradesh 274206",
    "phone": "Dr. Rana",
    "hours": "Open· Closes 20:25",
    "image_url": null
  },
  {
    "name": "Hitaishi Clinic",
    "address": "Gorakhpur Road, Kasia, Kushinagar, Uttar Pradesh 274402",
    "phone": "Hitaishi Clinic",
    "hours": null,
    "image_url": "https://www.bing.com/maps/geoplat/REST/v1/Imagery/Map/RoadVibrant?ms=92,112&key=AnTcaqBi2ypp0xI-OZNi4W_ik2KhjgpqioTAtXLC8GzkMBQRMlyxvxyTnd5b73im&c=en-US&ur=in&da=n&logo=n&fmt=png&od=1&shading=hill&pp=26.776997,83.89856;dfp"
  },
  {
    "name": "Dr. Bhawana Gupta- MD, Medicine",
    "address": "Hitaishi Hospital, Gorakhpur Road, 300Mtr West From Bus Stand, Toward Gorakhpur Road, Kushinagar, Utta…",
    "phone": "Dr. Bhawana Gupta- MD, Medicine",
    "hours": "Open· Closes 15:00",
    "image_url": "https://www.bing.com/maps/geoplat/REST/v1/Imagery/Map/RoadVibrant?ms=92,134&key=AnTcaqBi2ypp0xI-OZNi4W_ik2KhjgpqioTAtXLC8GzkMBQRMlyxvxyTnd5b73im&c=en-US&ur=in&da=n&logo=n&fmt=png&od=1&shading=hill&pp=26.749077,83.657318;dfp"
  },
  {
    "name": "Shankar Pathology",
    "address": "IN Front OF CHC Hospital Main Road Kasia, Kasia, Kushinagar, Uttar Pradesh 274402",
    "phone": "Shankar Pathology",
    "hours": null,
    "image_url": "https://www.bing.com/maps/geoplat/REST/v1/Imagery/Map/RoadVibrant?ms=92,112&key=AnTcaqBi2ypp0xI-OZNi4W_ik2KhjgpqioTAtXLC8GzkMBQRMlyxvxyTnd5b73im&c=en-US&ur=in&da=n&logo=n&fmt=png&od=1&shading=hill&pp=26.744783,83.916794;dfp"
  }
]