[
  {
    "name": "Dr Das Hospital and Diagnostic Centre",
    "address": "Ward No 1, Nakari, Nakari Road, Lakhimpur, Assam 787001",
    "phone": "Dr Das Hospital and Diagnostic Centre",
    "hours": "Open· Closes 20:00",
    "image_url": "/th?id=OLC.G649Z9Fbl8ye1Q480x360&w=92&h=134&c=8&rs=1&qlt=80&cdv=1&pid=Local"
  },
  {
    "name": "Dr. Sahidur Rahman | General Medicine | First Care Medical",
    "address": "First Care Medical, Angarkhuwa, Dhakua Khania, Assam, India, 787052, Dhakua Khania, Madhya Pradesh 787052",
    "phone": "Dr. Sahidur Rahman | General Medicine | First Care Medical",
    "hours": "Open· Closes 21:00",
    "image_url": "/th?id=OLC.LJdjfVtmvHD8og480x360&w=92&h=134&c=8&rs=1&qlt=80&cdv=1&pid=Local"
  },
  {
    "name": "DR. Amiya's Healthcare",
    "address": "C/O DR Amiya Kachari KB Road WNO 12 Near SBI Angarkhowa Branch, N Orth, Lakhimpur, Assam 787001",
    "phone": "DR. Amiya's Healthcare",
    "hours": null,
    "image_url": "https://www.bing.com/maps/geoplat/REST/v1/Imagery/Map/RoadVibrant?ms=92,112&key=AnTcaqBi2ypp0xI-OZNi4W_ik2KhjgpqioTAtXLC8GzkMBQRMlyxvxyTnd5b73im&c=en-US&ur=in&da=n&logo=n&fmt=png&od=1&shading=hill&pp=27.23542,94.111008;dfp"
  },
  {
    "name": "Dr Dutta's Homoeopathic Clinic",
    "address": "Gopinagar. Ward no - 10, PO - North Lakhimpur, Dist - Lakhimpur. Pin - 787001. ( Assam ), North Lakhimpur, …",
    "phone": "Dr Dutta's Homoeopathic Clinic",
    "hours": "Open· Closes 18:00",
    "image_url": "/th?id=OLC.%2bOoBM2iIIvqmPQ480x360&w=92&h=134&c=8&rs=1&qlt=80&cdv=1&pid=Local"
  },
  {
    "name": "Dr Mangseng Clinic",
    "address": "Lakhimpur, North Lakhimpur, Assam 787001",
    "phone": "Dr Mangseng Clinic",
    "hours": null,
    "image_url": "https://www.bing.com/maps/geoplat/REST/v1/Imagery/Map/RoadVibrant?ms=92,112&key=AnTcaqBi2ypp0xI-OZNi4W_ik2KhjgpqioTAtXLC8GzkMBQRMlyxvxyTnd5b73im&c=en-US&ur=in&da=n&logo=n&fmt=png&od=1&shading=hill&pp=27.241518,94.106209;dfp"
  },
  {
    "name": "Bornil Clinic",
    "address": "Ward No 2, Nakari, North Lakhimpur, Lakhimpur, Assam 787001",
    "phone": "Bornil Clinic",
    "hours": null,
    "image_url": "https://www.bing.com/maps/geoplat/REST/v1/Imagery/Map/RoadVibrant?ms=92,112&key=AnTcaqBi2ypp0xI-OZNi4W_ik2KhjgpqioTAtXLC8GzkMBQRMlyxvxyTnd5b73im&c=en-US&ur=in&da=n&logo=n&fmt=png&od=1&shading=hill&pp=27.23542,94.111008;dfp"
  },
  {
    "name": "Dr Nishant Rajkakoti",
    "address": "Dr. Das Diagnostics, Ward No. 3, Nakari, North Lakhimpur, Assam, Assam 787001",
    "phone": "Dr Nishant Rajkakoti",
    "hours": null,
    "image_url": "https://www.bing.com/maps/geoplat/REST/v1/Imagery/Map/RoadVibrant?ms=92,112&key=AnTcaqBi2ypp0xI-OZNi4W_ik2KhjgpqioTAtXLC8GzkMBQRMlyxvxyTnd5b73im&c=en-US&ur=in&da=n&logo=n&fmt=png&od=1&shading=hill&pp=27.276449,94.109726;dfp"
  },
  {
    "name": "Patanjali Chikitsalaya",
    "address": "NT Road, North Lakhimpur, Assam 787001",
    "phone": "Patanjali Chikitsalaya",
    "hours": "Open· Closes 21:00",
    "image_url": "https://www.bing.com/maps/geoplat/REST/v1/Imagery/Map/RoadVibrant?ms=92,134&key=AnTcaqBi2ypp0xI-OZNi4W_ik2KhjgpqioTAtXLC8GzkMBQRMlyxvxyTnd5b73im&c=en-US&ur=in&da=n&logo=n&fmt=png&od=1&shading=hill&pp=27.234266,94.102814;dfp"
  },
  {
    "name": "Dr. Madhab Kumar Das",
    "address": "Thana Road, W/N-B, Opposite Sadar Thana, North Lakhimpur, Assam, India, 787001, North Lakhimpur, M…",
    "phone": "Dr. Madhab Kumar Das",
    "hours": "Closed· Opens 16:00",
    "image_url": null
  },
  {
    "name": "Dr Ranjan Bhuyan Clinic",
    "address": "Chaboti, North Lakhimpur, Assam 787001",
    "phone": "Dr Ranjan Bhuyan Clinic",
    "hours": null,
    "image_url": null
  },
  {
    "name": "Shuddhi Clinic By Guru Manish Ji - Best Ayurveda Doctor & Ayurvedic Treatment",
    "address": "K.B. Road, Ward No - 12, Nearby Bormuria Namghar, Distt North, North Lakhimpur, Assam 787001",
    "phone": "Shuddhi Clinic By Guru Manish Ji - Best Ayurveda Doctor & Ayurvedic Treatment",
    "hours": null,
    "image_url": null
  },
  {
    "name": "Lakhimpur Psychiatric & De-addiction Clinic",
    "address": "Nakari Road, Chowkham, Assam 787001, India, North Lakhimpur, Assam 787001",
    "phone": "Lakhimpur Psychiatric & De-addiction Clinic",
    "hours": null,
    "image_url": "https://www.bing.com/maps/geoplat/REST/v1/Imagery/Map/RoadVibrant?ms=92,112&key=AnTcaqBi2ypp0xI-OZNi4W_ik2KhjgpqioTAtXLC8GzkMBQRMlyxvxyTnd5b73im&c=en-US&ur=in&da=n&logo=n&fmt=png&od=1&shading=hill&pp=27.23542,94.111008;dfp"
  },
  {
    "name": "Bailey's Clinic",
    "address": "Ward NO.1, Nakari, North Lakhimpur, Airport Raod, Lakhimpur, Assam 787001",
    "phone": "Bailey's Clinic",
    "hours": null,
    "image_url": "https://www.bing.com/maps/geoplat/REST/v1/Imagery/Map/RoadVibrant?ms=92,112&key=AnTcaqBi2ypp0xI-OZNi4W_ik2KhjgpqioTAtXLC8GzkMBQRMlyxvxyTnd5b73im&c=en-US&ur=in&da=n&logo=n&fmt=png&od=1&shading=hill&pp=27.276762,94.105247;dfp"
  },
  {
    "name": "CLINIC At Bihpuria",
    "address": "Bodoti Road, Opposite HP oil Depot Marketing Complex, Bihpuria, Assam",
    "phone": "CLINIC At Bihpuria",
    "hours": null,
    "image_url": "https://www.bing.com/maps/geoplat/REST/v1/Imagery/Map/RoadVibrant?ms=92,112&key=AnTcaqBi2ypp0xI-OZNi4W_ik2KhjgpqioTAtXLC8GzkMBQRMlyxvxyTnd5b73im&c=en-US&ur=in&da=n&logo=n&fmt=png&od=1&shading=hill&pp=27.018,93.916496;dfp"
  },
  {
    "name": "Apollo Dialysis Clinics",
    "address": "North Lakhimpur Civil Hospital Lakhimpur, P.O: Sabati, Lakhimpur, Assam 787001",
    "phone": "Apollo Dialysis Clinics",
    "hours": "Open· Closes 21:00",
    "image_url": null
  }
]