[
  {
    "name": "Dr C.C Mohanan",
    "address": "Gautham, Near, Magistrate Ct Rd, Payyanur, Kerala",
    "phone": "Dr C.C Mohanan",
    "hours": null,
    "image_url": "/th?id=OLC.iH6Uv%2fubgIRy9w480x360&w=92&h=112&c=8&rs=1&qlt=80&cdv=1&pid=Local"
  },
  {
    "name": "Padma Homoeo Clinic",
    "address": "Near Bus Stand, Nada, Irinjalakuda, Kerala",
    "phone": "Padma Homoeo Clinic",
    "hours": null,
    "image_url": "/th?id=OLC.h4im27blSF6Zrg480x360&w=92&h=112&c=8&rs=1&qlt=80&cdv=1&pid=Local"
  },
  {
    "name": "Dr Rahees K",
    "address": "Minhans Homeopathy, Saaff Arcade, Koyilandy, Kerala, India, 673305, Kerala 673305",
    "phone": "Dr Rahees K",
    "hours": "Open· Closes 13:30",
    "image_url": "/th?id=OLC.68aoZ4k8SixYCQ480x360&w=92&h=134&c=8&rs=1&qlt=80&cdv=1&pid=Local"
  },
  {
    "name": "Dr. Rajashekar T S Consultant physician & Diabetologist",
    "address": "Indira Gandhi co-Operative Hospital, Manjody, Thalassery, Kerala 670103",
    "phone": "Dr. Rajashekar T S Consultant physician & Diabetologist",
    "hours": "Open· Closes 15:00",
    "image_url": "https://www.bing.com/maps/geoplat/REST/v1/Imagery/Map/RoadVibrant?ms=92,112&key=AnTcaqBi2ypp0xI-OZNi4W_ik2KhjgpqioTAtXLC8GzkMBQRMlyxvxyTnd5b73im&c=en-US&ur=in&da=n&logo=n&fmt=png&od=1&shading=hill&pp=11.74969,75.505829;clcp"
  },
  {
    "name": "Dr Haridas Verkot's Clinic",
    "address": "Chayyom Nileshwar Road, Chirapuram Autostand, Chirapuram, Hosdurg, Kerala 671314",
    "phone": "Dr Haridas Verkot's Clinic",
    "hours": null,
    "image_url": "https://www.bing.com/maps/geoplat/REST/v1/Imagery/Map/RoadVibrant?ms=92,112&key=AnTcaqBi2ypp0xI-OZNi4W_ik2KhjgpqioTAtXLC8GzkMBQRMlyxvxyTnd5b73im&c=en-US&ur=in&da=n&logo=n&fmt=png&od=1&shading=hill&pp=12.265453,75.135056;dfp"
  },
  {
    "name": "Wellcare Speciality Clinic",
    "address": "Near Town Juma Masjid, Trikaripur, Kerala 671310",
    "phone": "Wellcare Speciality Clinic",
    "hours": null,
    "image_url": "/th?id=OLC.HwxlX7mP7Za2fw480x360&w=92&h=112&c=8&rs=1&qlt=80&cdv=1&pid=Local"
  },
  {
    "name": "Dr. Sahla Hashim",
    "address": "Munderi Road, Valiyannur, Kannur, Kerala",
    "phone": "Dr. Sahla Hashim",
    "hours": "Open· Closes 18:30",
    "image_url": "https://www.bing.com/maps/geoplat/REST/v1/Imagery/Map/RoadVibrant?ms=92,112&key=AnTcaqBi2ypp0xI-OZNi4W_ik2KhjgpqioTAtXLC8GzkMBQRMlyxvxyTnd5b73im&c=en-US&ur=in&da=n&logo=n&fmt=png&od=1&shading=hill&pp=12.025497,75.402176;dfp"
  },
  {
    "name": "Dr Raji Skin & Cosmetology Clinic",
    "address": "Kochi Panavel Road, Taliparamba, Kerala 670141",
    "phone": "Dr Raji Skin & Cosmetology Clinic",
    "hours": null,
    "image_url": "https://www.bing.com/maps/geoplat/REST/v1/Imagery/Map/RoadVibrant?ms=92,112&key=AnTcaqBi2ypp0xI-OZNi4W_ik2KhjgpqioTAtXLC8GzkMBQRMlyxvxyTnd5b73im&c=en-US&ur=in&da=n&logo=n&fmt=png&od=1&shading=hill&pp=12.037481,75.358589;dfp"
  },
  {
    "name": "Dr.Nitha's Homeopathic Speciality Clinic",
    "address": "NAS Building Complex, Near, Anjagadi, Puthiyapalli, Kadappuram, Kerala",
    "phone": "Dr.Nitha's Homeopathic Speciality Clinic",
    "hours": null,
    "image_url": "https://www.bing.com/maps/geoplat/REST/v1/Imagery/Map/RoadVibrant?ms=92,112&key=AnTcaqBi2ypp0xI-OZNi4W_ik2KhjgpqioTAtXLC8GzkMBQRMlyxvxyTnd5b73im&c=en-US&ur=in&da=n&logo=n&fmt=png&od=1&shading=hill&pp=12.326601,75.084602;dfp"
  },
  {
    "name": "Government Ayurveda hospital",
    "address": "Nh17, Kandoth, Taliparamba, Kerala 670327",
    "phone": "Government Ayurveda hospital",
    "hours": null,
    "image_url": "https://www.bing.com/maps/geoplat/REST/v1/Imagery/Map/RoadVibrant?ms=92,112&key=AnTcaqBi2ypp0xI-OZNi4W_ik2KhjgpqioTAtXLC8GzkMBQRMlyxvxyTnd5b73im&c=en-US&ur=in&da=n&logo=n&fmt=png&od=1&shading=hill&pp=12.128821,75.215721;dfp"
  },
  {
    "name": "Primary Health Centre",
    "address": "Pgqm+vmh, Kallilthazha, Pookome – Madapeedika Road, Kallilthazhe, Kerala 670102",
    "phone": "Primary Health Centre",
    "hours": null,
    "image_url": "https://www.bing.com/maps/geoplat/REST/v1/Imagery/Map/RoadVibrant?ms=92,112&key=AnTcaqBi2ypp0xI-OZNi4W_ik2KhjgpqioTAtXLC8GzkMBQRMlyxvxyTnd5b73im&c=en-US&ur=in&da=n&logo=n&fmt=png&od=1&shading=hill&pp=11.742332,75.548782;dfp"
  },
  {
    "name": "Dr.jossy's homoeopathy clinic",
    "address": "bus Stand, Cherupuzha, Kerala 670511",
    "phone": "Dr.jossy's homoeopathy clinic",
    "hours": "Open· Closes 13:00",
    "image_url": null
  },
  {
    "name": "Perfect Health Multispeciality Homoeopathic Clinic",
    "address": "Post Office, Near Townhall, Nut Street, Vatakara, Kerala",
    "phone": "Perfect Health Multispeciality Homoeopathic Clinic",
    "hours": null,
    "image_url": "https://www.bing.com/maps/geoplat/REST/v1/Imagery/Map/RoadVibrant?ms=92,112&key=AnTcaqBi2ypp0xI-OZNi4W_ik2KhjgpqioTAtXLC8GzkMBQRMlyxvxyTnd5b73im&c=en-US&ur=in&da=n&logo=n&fmt=png&od=1&shading=hill&pp=11.601166,75.593964;dfp"
  },
  {
    "name": "Apthasree Ayurvedic Hospital",
    "address": "Nr Kalyan Silks, Kannothumchal, Kannur, Kerala",
    "phone": "Apthasree Ayurvedic Hospital",
    "hours": null,
    "image_url": null
  },
  {
    "name": "Nephron Kidney Clinic by Dr Sandeep Sreedharan- Nephrologist",
    "address": "Chokli Medical Centre Chokli, Thalassery, Kerala",
    "phone": "Nephron Kidney Clinic by Dr Sandeep Sreedharan- Nephrologist",
    "hours": null,
    "image_url": "https://www.bing.com/maps/geoplat/REST/v1/Imagery/Map/RoadVibrant?ms=92,112&key=AnTcaqBi2ypp0xI-OZNi4W_ik2KhjgpqioTAtXLC8GzkMBQRMlyxvxyTnd5b73im&c=en-US&ur=in&da=n&logo=n&fmt=png&od=1&shading=hill&pp=11.699498,75.549309;dfp"
  },
  {
    "name": "Dr Misha's Homoeopathic Clinic",
    "address": "Thalassery Road, Pookode, Thalassery, Kerala 670691",
    "phone": "Dr Misha's Homoeopathic Clinic",
    "hours": "Open· Closes 12:30",
    "image_url": null
  },
  {
    "name": "Ayurdarsan Ayurvedic Hospital",
    "address": "Thiruvallur Rd, Thiruvallur, Kerala 673541, India, Kozhikode, Kerala 673541",
    "phone": "Ayurdarsan Ayurvedic Hospital",
    "hours": "Open· Closes 17:00",
    "image_url": null
  },
  {
    "name": "Arogya Homoeopathy Family Speciality Clinic",
    "address": "Near Telephone Exchange Kelakam, Kelakam, Kerala 670674",
    "phone": "Arogya Homoeopathy Family Speciality Clinic",
    "hours": null,
    "image_url": null
  }
]