[
  {
    "name": "Dr.Balaji Dengle's Shailesh Clinic",
    "address": "Kava Rd, Majge Nagar, Latur, Maharashtra",
    "phone": "Dr.Balaji Dengle's Shailesh Clinic",
    "hours": null,
    "image_url": "https://www.bing.com/maps/geoplat/REST/v1/Imagery/Map/RoadVibrant?ms=92,112&key=AnTcaqBi2ypp0xI-OZNi4W_ik2KhjgpqioTAtXLC8GzkMBQRMlyxvxyTnd5b73im&c=en-US&ur=in&da=n&logo=n&fmt=png&od=1&shading=hill&pp=18.382387,76.580605;dfp"
  },
  {
    "name": "Dr Deepak Gugale",
    "address": "MG Rd, opp. Ldcc Bank, Sawe Wadi, Latur, Maharashtra 413512",
    "phone": "Dr Deepak Gugale",
    "hours": "Open 24 hours",
    "image_url": "/th?id=OLC.r8t0L0Pe%2fkXijg480x360&w=92&h=134&c=8&rs=1&qlt=80&cdv=1&pid=Local"
  },
  {
    "name": "Darak Clinic, Dr. Nikhil Purushottam Darak- MD Medicine, Physician, Diabetes, Thyroid, Infectious Diseases,",
    "address": "Darak Clinic, Ashok Hotel, Latur, Maharashtra 413512",
    "phone": "Darak Clinic, Dr. Nikhil Purushottam Darak- MD Medicine, Physician, Diabetes, Thyroid, Infectious Diseases,",
    "hours": "Closed· Opens 11:00",
    "image_url": "/th?id=OLC.iHjirEXdeySDDw480x360&w=92&h=134&c=8&rs=1&qlt=80&cdv=1&pid=Local"
  },
  {
    "name": "Atharva Procto Clinic (Dr. Mayur Narayankar MS)",
    "address": "Opp. Central Bus Stand, Main Road, Latur, Maharashtra",
    "phone": "Atharva Procto Clinic (Dr. Mayur Narayankar MS)",
    "hours": null,
    "image_url": "https://www.bing.com/maps/geoplat/REST/v1/Imagery/Map/RoadVibrant?ms=92,112&key=AnTcaqBi2ypp0xI-OZNi4W_ik2KhjgpqioTAtXLC8GzkMBQRMlyxvxyTnd5b73im&c=en-US&ur=in&da=n&logo=n&fmt=png&od=1&shading=hill&pp=18.404156,76.568962;dfp"
  },
  {
    "name": "Dr.Urmila's Clinic",
    "address": "Old Ausa Road Latur, Latur, Maharashtra, Maharashtra 413512",
    "phone": "Dr.Urmila's Clinic",
    "hours": null,
    "image_url": "/th?id=OLC.V1jfLOX%2f58Pk1Q480x360&w=92&h=112&c=8&rs=1&qlt=80&cdv=1&pid=Local"
  },
  {
    "name": "Dr Premkishor R Toshniwal Clinic",
    "address": "Dayaram Road, Latur, Maharashtra 413512",
    "phone": "Dr Premkishor R Toshniwal Clinic",
    "hours": null,
    "image_url": "https://www.bing.com/maps/geoplat/REST/v1/Imagery/Map/RoadVibrant?ms=92,112&key=AnTcaqBi2ypp0xI-OZNi4W_ik2KhjgpqioTAtXLC8GzkMBQRMlyxvxyTnd5b73im&c=en-US&ur=in&da=n&logo=n&fmt=png&od=1&shading=hill&pp=18.403173,76.581497;dfp"
  },
  {
    "name": "Madhavbaug Cardiac & Diabetes Care Clinic Latur",
    "address": "Barshi Road, Near Ajinkya Honda Showroom, Latur, Maharashtra, Maharashtra 413512",
    "phone": "Madhavbaug Cardiac & Diabetes Care Clinic Latur",
    "hours": "Open· Closes 19:00",
    "image_url": null
  },
  {
    "name": "Dr Sunil K Ugile Clinic",
    "address": "Sh145, Mahatma Gandhi Chowk, Save Wadi Latur, Latur, Maharashtra 413512",
    "phone": "Dr Sunil K Ugile Clinic",
    "hours": null,
    "image_url": "https://www.bing.com/maps/geoplat/REST/v1/Imagery/Map/RoadVibrant?ms=92,112&key=AnTcaqBi2ypp0xI-OZNi4W_ik2KhjgpqioTAtXLC8GzkMBQRMlyxvxyTnd5b73im&c=en-US&ur=in&da=n&logo=n&fmt=png&od=1&shading=hill&pp=18.398361,76.578255;dfp"
  },
  {
    "name": "Dr. Jitendra Agrawal - Best Gi Surgeon, Bariatric, Piles Surgeon Delhi Ncr, India Hospital",
    "address": "Gastro Surgery Department, Metro Hospital & Cancer Institute (Mhci 21, Community Centre, Preet Vihar, Delhi",
    "phone": "Dr. Jitendra Agrawal - Best Gi Surgeon, Bariatric, Piles Surgeon Delhi Ncr, India Hospital",
    "hours": null,
    "image_url": "https://www.bing.com/maps/geoplat/REST/v1/Imagery/Map/RoadVibrant?ms=92,112&key=AnTcaqBi2ypp0xI-OZNi4W_ik2KhjgpqioTAtXLC8GzkMBQRMlyxvxyTnd5b73im&c=en-US&ur=in&da=n&logo=n&fmt=png&od=1&shading=hill&pp=18.402199,76.581612;dfp"
  },
  {
    "name": "Sanjivani Clinic",
    "address": "Sham Sadan Gadkari Galli, Near Bank Of Maharashtra, Gadhinglaj, Maharashtra",
    "phone": "Sanjivani Clinic",
    "hours": null,
    "image_url": "https://www.bing.com/maps/geoplat/REST/v1/Imagery/Map/RoadVibrant?ms=92,112&key=AnTcaqBi2ypp0xI-OZNi4W_ik2KhjgpqioTAtXLC8GzkMBQRMlyxvxyTnd5b73im&c=en-US&ur=in&da=n&logo=n&fmt=png&od=1&shading=hill&pp=18.401737,76.56424;dfp"
  },
  {
    "name": "Aadhar Manasopchar Clinic",
    "address": "Gomare Complex Shivaji Chowk, Opposite Police Station, Ambejogai Road, Latur, Maharashtra 413512",
    "phone": "Aadhar Manasopchar Clinic",
    "hours": null,
    "image_url": "https://www.bing.com/maps/geoplat/REST/v1/Imagery/Map/RoadVibrant?ms=92,112&key=AnTcaqBi2ypp0xI-OZNi4W_ik2KhjgpqioTAtXLC8GzkMBQRMlyxvxyTnd5b73im&c=en-US&ur=in&da=n&logo=n&fmt=png&od=1&shading=hill&pp=18.417351,76.570557;dfp"
  },
  {
    "name": "Manjara Ayurvedic Medical Collegeand Hospital",
    "address": "Ganj Golai, Latur, Maharashtra 413512",
    "phone": "Manjara Ayurvedic Medical Collegeand Hospital",
    "hours": null,
    "image_url": null
  },
  {
    "name": "Dr Navid Homeopathic Clinic",
    "address": "Sunil Teracces Main Road, Latur, Maharashtra 413512",
    "phone": "Dr Navid Homeopathic Clinic",
    "hours": null,
    "image_url": "https://www.bing.com/maps/geoplat/REST/v1/Imagery/Map/RoadVibrant?ms=92,112&key=AnTcaqBi2ypp0xI-OZNi4W_ik2KhjgpqioTAtXLC8GzkMBQRMlyxvxyTnd5b73im&c=en-US&ur=in&da=n&logo=n&fmt=png&od=1&shading=hill&pp=18.400196,76.579536;dfp"
  },
  {
    "name": "Shri Shraddha Clinic",
    "address": "Near Saraswat Mangal Karyalay NEW Barshi Road Walmik Nagar, Latur, Maharashtra 413512",
    "phone": "Shri Shraddha Clinic",
    "hours": null,
    "image_url": "https://www.bing.com/maps/geoplat/REST/v1/Imagery/Map/RoadVibrant?ms=92,112&key=AnTcaqBi2ypp0xI-OZNi4W_ik2KhjgpqioTAtXLC8GzkMBQRMlyxvxyTnd5b73im&c=en-US&ur=in&da=n&logo=n&fmt=png&od=1&shading=hill&pp=18.406876,76.528908;dfp"
  },
  {
    "name": "Aastha Skin And Cosmetology Clinic ( Dr Ravi Tapdia)",
    "address": "Chandra Nagar Road, Near Shahu College, Latur, Latur 413512",
    "phone": "Aastha Skin And Cosmetology Clinic ( Dr Ravi Tapdia)",
    "hours": "Closed· Opens 11:30",
    "image_url": null
  },
  {
    "name": "Narhare Homoeopathic Clinic",
    "address": "Shivaji Chowk, Latur, Maharashtra 413512",
    "phone": "Narhare Homoeopathic Clinic",
    "hours": null,
    "image_url": null
  }
]