[
  {
    "name": "Dr. Deepak kumar adarshi | General Physician | Deepnayan care centre",
    "address": "Cmjc+5JG, Lohardaga, Jharkhand 835302, Lohardaga, Madhya Pradesh 835302",
    "phone": "Dr. Deepak kumar adarshi | General Physician | Deepnayan care centre",
    "hours": "Open· Closes 17:30",
    "image_url": "/th?id=OLC.zjibrAXIV20z9Q480x360&w=92&h=134&c=8&rs=1&qlt=80&cdv=1&pid=Local"
  },
  {
    "name": "Surya Clinic",
    "address": "Main Road Lohardaga, Powerganj Chowk, Powerganj, Lohardaga, Jharkhand 835302",
    "phone": "Surya Clinic",
    "hours": null,
    "image_url": "https://www.bing.com/maps/geoplat/REST/v1/Imagery/Map/RoadVibrant?ms=92,112&key=AnTcaqBi2ypp0xI-OZNi4W_ik2KhjgpqioTAtXLC8GzkMBQRMlyxvxyTnd5b73im&c=en-US&ur=in&da=n&logo=n&fmt=png&od=1&shading=hill&pp=23.441597,84.687393;dfp"
  },
  {
    "name": "Life Care Hospital",
    "address": "Kudu Gumla Road, Patel Bhawan, Noor Nagar Lohardaga, Lohardaga, Jharkhand 835302",
    "phone": "Life Care Hospital",
    "hours": null,
    "image_url": "https://www.bing.com/maps/geoplat/REST/v1/Imagery/Map/RoadVibrant?ms=92,112&key=AnTcaqBi2ypp0xI-OZNi4W_ik2KhjgpqioTAtXLC8GzkMBQRMlyxvxyTnd5b73im&c=en-US&ur=in&da=n&logo=n&fmt=png&od=1&shading=hill&pp=23.437914,84.685814;dfp"
  },
  {
    "name": "Sai Clinic",
    "address": "Main Road Senha, Satyam Complex, Senha, Lohardaga, Jharkhand 835302",
    "phone": "Sai Clinic",
    "hours": null,
    "image_url": "https://www.bing.com/maps/geoplat/REST/v1/Imagery/Map/RoadVibrant?ms=92,112&key=AnTcaqBi2ypp0xI-OZNi4W_ik2KhjgpqioTAtXLC8GzkMBQRMlyxvxyTnd5b73im&c=en-US&ur=in&da=n&logo=n&fmt=png&od=1&shading=hill&pp=23.385647,84.651596;dfp"
  },
  {
    "name": "JHARKHAND AUSHADHALAYA - Head Office",
    "address": "Behind Siding Bus Stand, Dhorha Toli Kutma Road, Lohardaga, Jharkhand 835302",
    "phone": "JHARKHAND AUSHADHALAYA - Head Office",
    "hours": "Open· Closes 19:30",
    "image_url": "/th?id=OLC.0buinOWBm0reGw480x360&w=92&h=134&c=8&rs=1&qlt=80&cdv=1&pid=Local"
  },
  {
    "name": "Dr Lal PathLabs",
    "address": "Front of Rahul Medical, Palmer Ganj Chowk, Sadar Hospital Road, Lohardaga – 835302, Lohardaga, Jhark…",
    "phone": "Dr Lal PathLabs",
    "hours": "Open· Closes 19:30",
    "image_url": "https://www.bing.com/maps/geoplat/REST/v1/Imagery/Map/RoadVibrant?ms=92,134&key=AnTcaqBi2ypp0xI-OZNi4W_ik2KhjgpqioTAtXLC8GzkMBQRMlyxvxyTnd5b73im&c=en-US&ur=in&da=n&logo=n&fmt=png&od=1&shading=hill&pp=23.413931,84.67308;dfp"
  },
  {
    "name": "Bharosa Clinic",
    "address": "Gumla Road, Near Bus Stand, Bhadauli, Gumla, Jharkhand 835324",
    "phone": "Bharosa Clinic",
    "hours": null,
    "image_url": "https://www.bing.com/maps/geoplat/REST/v1/Imagery/Map/RoadVibrant?ms=92,112&key=AnTcaqBi2ypp0xI-OZNi4W_ik2KhjgpqioTAtXLC8GzkMBQRMlyxvxyTnd5b73im&c=en-US&ur=in&da=n&logo=n&fmt=png&od=1&shading=hill&pp=23.167667,84.759933;dfp"
  },
  {
    "name": "Dr Das Gupta Clinic",
    "address": "Main Road Gumla, Near Shahid Tower Chowk, Gumla, Jharkhand 835207",
    "phone": "Dr Das Gupta Clinic",
    "hours": null,
    "image_url": "https://www.bing.com/maps/geoplat/REST/v1/Imagery/Map/RoadVibrant?ms=92,112&key=AnTcaqBi2ypp0xI-OZNi4W_ik2KhjgpqioTAtXLC8GzkMBQRMlyxvxyTnd5b73im&c=en-US&ur=in&da=n&logo=n&fmt=png&od=1&shading=hill&pp=23.041739,84.542404;dfp"
  },
  {
    "name": "Life Care Diagnostic Center",
    "address": "Bhusar Kudu Main Road, Hp Petrol Pump, Lohardaga Patra Toli, Lohardaga, Jharkhand 835302",
    "phone": "Life Care Diagnostic Center",
    "hours": null,
    "image_url": "https://www.bing.com/maps/geoplat/REST/v1/Imagery/Map/RoadVibrant?ms=92,112&key=AnTcaqBi2ypp0xI-OZNi4W_ik2KhjgpqioTAtXLC8GzkMBQRMlyxvxyTnd5b73im&c=en-US&ur=in&da=n&logo=n&fmt=png&od=1&shading=hill&pp=23.444189,84.688812;dfp"
  },
  {
    "name": "Dr S Sinha Clinic",
    "address": "Jaspur Road, Near Sadar Hospital, Gumla, Jharkhand 835207",
    "phone": "Dr S Sinha Clinic",
    "hours": null,
    "image_url": "https://www.bing.com/maps/geoplat/REST/v1/Imagery/Map/RoadVibrant?ms=92,112&key=AnTcaqBi2ypp0xI-OZNi4W_ik2KhjgpqioTAtXLC8GzkMBQRMlyxvxyTnd5b73im&c=en-US&ur=in&da=n&logo=n&fmt=png&od=1&shading=hill&pp=23.035748,84.538857;dfp"
  },
  {
    "name": "Hamdard Ayurvedic Dawa Khana",
    "address": "Kudu Gumla Road, Rahmat Nagar Chowk, Rahmat Nagar, Kuru, Lohardaga, Jharkhand",
    "phone": "Hamdard Ayurvedic Dawa Khana",
    "hours": null,
    "image_url": "https://www.bing.com/maps/geoplat/REST/v1/Imagery/Map/RoadVibrant?ms=92,112&key=AnTcaqBi2ypp0xI-OZNi4W_ik2KhjgpqioTAtXLC8GzkMBQRMlyxvxyTnd5b73im&c=en-US&ur=in&da=n&logo=n&fmt=png&od=1&shading=hill&pp=23.538589,84.817795;dfp"
  },
  {
    "name": "Jitu X Ray And Pathology",
    "address": "Bhusar Kudu Road, Durga Mandir, Patratoli, Lohardaga, Jharkhand 835302",
    "phone": "Jitu X Ray And Pathology",
    "hours": null,
    "image_url": "https://www.bing.com/maps/geoplat/REST/v1/Imagery/Map/RoadVibrant?ms=92,112&key=AnTcaqBi2ypp0xI-OZNi4W_ik2KhjgpqioTAtXLC8GzkMBQRMlyxvxyTnd5b73im&c=en-US&ur=in&da=n&logo=n&fmt=png&od=1&shading=hill&pp=23.441513,84.686691;dfp"
  },
  {
    "name": "Rohit Pathology",
    "address": "Main Road, Agrasen, Lohardaga, Jharkhand 835302",
    "phone": "Rohit Pathology",
    "hours": null,
    "image_url": "https://www.bing.com/maps/geoplat/REST/v1/Imagery/Map/RoadVibrant?ms=92,112&key=AnTcaqBi2ypp0xI-OZNi4W_ik2KhjgpqioTAtXLC8GzkMBQRMlyxvxyTnd5b73im&c=en-US&ur=in&da=n&logo=n&fmt=png&od=1&shading=hill&pp=23.428568,84.678337;dfp"
  },
  {
    "name": "Dr. Sonika Pandey - Senior Consultant Medicine (Best General Physician) best doctor in Jyoti Medico Mandar",
    "address": "Jyoti Medico Mandar, N H 75 (Opposite Mandar Police Station), Mandar, Jharkhand 835214",
    "phone": "Dr. Sonika Pandey - Senior Consultant Medicine (Best General Physician) best doctor in Jyoti Medico Mandar",
    "hours": "Closed· Opens 11:00",
    "image_url": null
  },
  {
    "name": "Hindustan Digital Xray and Pathology",
    "address": "Lohardaga Main Road, Idbi Bank, Lohardaga Amla Toli, Lohardaga, Jharkhand 835302",
    "phone": "Hindustan Digital Xray and Pathology",
    "hours": null,
    "image_url": "https://www.bing.com/maps/geoplat/REST/v1/Imagery/Map/RoadVibrant?ms=92,112&key=AnTcaqBi2ypp0xI-OZNi4W_ik2KhjgpqioTAtXLC8GzkMBQRMlyxvxyTnd5b73im&c=en-US&ur=in&da=n&logo=n&fmt=png&od=1&shading=hill&pp=23.440601,84.685104;dfp"
  }
]