[
  {
    "name": "Dr. Rahul bagaria | Swastik Hospital",
    "address": "Swastik Hospital Near Naupukhuri, Tinsukia, Assam, India, 786125, Tinsukia, Madhya Pradesh 786125",
    "phone": "Dr. Rahul bagaria | Swastik Hospital",
    "hours": "Closed· Opens 11:00",
    "image_url": "/th?id=OLC.HreRWCswB2Q77A480x360&w=92&h=134&c=8&rs=1&qlt=80&cdv=1&pid=Local"
  },
  {
    "name": "Dr. Afzal Mohammad Qureshi- General Physician",
    "address": "Patanjali Chikitsalaya, Tulsiram Jalam Road, Tinsukia, Assam 786125",
    "phone": "Dr. Afzal Mohammad Qureshi- General Physician",
    "hours": "Open· Closes 14:00",
    "image_url": "/th?id=OLC.QXiiTsLl%2bzjTzw480x360&w=92&h=134&c=8&rs=1&qlt=80&cdv=1&pid=Local"
  },
  {
    "name": "Dr Konwars Homeopathic Clinic",
    "address": "Parbatia Road, Tinsukia, Assam 786154",
    "phone": "Dr Konwars Homeopathic Clinic",
    "hours": null,
    "image_url": "https://www.bing.com/maps/geoplat/REST/v1/Imagery/Map/RoadVibrant?ms=92,112&key=AnTcaqBi2ypp0xI-OZNi4W_ik2KhjgpqioTAtXLC8GzkMBQRMlyxvxyTnd5b73im&c=en-US&ur=in&da=n&logo=n&fmt=png&od=1&shading=hill&pp=27.493851,95.368797;dfp"
  },
  {
    "name": "Dr. Swatilekha Karmakar Obstetrician-Gynecologist",
    "address": "Indian Oil Corporation Hospital, Digboi, Assam 786171",
    "phone": "Dr. Swatilekha Karmakar Obstetrician-Gynecologist",
    "hours": "Open· Closes 12:00",
    "image_url": "https://www.bing.com/maps/geoplat/REST/v1/Imagery/Map/RoadVibrant?ms=92,134&key=AnTcaqBi2ypp0xI-OZNi4W_ik2KhjgpqioTAtXLC8GzkMBQRMlyxvxyTnd5b73im&c=en-US&ur=in&da=n&logo=n&fmt=png&od=1&shading=hill&pp=27.395147,95.63002;dfp"
  },
  {
    "name": "Dr. Suhashis Mukherjee- Obstetrics & Gynaecologist",
    "address": "R G Medical, Jasoda Road Near Shani Mandir, Digboi, Assam 786171",
    "phone": "Dr. Suhashis Mukherjee- Obstetrics & Gynaecologist",
    "hours": "Closed· Opens tomorrow 17:00",
    "image_url": "/th?id=OLC.ADiUs3ycuFzJUA480x360&w=92&h=134&c=8&rs=1&qlt=80&cdv=1&pid=Local"
  },
  {
    "name": "Drug House(poddar's Doctors' Clinic & Pharmacy)",
    "address": "A.t. Road, Morigaon Syndicate, Khutikatia, Haibargaon, Assam 782002",
    "phone": "Drug House(poddar's Doctors' Clinic & Pharmacy)",
    "hours": null,
    "image_url": "https://www.bing.com/maps/geoplat/REST/v1/Imagery/Map/RoadVibrant?ms=92,112&key=AnTcaqBi2ypp0xI-OZNi4W_ik2KhjgpqioTAtXLC8GzkMBQRMlyxvxyTnd5b73im&c=en-US&ur=in&da=n&logo=n&fmt=png&od=1&shading=hill&pp=27.486576,95.356377;dfp"
  },
  {
    "name": "Dr. Bora's Nursing & Maternity Home",
    "address": "AT Rd, Rupai Siding, Assam",
    "phone": "Dr. Bora's Nursing & Maternity Home",
    "hours": null,
    "image_url": "https://www.bing.com/maps/geoplat/REST/v1/Imagery/Map/RoadVibrant?ms=92,112&key=AnTcaqBi2ypp0xI-OZNi4W_ik2KhjgpqioTAtXLC8GzkMBQRMlyxvxyTnd5b73im&c=en-US&ur=in&da=n&logo=n&fmt=png&od=1&shading=hill&pp=27.601797,95.557228;dfp"
  },
  {
    "name": "Patanjali Chikitsalaya",
    "address": "C/o Dibrugarh Gas Supply, Gurudwara Complex, AT Rd, Dibrugarh, Assam",
    "phone": "Patanjali Chikitsalaya",
    "hours": null,
    "image_url": "https://www.bing.com/maps/geoplat/REST/v1/Imagery/Map/RoadVibrant?ms=92,112&key=AnTcaqBi2ypp0xI-OZNi4W_ik2KhjgpqioTAtXLC8GzkMBQRMlyxvxyTnd5b73im&c=en-US&ur=in&da=n&logo=n&fmt=png&od=1&shading=hill&pp=27.488689,95.364655;dfp"
  },
  {
    "name": "Dr Ronjon Bhattacharyya Skin and Laser Clinic",
    "address": "Ss Market, Thana Chariali, Rangagora Road, Near Usha Jewellery, Tinsukia, Assam, Assam 786125",
    "phone": "Dr Ronjon Bhattacharyya Skin and Laser Clinic",
    "hours": null,
    "image_url": null
  },
  {
    "name": "Dr Lal PathLabs - Patient Service Centre",
    "address": "Ground Floor, Roing, Lower Dibang Valley, Arunachal Pradesh 792110",
    "phone": "Dr Lal PathLabs - Patient Service Centre",
    "hours": "Open· Closes 19:00",
    "image_url": "https://www.bing.com/maps/geoplat/REST/v1/Imagery/Map/RoadVibrant?ms=92,134&key=AnTcaqBi2ypp0xI-OZNi4W_ik2KhjgpqioTAtXLC8GzkMBQRMlyxvxyTnd5b73im&c=en-US&ur=in&da=n&logo=n&fmt=png&od=1&shading=hill&pp=28.167986,95.828278;dfp"
  },
  {
    "name": "H&s Dental And Skin Clinic And Implant Centre",
    "address": "Shashi Complex, Rangagora Rd, Opposite Ultra Lab, Tinsukia, Assam 786125",
    "phone": "H&s Dental And Skin Clinic And Implant Centre",
    "hours": null,
    "image_url": null
  },
  {
    "name": "Dr. julfikar | General Physician | Bamunbari health clinic",
    "address": "Health Clinic, Dighalia No.2, Assam, India, 786613, Dighalia No.2, Madhya Pradesh 786613",
    "phone": "Dr. julfikar | General Physician | Bamunbari health clinic",
    "hours": "Closed· Opens tomorrow 09:00",
    "image_url": "https://www.bing.com/maps/geoplat/REST/v1/Imagery/Map/RoadVibrant?ms=92,134&key=AnTcaqBi2ypp0xI-OZNi4W_ik2KhjgpqioTAtXLC8GzkMBQRMlyxvxyTnd5b73im&c=en-US&ur=in&da=n&logo=n&fmt=png&od=1&shading=hill&pp=27.22645,95.020866;dfp"
  },
  {
    "name": "Apollo Clinic",
    "address": "A T Road, Graham Bazar, Near Puja Nursing Home, Dibrugarh, Dibrugarh 786001",
    "phone": "Apollo Clinic",
    "hours": null,
    "image_url": null
  }
]