[
  {
    "name": "Dr. Bhupendra Kumar Mandal- General Physician",
    "address": "Bhupendra Clinic, Opp. Madhepuram Hotel Ke Pass, Near Bt Mall, Madhepura, Bihar 852113",
    "phone": "Dr. Bhupendra Kumar Mandal- General Physician",
    "hours": "Closed· Opens 11:00",
    "image_url": "https://www.bing.com/maps/geoplat/REST/v1/Imagery/Map/RoadVibrant?ms=92,134&key=AnTcaqBi2ypp0xI-OZNi4W_ik2KhjgpqioTAtXLC8GzkMBQRMlyxvxyTnd5b73im&c=en-US&ur=in&da=n&logo=n&fmt=png&od=1&shading=hill&pp=25.914919,86.785912;dfp"
  },
  {
    "name": "Dr Dk Yadav Clinic",
    "address": "Main Road, Shiv Nandan College, Laxmipur Mohalla, Madhepura, Bihar 852113",
    "phone": "Dr Dk Yadav Clinic",
    "hours": null,
    "image_url": "https://www.bing.com/maps/geoplat/REST/v1/Imagery/Map/RoadVibrant?ms=92,112&key=AnTcaqBi2ypp0xI-OZNi4W_ik2KhjgpqioTAtXLC8GzkMBQRMlyxvxyTnd5b73im&c=en-US&ur=in&da=n&logo=n&fmt=png&od=1&shading=hill&pp=25.917761,86.790375;dfp"
  },
  {
    "name": "The Life Care Hospital, madhepura",
    "address": "Old By Paas Road, Near Hero Show Room, Madhepura, Bihar, Bihar 852113",
    "phone": "The Life Care Hospital, madhepura",
    "hours": null,
    "image_url": "/th?id=OLC.5HwaERjDm4KBew480x360&w=92&h=112&c=8&rs=1&qlt=80&cdv=1&pid=Local"
  },
  {
    "name": "Dr B K Yadav Clinic",
    "address": "By Pass Road, Madhepura, Bihar 852113",
    "phone": "Dr B K Yadav Clinic",
    "hours": null,
    "image_url": "https://www.bing.com/maps/geoplat/REST/v1/Imagery/Map/RoadVibrant?ms=92,112&key=AnTcaqBi2ypp0xI-OZNi4W_ik2KhjgpqioTAtXLC8GzkMBQRMlyxvxyTnd5b73im&c=en-US&ur=in&da=n&logo=n&fmt=png&od=1&shading=hill&pp=25.915504,86.7929;dfp"
  },
  {
    "name": "Dr S N Yadav Clinic",
    "address": "Madhepura, Bihar 852113",
    "phone": "Dr S N Yadav Clinic",
    "hours": null,
    "image_url": "https://www.bing.com/maps/geoplat/REST/v1/Imagery/Map/RoadVibrant?ms=92,112&key=AnTcaqBi2ypp0xI-OZNi4W_ik2KhjgpqioTAtXLC8GzkMBQRMlyxvxyTnd5b73im&c=en-US&ur=in&da=n&logo=n&fmt=png&od=1&shading=hill&pp=25.910067,86.786301;dfp"
  },
  {
    "name": "Dr Saroj Singh Clinic",
    "address": "Madhepura, Bihar 852113",
    "phone": "Dr Saroj Singh Clinic",
    "hours": null,
    "image_url": "https://www.bing.com/maps/geoplat/REST/v1/Imagery/Map/RoadVibrant?ms=92,112&key=AnTcaqBi2ypp0xI-OZNi4W_ik2KhjgpqioTAtXLC8GzkMBQRMlyxvxyTnd5b73im&c=en-US&ur=in&da=n&logo=n&fmt=png&od=1&shading=hill&pp=25.909887,86.782341;dfp"
  },
  {
    "name": "Dr Ajay Kumar Clinic",
    "address": "Main Road, Madhepura, Bihar 852113",
    "phone": "Dr Ajay Kumar Clinic",
    "hours": null,
    "image_url": "https://www.bing.com/maps/geoplat/REST/v1/Imagery/Map/RoadVibrant?ms=92,112&key=AnTcaqBi2ypp0xI-OZNi4W_ik2KhjgpqioTAtXLC8GzkMBQRMlyxvxyTnd5b73im&c=en-US&ur=in&da=n&logo=n&fmt=png&od=1&shading=hill&pp=25.926432,86.796722;dfp"
  },
  {
    "name": "Dr Narendra Kumar Clinic",
    "address": "Sh76, Madhuban, Madhepura, Bihar 852113",
    "phone": "Dr Narendra Kumar Clinic",
    "hours": null,
    "image_url": "https://www.bing.com/maps/geoplat/REST/v1/Imagery/Map/RoadVibrant?ms=92,112&key=AnTcaqBi2ypp0xI-OZNi4W_ik2KhjgpqioTAtXLC8GzkMBQRMlyxvxyTnd5b73im&c=en-US&ur=in&da=n&logo=n&fmt=png&od=1&shading=hill&pp=25.912279,86.790436;dfp"
  },
  {
    "name": "Dr. U.k Raja Satish Memorial Hospital & Research Centre",
    "address": "Madanpur, Madhepura, Bihar 852113",
    "phone": "Dr. U.k Raja Satish Memorial Hospital & Research Centre",
    "hours": null,
    "image_url": null
  },
  {
    "name": "Madhe Pura Clinic",
    "address": "Bus Stand Road, Parvati Science College, Madhepur, Madhepura, Bihar 852113",
    "phone": "Madhe Pura Clinic",
    "hours": null,
    "image_url": "https://www.bing.com/maps/geoplat/REST/v1/Imagery/Map/RoadVibrant?ms=92,112&key=AnTcaqBi2ypp0xI-OZNi4W_ik2KhjgpqioTAtXLC8GzkMBQRMlyxvxyTnd5b73im&c=en-US&ur=in&da=n&logo=n&fmt=png&od=1&shading=hill&pp=25.926853,86.796593;dfp"
  },
  {
    "name": "Apollo Dialysis Clinic",
    "address": "Apollo Dialysis Private Limited, Sadar Hospital, Madhepura, Near- Police, Station, Madhepura, Bihar 85…",
    "phone": "Apollo Dialysis Clinic",
    "hours": "Open· Closes 20:00",
    "image_url": "https://www.bing.com/maps/geoplat/REST/v1/Imagery/Map/RoadVibrant?ms=92,134&key=AnTcaqBi2ypp0xI-OZNi4W_ik2KhjgpqioTAtXLC8GzkMBQRMlyxvxyTnd5b73im&c=en-US&ur=in&da=n&logo=n&fmt=png&od=1&shading=hill&pp=26.1131,86.593102;dfp"
  },
  {
    "name": "Madhupura Digital X Ray And Ultrasound Clinic",
    "address": "Main Road, Madhepura, Bihar 852113",
    "phone": "Madhupura Digital X Ray And Ultrasound Clinic",
    "hours": null,
    "image_url": "https://www.bing.com/maps/geoplat/REST/v1/Imagery/Map/RoadVibrant?ms=92,112&key=AnTcaqBi2ypp0xI-OZNi4W_ik2KhjgpqioTAtXLC8GzkMBQRMlyxvxyTnd5b73im&c=en-US&ur=in&da=n&logo=n&fmt=png&od=1&shading=hill&pp=25.921331,86.79184;dfp"
  },
  {
    "name": "Chandra BIO Lab Clinic",
    "address": "Kabristan Road, Madhepura, Bihar 852113",
    "phone": "Chandra BIO Lab Clinic",
    "hours": null,
    "image_url": "https://www.bing.com/maps/geoplat/REST/v1/Imagery/Map/RoadVibrant?ms=92,112&key=AnTcaqBi2ypp0xI-OZNi4W_ik2KhjgpqioTAtXLC8GzkMBQRMlyxvxyTnd5b73im&c=en-US&ur=in&da=n&logo=n&fmt=png&od=1&shading=hill&pp=25.925653,86.797005;dfp"
  },
  {
    "name": "Jagdamba Digital X Ray Opg Center",
    "address": "BP Mandal Rd, RB Nagar, Madhepura, Bihar 852113",
    "phone": "Jagdamba Digital X Ray Opg Center",
    "hours": null,
    "image_url": null
  },
  {
    "name": "R M S Diagnostic Centre",
    "address": "Madhepura, Bihar 852113",
    "phone": "R M S Diagnostic Centre",
    "hours": null,
    "image_url": "https://www.bing.com/maps/geoplat/REST/v1/Imagery/Map/RoadVibrant?ms=92,112&key=AnTcaqBi2ypp0xI-OZNi4W_ik2KhjgpqioTAtXLC8GzkMBQRMlyxvxyTnd5b73im&c=en-US&ur=in&da=n&logo=n&fmt=png&od=1&shading=hill&pp=25.926533,86.796661;dfp"
  },
  {
    "name": "City Ultrasound Centre",
    "address": "Nh106, Madhepura, Bihar 852113",
    "phone": "City Ultrasound Centre",
    "hours": null,
    "image_url": "https://www.bing.com/maps/geoplat/REST/v1/Imagery/Map/RoadVibrant?ms=92,112&key=AnTcaqBi2ypp0xI-OZNi4W_ik2KhjgpqioTAtXLC8GzkMBQRMlyxvxyTnd5b73im&c=en-US&ur=in&da=n&logo=n&fmt=png&od=1&shading=hill&pp=25.909908,86.780479;dfp"
  },
  {
    "name": "Maa Nilam Pathology",
    "address": "Madhepura, Bihar 852113",
    "phone": "Maa Nilam Pathology",
    "hours": null,
    "image_url": "https://www.bing.com/maps/geoplat/REST/v1/Imagery/Map/RoadVibrant?ms=92,112&key=AnTcaqBi2ypp0xI-OZNi4W_ik2KhjgpqioTAtXLC8GzkMBQRMlyxvxyTnd5b73im&c=en-US&ur=in&da=n&logo=n&fmt=png&od=1&shading=hill&pp=25.912338,86.78933;dfp"
  },
  {
    "name": "Meera Diagnostic Centre",
    "address": "Room No. 2, Pashupati Bhawan, Manpur, Nh \\107, Madhepura, Bihar 852113",
    "phone": "Meera Diagnostic Centre",
    "hours": null,
    "image_url": "https://www.bing.com/maps/geoplat/REST/v1/Imagery/Map/RoadVibrant?ms=92,112&key=AnTcaqBi2ypp0xI-OZNi4W_ik2KhjgpqioTAtXLC8GzkMBQRMlyxvxyTnd5b73im&c=en-US&ur=in&da=n&logo=n&fmt=png&od=1&shading=hill&pp=25.909611,86.783913;dfp"
  }
]