[
  {
    "name": "Dr. Pramod Kumar Jha",
    "address": "Gaushala Chowck, Raza Nagar, Adarsh Nagar Colony, Surat Ganj, Madhubani, Bihar",
    "phone": "Dr. Pramod Kumar Jha",
    "hours": null,
    "image_url": "https://www.bing.com/maps/geoplat/REST/v1/Imagery/Map/RoadVibrant?ms=92,112&key=AnTcaqBi2ypp0xI-OZNi4W_ik2KhjgpqioTAtXLC8GzkMBQRMlyxvxyTnd5b73im&c=en-US&ur=in&da=n&logo=n&fmt=png&od=1&shading=hill&pp=26.3489,86.077103;dfp"
  },
  {
    "name": "Dr Niraj Kumar Clinic",
    "address": "Main Market Road, Thana Chowk, Madhubani, Bihar 847211",
    "phone": "Dr Niraj Kumar Clinic",
    "hours": null,
    "image_url": "https://www.bing.com/maps/geoplat/REST/v1/Imagery/Map/RoadVibrant?ms=92,112&key=AnTcaqBi2ypp0xI-OZNi4W_ik2KhjgpqioTAtXLC8GzkMBQRMlyxvxyTnd5b73im&c=en-US&ur=in&da=n&logo=n&fmt=png&od=1&shading=hill&pp=26.347864,86.070946;dfp"
  },
  {
    "name": "Dr C S Mishra Clinic",
    "address": "Post Office Road, Indian Head Post Office Madhubani, Madhubani, Bihar 847211",
    "phone": "Dr C S Mishra Clinic",
    "hours": null,
    "image_url": "https://www.bing.com/maps/geoplat/REST/v1/Imagery/Map/RoadVibrant?ms=92,112&key=AnTcaqBi2ypp0xI-OZNi4W_ik2KhjgpqioTAtXLC8GzkMBQRMlyxvxyTnd5b73im&c=en-US&ur=in&da=n&logo=n&fmt=png&od=1&shading=hill&pp=26.347534,86.072769;dfp"
  },
  {
    "name": "Sapna Clinic",
    "address": "Mahadev Temple Main Road, Surat Ganj, Madhubani, Bihar 847211",
    "phone": "Sapna Clinic",
    "hours": null,
    "image_url": "https://www.bing.com/maps/geoplat/REST/v1/Imagery/Map/RoadVibrant?ms=92,112&key=AnTcaqBi2ypp0xI-OZNi4W_ik2KhjgpqioTAtXLC8GzkMBQRMlyxvxyTnd5b73im&c=en-US&ur=in&da=n&logo=n&fmt=png&od=1&shading=hill&pp=26.350014,86.07283;dfp"
  },
  {
    "name": "Dr Subhash Chandra Clinic",
    "address": "Hospital Road, Madhubani, Bihar 857411",
    "phone": "Dr Subhash Chandra Clinic",
    "hours": null,
    "image_url": "https://www.bing.com/maps/geoplat/REST/v1/Imagery/Map/RoadVibrant?ms=92,112&key=AnTcaqBi2ypp0xI-OZNi4W_ik2KhjgpqioTAtXLC8GzkMBQRMlyxvxyTnd5b73im&c=en-US&ur=in&da=n&logo=n&fmt=png&od=1&shading=hill&pp=26.332451,86.072144;dfp"
  },
  {
    "name": "Dr S N Sinha Clinic",
    "address": "Main Market Road, Adrash Children Secondary School, Madhubani, Bihar 847211",
    "phone": "Dr S N Sinha Clinic",
    "hours": null,
    "image_url": "https://www.bing.com/maps/geoplat/REST/v1/Imagery/Map/RoadVibrant?ms=92,112&key=AnTcaqBi2ypp0xI-OZNi4W_ik2KhjgpqioTAtXLC8GzkMBQRMlyxvxyTnd5b73im&c=en-US&ur=in&da=n&logo=n&fmt=png&od=1&shading=hill&pp=26.356512,86.067711;dfp"
  },
  {
    "name": "Shuddhi Clinic Madhubani",
    "address": "13 Number Gumti, Rampatti Road, Near Mithila Navjeevan Hospital, Satyam Vastralaya, Madhubani, Bi…",
    "phone": "Shuddhi Clinic Madhubani",
    "hours": "Open· Closes 18:00",
    "image_url": null
  },
  {
    "name": "Arogya Sewa Clinic",
    "address": "Basuara, Hospital Road, Madhubani, Bihar 847212",
    "phone": "Arogya Sewa Clinic",
    "hours": null,
    "image_url": "https://www.bing.com/maps/geoplat/REST/v1/Imagery/Map/RoadVibrant?ms=92,112&key=AnTcaqBi2ypp0xI-OZNi4W_ik2KhjgpqioTAtXLC8GzkMBQRMlyxvxyTnd5b73im&c=en-US&ur=in&da=n&logo=n&fmt=png&od=1&shading=hill&pp=26.331968,86.071571;dfp"
  },
  {
    "name": "Dr. Rajeev Kumar",
    "address": "Subhash Chowk, Ward No. 15, Bihar 847211, India, Madhubani, Bihar 847211",
    "phone": "Dr. Rajeev Kumar",
    "hours": "Open· Closes 14:30",
    "image_url": null
  },
  {
    "name": "Arya Clinic",
    "address": "Loha, Nh105, Benipatti, Bihar 847229",
    "phone": "Arya Clinic",
    "hours": null,
    "image_url": "https://www.bing.com/maps/geoplat/REST/v1/Imagery/Map/RoadVibrant?ms=92,112&key=AnTcaqBi2ypp0xI-OZNi4W_ik2KhjgpqioTAtXLC8GzkMBQRMlyxvxyTnd5b73im&c=en-US&ur=in&da=n&logo=n&fmt=png&od=1&shading=hill&pp=26.433161,86.038284;dfp"
  },
  {
    "name": "Heart Hospital",
    "address": "Mangalbani, Madhubani, Bihar 847211, India, Madhubani, Bihar 847211",
    "phone": "Heart Hospital",
    "hours": null,
    "image_url": null
  },
  {
    "name": "Dr Sanjay Thakur Eye Clinic",
    "address": "Loha Patti Road, Madhubani, Bihar 847211",
    "phone": "Dr Sanjay Thakur Eye Clinic",
    "hours": null,
    "image_url": null
  },
  {
    "name": "Apollo Dialysis Clinic",
    "address": "Apollo Dialysis Private Limited, Pargati Nagar, Madhubani, Bihar 847211",
    "phone": "Apollo Dialysis Clinic",
    "hours": "Open· Closes 20:00",
    "image_url": "https://www.bing.com/maps/geoplat/REST/v1/Imagery/Map/RoadVibrant?ms=92,134&key=AnTcaqBi2ypp0xI-OZNi4W_ik2KhjgpqioTAtXLC8GzkMBQRMlyxvxyTnd5b73im&c=en-US&ur=in&da=n&logo=n&fmt=png&od=1&shading=hill&pp=26.33839,86.071709;dfp"
  },
  {
    "name": "द ओरो डेन्टल हेल्थ केयर सेन्टर, मधुबनी Since2010",
    "address": "Near Wastson School, Bank More, Madhubani, Bihar 847211",
    "phone": "द ओरो डेन्टल हेल्थ केयर सेन्टर, मधुबनी Since2010",
    "hours": "Open· Closes 19:00",
    "image_url": null
  },
  {
    "name": "Win Diagnostic Centre",
    "address": "Gillation Market Campus, Madhubani, Bihar 847211, India, Madhubani, Bihar 847211",
    "phone": "Win Diagnostic Centre",
    "hours": null,
    "image_url": "https://www.bing.com/maps/geoplat/REST/v1/Imagery/Map/RoadVibrant?ms=92,112&key=AnTcaqBi2ypp0xI-OZNi4W_ik2KhjgpqioTAtXLC8GzkMBQRMlyxvxyTnd5b73im&c=en-US&ur=in&da=n&logo=n&fmt=png&od=1&shading=hill&pp=26.3489,86.077103;dfp"
  },
  {
    "name": "Dr Lal PathLabs - Patient Service Centre",
    "address": "Ward No 4, Block Road, Ladania, Khutauna, Madhubani, Bihar 847227",
    "phone": "Dr Lal PathLabs - Patient Service Centre",
    "hours": "Open· Closes 19:00",
    "image_url": null
  },
  {
    "name": "Khushi Clinic",
    "address": "Sakari, Madhubani Pansoul Sakri Road, Madhubani, Bihar 847239",
    "phone": "Khushi Clinic",
    "hours": null,
    "image_url": "https://www.bing.com/maps/geoplat/REST/v1/Imagery/Map/RoadVibrant?ms=92,112&key=AnTcaqBi2ypp0xI-OZNi4W_ik2KhjgpqioTAtXLC8GzkMBQRMlyxvxyTnd5b73im&c=en-US&ur=in&da=n&logo=n&fmt=png&od=1&shading=hill&pp=26.219427,86.079727;dfp"
  },
  {
    "name": "Arun X-ray & Ultrasound Centre",
    "address": "Raghopur Balat, Rajnagar, Madhubani, Bihar 847236",
    "phone": "Arun X-ray & Ultrasound Centre",
    "hours": null,
    "image_url": "https://www.bing.com/maps/geoplat/REST/v1/Imagery/Map/RoadVibrant?ms=92,112&key=AnTcaqBi2ypp0xI-OZNi4W_ik2KhjgpqioTAtXLC8GzkMBQRMlyxvxyTnd5b73im&c=en-US&ur=in&da=n&logo=n&fmt=png&od=1&shading=hill&pp=26.35515,86.140312;dfp"
  }
]