[
  {
    "name": "PROF DR V Nagaraajan",
    "address": "Vn Neuro Care Center& Hospitals, 72 Vakil New Street, Madurai, Tamil Nadu, Tamil Nadu 625001",
    "phone": "PROF DR V Nagaraajan",
    "hours": "Open· Closes 19:00",
    "image_url": "/th?id=OLC.WrwutgP1bO%2fT4g480x360&w=92&h=134&c=8&rs=1&qlt=80&cdv=1&pid=Local"
  },
  {
    "name": "Dr. S Suganya Devi",
    "address": "Parthasarathy Street, Madurai, Tamil Nadu 625016",
    "phone": "Dr. S Suganya Devi",
    "hours": "Open· Closes 18:00",
    "image_url": "https://www.bing.com/maps/geoplat/REST/v1/Imagery/Map/RoadVibrant?ms=92,134&key=AnTcaqBi2ypp0xI-OZNi4W_ik2KhjgpqioTAtXLC8GzkMBQRMlyxvxyTnd5b73im&c=en-US&ur=in&da=n&logo=n&fmt=png&od=1&shading=hill&pp=9.920806,78.097565;dfp"
  },
  {
    "name": "Dr. P S Nagendran",
    "address": "26, Theni Rd, Arasaradi, Arappalayam, Madurai, Tamil Nadu",
    "phone": "Dr. P S Nagendran",
    "hours": null,
    "image_url": "https://www.bing.com/maps/geoplat/REST/v1/Imagery/Map/RoadVibrant?ms=92,112&key=AnTcaqBi2ypp0xI-OZNi4W_ik2KhjgpqioTAtXLC8GzkMBQRMlyxvxyTnd5b73im&c=en-US&ur=in&da=n&logo=n&fmt=png&od=1&shading=hill&pp=9.92842,78.097778;dfp"
  },
  {
    "name": "Dr.PRABHU'S Health CARE",
    "address": "25 A.A Road Rathinapuram Jeeva Nagar Busstop, Madurai, Tamil Nadu 625011",
    "phone": "Dr.PRABHU'S Health CARE",
    "hours": null,
    "image_url": "/th?id=OLC.yRoFi6wF2QitFQ480x360&w=92&h=112&c=8&rs=1&qlt=80&cdv=1&pid=Local"
  },
  {
    "name": "Dr Batra's Positive Health Clinic",
    "address": "Door Number 79/2, Bypass Main Road, Ponmeni Village, Madurai, Madurai 625010",
    "phone": "Dr Batra's Positive Health Clinic",
    "hours": null,
    "image_url": "https://www.bing.com/maps/geoplat/REST/v1/Imagery/Map/RoadVibrant?ms=92,112&key=AnTcaqBi2ypp0xI-OZNi4W_ik2KhjgpqioTAtXLC8GzkMBQRMlyxvxyTnd5b73im&c=en-US&ur=in&da=n&logo=n&fmt=png&od=1&shading=hill&pp=9.928941,78.095123;dfp"
  },
  {
    "name": "Dr. R Venkatachalam | Radha Krishna Clinic",
    "address": "84-87, Nethaji Road, W Masi St, Madurai, Tamil Nadu",
    "phone": "Dr. R Venkatachalam | Radha Krishna Clinic",
    "hours": "Closed· Opens 11:00",
    "image_url": "https://www.bing.com/maps/geoplat/REST/v1/Imagery/Map/RoadVibrant?ms=92,112&key=AnTcaqBi2ypp0xI-OZNi4W_ik2KhjgpqioTAtXLC8GzkMBQRMlyxvxyTnd5b73im&c=en-US&ur=in&da=n&logo=n&fmt=png&od=1&shading=hill&pp=9.916661,78.111603;dfp"
  },
  {
    "name": "KSN ENT Clinic  / ENT Care  (ENT Hospital / Endoscopy Clinic )",
    "address": "201/2 Ponmeni Bypass Road, Ponmeni, Madurai, Tamil Nadu 625016",
    "phone": "KSN ENT Clinic  / ENT Care  (ENT Hospital / Endoscopy Clinic )",
    "hours": "Closed· Opens 17:00",
    "image_url": null
  },
  {
    "name": "Laxmi Homeo clinic - Dr S Chidambaranathan MD (Hom) - Homeopathy doctor, Madurai Homeopathy clinic, Ma…",
    "address": "New Mahalipatti Road, Madurai, Tamil Nadu 625001",
    "phone": "Laxmi Homeo clinic - Dr S Chidambaranathan MD (Hom) - Homeopathy doctor, Madurai Homeopathy clinic, Ma…",
    "hours": "Closed· Opens 11:30",
    "image_url": null
  },
  {
    "name": "DR.Prabhu's Health Care Multispeciality Homoeo Clinic",
    "address": "25, A.A Road(Jeeva Nagar bus Stop), Jaihindpuram, Madurai, Tamil Nadu",
    "phone": "DR.Prabhu's Health Care Multispeciality Homoeo Clinic",
    "hours": null,
    "image_url": "https://www.bing.com/maps/geoplat/REST/v1/Imagery/Map/RoadVibrant?ms=92,112&key=AnTcaqBi2ypp0xI-OZNi4W_ik2KhjgpqioTAtXLC8GzkMBQRMlyxvxyTnd5b73im&c=en-US&ur=in&da=n&logo=n&fmt=png&od=1&shading=hill&pp=9.931477,78.100601;dfp"
  },
  {
    "name": "Dr Pavalan's Care Homoeopathic Clinic.",
    "address": "Kalavasal Palanganatham Bypass Road Madurai India 625003, Madurai 625003",
    "phone": "Dr Pavalan's Care Homoeopathic Clinic.",
    "hours": null,
    "image_url": "https://www.bing.com/maps/geoplat/REST/v1/Imagery/Map/RoadVibrant?ms=92,112&key=AnTcaqBi2ypp0xI-OZNi4W_ik2KhjgpqioTAtXLC8GzkMBQRMlyxvxyTnd5b73im&c=en-US&ur=in&da=n&logo=n&fmt=png&od=1&shading=hill&pp=9.90285,78.090897;dfp"
  },
  {
    "name": "Fenn Hospital",
    "address": "No.5, E2E2 Road, o.c.p.m School 1st Stop, Chinna Chokkikulam, Tamil Nadu 625002",
    "phone": "Fenn Hospital",
    "hours": "Open 24 hours",
    "image_url": null
  },
  {
    "name": "Sri Selvi Health Clinic / Doctor on Wheel",
    "address": "No. 13/a, Ponmeni Narayanan Street, S. S. Colony, Madurai, Tamil Nadu, Tamil Nadu 625010",
    "phone": "Sri Selvi Health Clinic / Doctor on Wheel",
    "hours": "Open· Closes 21:00",
    "image_url": null
  },
  {
    "name": "Ameer Clinic Complex",
    "address": "15/A, North Veli Street, Simmakkal, Madurai Main, Madurai, Tamil Nadu 625001",
    "phone": "Ameer Clinic Complex",
    "hours": null,
    "image_url": "https://www.bing.com/maps/geoplat/REST/v1/Imagery/Map/RoadVibrant?ms=92,112&key=AnTcaqBi2ypp0xI-OZNi4W_ik2KhjgpqioTAtXLC8GzkMBQRMlyxvxyTnd5b73im&c=en-US&ur=in&da=n&logo=n&fmt=png&od=1&shading=hill&pp=9.924818,78.121719;dfp"
  },
  {
    "name": "Dr. Shridharan Perumal",
    "address": "C.R. Complex, Matha Kovil Main Road. Landmark: Opp K.Pudur Bus Stand, Madurai, Tamil Nadu",
    "phone": "Dr. Shridharan Perumal",
    "hours": "Closed· Opens 18:00",
    "image_url": "https://www.bing.com/maps/geoplat/REST/v1/Imagery/Map/RoadVibrant?ms=92,112&key=AnTcaqBi2ypp0xI-OZNi4W_ik2KhjgpqioTAtXLC8GzkMBQRMlyxvxyTnd5b73im&c=en-US&ur=in&da=n&logo=n&fmt=png&od=1&shading=hill&pp=9.947291,78.143166;dfp"
  },
  {
    "name": "Dr Venkatesh Neurologist",
    "address": "Athithi Neuro Clinic, Madurai, Tamil Nadu 625020",
    "phone": "Dr Venkatesh Neurologist",
    "hours": null,
    "image_url": null
  },
  {
    "name": "Sathyam Agro Clinic",
    "address": "12, Ghouse Enclave, 70ft Road, Ellis Nagar, Madurai, Tamil Nadu 625016",
    "phone": "Sathyam Agro Clinic",
    "hours": null,
    "image_url": null
  },
  {
    "name": "Dr. Ravisankar Kk",
    "address": "107, S Marret St, South Gate, Periyar, Madurai Main, Madurai, Tamil Nadu",
    "phone": "Dr. Ravisankar Kk",
    "hours": null,
    "image_url": null
  },
  {
    "name": "Bakshi Herbal Clinic",
    "address": "Nethaji Road, Madurai Main, Madurai, Tamil Nadu 625001",
    "phone": "Bakshi Herbal Clinic",
    "hours": "Open· Closes 13:00",
    "image_url": null
  }
]