[
  {
    "name": "Dr. Sukumar Sura",
    "address": "Padmavathi Colony, Mahabubnagar - 509001, Mahbubnagar, Telangana",
    "phone": "Dr. Sukumar Sura",
    "hours": "Closed· Opens Sep 28 at 11:00",
    "image_url": "/th?id=OLC.XS7DDfniXwLuZA480x360&w=92&h=112&c=8&rs=1&qlt=80&cdv=1&pid=Local"
  },
  {
    "name": "Dr. Dilip Vasant- General & Laparoscopic Surgeon",
    "address": "Swetha Nursing Home - Bethesda Center For Women, 1-6-60/1, Paul Saab Gutta, Station Road, Near Yerra Sat…",
    "phone": "Dr. Dilip Vasant- General & Laparoscopic Surgeon",
    "hours": "Closed· Opens 14:00",
    "image_url": "https://www.bing.com/maps/geoplat/REST/v1/Imagery/Map/RoadVibrant?ms=92,134&key=AnTcaqBi2ypp0xI-OZNi4W_ik2KhjgpqioTAtXLC8GzkMBQRMlyxvxyTnd5b73im&c=en-US&ur=in&da=n&logo=n&fmt=png&od=1&shading=hill&pp=16.740467,77.979416;dfp"
  },
  {
    "name": "Dr. Elma Ramesh Kumar- General Physician In Telangana",
    "address": "Yashoda E N T Clinic, Badepally, Jedcharla, Gandhi Chowk, Mahabubnagar, Telangana 509302",
    "phone": "Dr. Elma Ramesh Kumar- General Physician In Telangana",
    "hours": "Closed· Opens 11:00",
    "image_url": "https://www.bing.com/maps/geoplat/REST/v1/Imagery/Map/RoadVibrant?ms=92,134&key=AnTcaqBi2ypp0xI-OZNi4W_ik2KhjgpqioTAtXLC8GzkMBQRMlyxvxyTnd5b73im&c=en-US&ur=in&da=n&logo=n&fmt=png&od=1&shading=hill&pp=16.752792,78.00119;dfp"
  },
  {
    "name": "Dr.ramakrishna Rajpurohit Clinic",
    "address": "Sbh Road, Masjid E Rahmath, Mahbubnagar, Telangana 509001",
    "phone": "Dr.ramakrishna Rajpurohit Clinic",
    "hours": null,
    "image_url": "https://www.bing.com/maps/geoplat/REST/v1/Imagery/Map/RoadVibrant?ms=92,112&key=AnTcaqBi2ypp0xI-OZNi4W_ik2KhjgpqioTAtXLC8GzkMBQRMlyxvxyTnd5b73im&c=en-US&ur=in&da=n&logo=n&fmt=png&od=1&shading=hill&pp=16.746216,77.986534;dfp"
  },
  {
    "name": "Dr R Gangadhar Goud Clinic",
    "address": "Rehamania Masjid Road, Rehamania Masjid, Mahbubnagar, Telangana 509001",
    "phone": "Dr R Gangadhar Goud Clinic",
    "hours": null,
    "image_url": "https://www.bing.com/maps/geoplat/REST/v1/Imagery/Map/RoadVibrant?ms=92,112&key=AnTcaqBi2ypp0xI-OZNi4W_ik2KhjgpqioTAtXLC8GzkMBQRMlyxvxyTnd5b73im&c=en-US&ur=in&da=n&logo=n&fmt=png&od=1&shading=hill&pp=16.744122,77.989456;dfp"
  },
  {
    "name": "Nagina Shehzadi Clinic",
    "address": "Street No. 3, Siddiqia Mill Colony, Faisalabad, Punjab, Pakistan, لدھیانہ 141008",
    "phone": "Nagina Shehzadi Clinic",
    "hours": null,
    "image_url": "https://www.bing.com/maps/geoplat/REST/v1/Imagery/Map/RoadVibrant?ms=92,112&key=AnTcaqBi2ypp0xI-OZNi4W_ik2KhjgpqioTAtXLC8GzkMBQRMlyxvxyTnd5b73im&c=en-US&ur=in&da=n&logo=n&fmt=png&od=1&shading=hill&pp=16.742611,77.981743;dfp"
  },
  {
    "name": "Abhayaprada Hospital",
    "address": "1-3-148, Rajendra Nagar, Near Shetty Complex, Mahbubnagar, Telangana 509001",
    "phone": "Abhayaprada Hospital",
    "hours": "Open 24 hours",
    "image_url": null
  },
  {
    "name": "Dr. Am Reddy",
    "address": "House Number 1-3-160/15, Rajendra Nagar, New Town, Mahbubnagar, Telangana",
    "phone": "Dr. Am Reddy",
    "hours": "Opens in 7 mins",
    "image_url": null
  },
  {
    "name": "Aarogya Hospital Dr.Pradeep Gubba(MBBS, MD)",
    "address": "opp. Siti Endoscan, Rajendra Nagar, Mahbubnagar, Telangana",
    "phone": "Aarogya Hospital Dr.Pradeep Gubba(MBBS, MD)",
    "hours": null,
    "image_url": "https://www.bing.com/maps/geoplat/REST/v1/Imagery/Map/RoadVibrant?ms=92,112&key=AnTcaqBi2ypp0xI-OZNi4W_ik2KhjgpqioTAtXLC8GzkMBQRMlyxvxyTnd5b73im&c=en-US&ur=in&da=n&logo=n&fmt=png&od=1&shading=hill&pp=16.756304,78.001129;dfp"
  },
  {
    "name": "GANESH LAB C/o Dr Sreelatha Reddy Hospital",
    "address": "Opp Menaka Theater, Raichur Rd, Ganesh Nagar, Mahbubnagar, Telangana",
    "phone": "GANESH LAB C/o Dr Sreelatha Reddy Hospital",
    "hours": null,
    "image_url": "https://www.bing.com/maps/geoplat/REST/v1/Imagery/Map/RoadVibrant?ms=92,112&key=AnTcaqBi2ypp0xI-OZNi4W_ik2KhjgpqioTAtXLC8GzkMBQRMlyxvxyTnd5b73im&c=en-US&ur=in&da=n&logo=n&fmt=png&od=1&shading=hill&pp=16.735622,77.98745;dfp"
  },
  {
    "name": "Sri Rama Clinic",
    "address": "Ram Mandir X Road, Chanakya Talent School, Putnala Batty, Mahbubnagar, Telangana 509001",
    "phone": "Sri Rama Clinic",
    "hours": null,
    "image_url": "https://www.bing.com/maps/geoplat/REST/v1/Imagery/Map/RoadVibrant?ms=92,112&key=AnTcaqBi2ypp0xI-OZNi4W_ik2KhjgpqioTAtXLC8GzkMBQRMlyxvxyTnd5b73im&c=en-US&ur=in&da=n&logo=n&fmt=png&od=1&shading=hill&pp=16.742502,77.987564;dfp"
  },
  {
    "name": "Dr Positive Homeopathy Mahabubnagar",
    "address": "H.N: 1-3-160/15, NRR Complex, Opp Litmus Diagnostics Behind Setty Complex, Rajendra Nagar, New Town, M…",
    "phone": "Dr Positive Homeopathy Mahabubnagar",
    "hours": "Opens in 7 mins",
    "image_url": "https://www.bing.com/maps/geoplat/REST/v1/Imagery/Map/RoadVibrant?ms=92,112&key=AnTcaqBi2ypp0xI-OZNi4W_ik2KhjgpqioTAtXLC8GzkMBQRMlyxvxyTnd5b73im&c=en-US&ur=in&da=n&logo=n&fmt=png&od=1&shading=hill&pp=16.750168,78.001717;dfp"
  },
  {
    "name": "Ahmed's Poly Clinic",
    "address": "Sp Subba Reddy Central School, Shashahab Gutta, Mahbubnagar, Telangana 509001",
    "phone": "Ahmed's Poly Clinic",
    "hours": null,
    "image_url": null
  },
  {
    "name": "Saisudha Clinic",
    "address": "Rajendra Nagar, Mahbubnagar, Telangana 509001",
    "phone": "Saisudha Clinic",
    "hours": null,
    "image_url": "https://www.bing.com/maps/geoplat/REST/v1/Imagery/Map/RoadVibrant?ms=92,112&key=AnTcaqBi2ypp0xI-OZNi4W_ik2KhjgpqioTAtXLC8GzkMBQRMlyxvxyTnd5b73im&c=en-US&ur=in&da=n&logo=n&fmt=png&od=1&shading=hill&pp=16.752991,78.001732;dfp"
  },
  {
    "name": "Maseeha Clinic & Hijama Centre",
    "address": "Shah Saheb Gutta, Mahbubnagar, Telangana",
    "phone": "Maseeha Clinic & Hijama Centre",
    "hours": null,
    "image_url": "https://www.bing.com/maps/geoplat/REST/v1/Imagery/Map/RoadVibrant?ms=92,112&key=AnTcaqBi2ypp0xI-OZNi4W_ik2KhjgpqioTAtXLC8GzkMBQRMlyxvxyTnd5b73im&c=en-US&ur=in&da=n&logo=n&fmt=png&od=1&shading=hill&pp=16.742512,78.007896;dfp"
  },
  {
    "name": "Best Orthopedic surgeon - Dr. Ifthekar Ali | Apollo Hospitals | Karim Nagar",
    "address": "Railways Station Road, Road No. 2, Subhash Nagar, Karimnagar, Telangana",
    "phone": "Best Orthopedic surgeon - Dr. Ifthekar Ali | Apollo Hospitals | Karim Nagar",
    "hours": null,
    "image_url": "https://www.bing.com/maps/geoplat/REST/v1/Imagery/Map/RoadVibrant?ms=92,112&key=AnTcaqBi2ypp0xI-OZNi4W_ik2KhjgpqioTAtXLC8GzkMBQRMlyxvxyTnd5b73im&c=en-US&ur=in&da=n&logo=n&fmt=png&od=1&shading=hill&pp=16.751863,77.994774;dfp"
  },
  {
    "name": "Sri Balaji Orthopedic Clinic",
    "address": "1-3-128/A/1, GLG Complex, Rajandranagar, Mahbubnagar, Mahabubnagar, Telangana 509001",
    "phone": "Sri Balaji Orthopedic Clinic",
    "hours": null,
    "image_url": "https://www.bing.com/maps/geoplat/REST/v1/Imagery/Map/RoadVibrant?ms=92,112&key=AnTcaqBi2ypp0xI-OZNi4W_ik2KhjgpqioTAtXLC8GzkMBQRMlyxvxyTnd5b73im&c=en-US&ur=in&da=n&logo=n&fmt=png&od=1&shading=hill&pp=16.753336,78.001755;dfp"
  },
  {
    "name": "Nirmal Diagnostic Centre",
    "address": "H.no 1-3-149/7, Opp Shetty Complex, Rajendranagar, Mahabubnagar, Mahabubnagar, Telangana, Telangan…",
    "phone": "Nirmal Diagnostic Centre",
    "hours": "Open· Closes 19:00",
    "image_url": "https://www.bing.com/maps/geoplat/REST/v1/Imagery/Map/RoadVibrant?ms=92,134&key=AnTcaqBi2ypp0xI-OZNi4W_ik2KhjgpqioTAtXLC8GzkMBQRMlyxvxyTnd5b73im&c=en-US&ur=in&da=n&logo=n&fmt=png&od=1&shading=hill&pp=16.752802,78.003059;dfp"
  }
]