[
  {
    "name": "Dr R K Mishra",
    "address": "Pharenda Road, Swastik Hospital, Maharajganj, Mahrajganj, Uttar Pradesh 273303",
    "phone": "Dr R K Mishra",
    "hours": null,
    "image_url": "https://www.bing.com/maps/geoplat/REST/v1/Imagery/Map/RoadVibrant?ms=92,112&key=AnTcaqBi2ypp0xI-OZNi4W_ik2KhjgpqioTAtXLC8GzkMBQRMlyxvxyTnd5b73im&c=en-US&ur=in&da=n&logo=n&fmt=png&od=1&shading=hill&pp=27.14496,83.551903;dfp"
  },
  {
    "name": "Dr Rashmi Srivastava Clinic",
    "address": "College, Sh 86, Shastri Nagar, Mahrajganj, Uttar Pradesh 273303",
    "phone": "Dr Rashmi Srivastava Clinic",
    "hours": null,
    "image_url": "https://www.bing.com/maps/geoplat/REST/v1/Imagery/Map/RoadVibrant?ms=92,112&key=AnTcaqBi2ypp0xI-OZNi4W_ik2KhjgpqioTAtXLC8GzkMBQRMlyxvxyTnd5b73im&c=en-US&ur=in&da=n&logo=n&fmt=png&od=1&shading=hill&pp=27.15036,83.564743;dfp"
  },
  {
    "name": "Natraj Clinic",
    "address": "Nichlaul Road, Ram Manohar Lohiya Children Park, Maharajganj, Mahrajganj, Uttar Pradesh 273303",
    "phone": "Natraj Clinic",
    "hours": null,
    "image_url": "https://www.bing.com/maps/geoplat/REST/v1/Imagery/Map/RoadVibrant?ms=92,112&key=AnTcaqBi2ypp0xI-OZNi4W_ik2KhjgpqioTAtXLC8GzkMBQRMlyxvxyTnd5b73im&c=en-US&ur=in&da=n&logo=n&fmt=png&od=1&shading=hill&pp=27.15416,83.56826;dfp"
  },
  {
    "name": "Mordan Clinic",
    "address": "Nichlaul College Road, Durga Mata Mandir, Bismil Nagar Maharajganj, Mahrajganj, Uttar Pradesh 273303",
    "phone": "Mordan Clinic",
    "hours": null,
    "image_url": "https://www.bing.com/maps/geoplat/REST/v1/Imagery/Map/RoadVibrant?ms=92,112&key=AnTcaqBi2ypp0xI-OZNi4W_ik2KhjgpqioTAtXLC8GzkMBQRMlyxvxyTnd5b73im&c=en-US&ur=in&da=n&logo=n&fmt=png&od=1&shading=hill&pp=27.151161,83.559349;dfp"
  },
  {
    "name": "Dr. Hemant Srivastava",
    "address": "Shivla Road, Ward No 2, Shiv Nagar, Padri, Maharajganj, Uttar Pradesh",
    "phone": "Dr. Hemant Srivastava",
    "hours": "Open· Closes 13:00",
    "image_url": "https://www.bing.com/maps/geoplat/REST/v1/Imagery/Map/RoadVibrant?ms=92,112&key=AnTcaqBi2ypp0xI-OZNi4W_ik2KhjgpqioTAtXLC8GzkMBQRMlyxvxyTnd5b73im&c=en-US&ur=in&da=n&logo=n&fmt=png&od=1&shading=hill&pp=27.136864,83.568367;dfp"
  },
  {
    "name": "Mishra Clinic",
    "address": "Radheshyam Mishra, Ward No. 11 N.P.P. Chauk, Mithaura, Maharajganj, Uttar Pradesh 273303",
    "phone": "Mishra Clinic",
    "hours": null,
    "image_url": "https://www.bing.com/maps/geoplat/REST/v1/Imagery/Map/RoadVibrant?ms=92,112&key=AnTcaqBi2ypp0xI-OZNi4W_ik2KhjgpqioTAtXLC8GzkMBQRMlyxvxyTnd5b73im&c=en-US&ur=in&da=n&logo=n&fmt=png&od=1&shading=hill&pp=27.133301,83.566704;dfp"
  },
  {
    "name": "S S Netra Chikitsalaya",
    "address": "Pharenda Road, M S Tower, Maharajganj, Mahrajganj, Uttar Pradesh 273303",
    "phone": "S S Netra Chikitsalaya",
    "hours": null,
    "image_url": "https://www.bing.com/maps/geoplat/REST/v1/Imagery/Map/RoadVibrant?ms=92,112&key=AnTcaqBi2ypp0xI-OZNi4W_ik2KhjgpqioTAtXLC8GzkMBQRMlyxvxyTnd5b73im&c=en-US&ur=in&da=n&logo=n&fmt=png&od=1&shading=hill&pp=27.144714,83.552238;dfp"
  },
  {
    "name": "Dr. Nand Kishor- General Physician",
    "address": "Nand Kishor Clinic, Jungal Baki, Tukara No.14, Maharajganj, Uttar Pradesh 273303",
    "phone": "Dr. Nand Kishor- General Physician",
    "hours": "Closed· Opens 11:00",
    "image_url": "https://www.bing.com/maps/geoplat/REST/v1/Imagery/Map/RoadVibrant?ms=92,134&key=AnTcaqBi2ypp0xI-OZNi4W_ik2KhjgpqioTAtXLC8GzkMBQRMlyxvxyTnd5b73im&c=en-US&ur=in&da=n&logo=n&fmt=png&od=1&shading=hill&pp=27.03627,83.506996;dfp"
  },
  {
    "name": "Pragya Dentel Clinic",
    "address": "Chiuraha Road, Noori Jama Masjid, Azad Nagar Maharaganj, Mahrajganj, Uttar Pradesh 273303",
    "phone": "Pragya Dentel Clinic",
    "hours": null,
    "image_url": "https://www.bing.com/maps/geoplat/REST/v1/Imagery/Map/RoadVibrant?ms=92,112&key=AnTcaqBi2ypp0xI-OZNi4W_ik2KhjgpqioTAtXLC8GzkMBQRMlyxvxyTnd5b73im&c=en-US&ur=in&da=n&logo=n&fmt=png&od=1&shading=hill&pp=27.15159,83.558128;dfp"
  },
  {
    "name": "Shweta Homio Clinic",
    "address": "U P Sahkari Gramin Bank Limited, Sh 86, Shastri Nagar, Mahrajganj, Uttar Pradesh 273303",
    "phone": "Shweta Homio Clinic",
    "hours": null,
    "image_url": "https://www.bing.com/maps/geoplat/REST/v1/Imagery/Map/RoadVibrant?ms=92,112&key=AnTcaqBi2ypp0xI-OZNi4W_ik2KhjgpqioTAtXLC8GzkMBQRMlyxvxyTnd5b73im&c=en-US&ur=in&da=n&logo=n&fmt=png&od=1&shading=hill&pp=27.143982,83.557961;dfp"
  },
  {
    "name": "Ma Vaishnavi Dentel Clinic",
    "address": "Nh730, Ram Manohar Lohiya Children Park, Shastri Nagar, Mahrajganj, Uttar Pradesh 273303",
    "phone": "Ma Vaishnavi Dentel Clinic",
    "hours": null,
    "image_url": "https://www.bing.com/maps/geoplat/REST/v1/Imagery/Map/RoadVibrant?ms=92,112&key=AnTcaqBi2ypp0xI-OZNi4W_ik2KhjgpqioTAtXLC8GzkMBQRMlyxvxyTnd5b73im&c=en-US&ur=in&da=n&logo=n&fmt=png&od=1&shading=hill&pp=27.137697,83.563698;dfp"
  },
  {
    "name": "Shurti Clinic",
    "address": "Haidargarh Road, Maraj Ganj, Raebareli, Maharajganj, Uttar Pradesh 229306",
    "phone": "Shurti Clinic",
    "hours": null,
    "image_url": "https://www.bing.com/maps/geoplat/REST/v1/Imagery/Map/RoadVibrant?ms=92,112&key=AnTcaqBi2ypp0xI-OZNi4W_ik2KhjgpqioTAtXLC8GzkMBQRMlyxvxyTnd5b73im&c=en-US&ur=in&da=n&logo=n&fmt=png&od=1&shading=hill&pp=26.383381,81.275925;dfp"
  },
  {
    "name": "City Altrasound Pathology And Xray",
    "address": "Near Shyam Mandir,Farenda Road, Maharajganj, Uttar Pradesh 273303",
    "phone": "City Altrasound Pathology And Xray",
    "hours": null,
    "image_url": "https://www.bing.com/maps/geoplat/REST/v1/Imagery/Map/RoadVibrant?ms=92,112&key=AnTcaqBi2ypp0xI-OZNi4W_ik2KhjgpqioTAtXLC8GzkMBQRMlyxvxyTnd5b73im&c=en-US&ur=in&da=n&logo=n&fmt=png&od=1&shading=hill&pp=27.144409,83.553436;dfp"
  },
  {
    "name": "Om Advanced Homoeo Clinic N Research Centre",
    "address": "Pharend - Maharajganj Rd, in Front of SBI Bank, Maharajganj, Uttar Pradesh",
    "phone": "Om Advanced Homoeo Clinic N Research Centre",
    "hours": null,
    "image_url": "https://www.bing.com/maps/geoplat/REST/v1/Imagery/Map/RoadVibrant?ms=92,112&key=AnTcaqBi2ypp0xI-OZNi4W_ik2KhjgpqioTAtXLC8GzkMBQRMlyxvxyTnd5b73im&c=en-US&ur=in&da=n&logo=n&fmt=png&od=1&shading=hill&pp=26.255596,81.233971;dfp"
  },
  {
    "name": "Sakchi Pathology",
    "address": "College Road, Jawaharlal Nehru Smarak Post Graduate College, Mahrajganj, Uttar Pradesh 273303",
    "phone": "Sakchi Pathology",
    "hours": null,
    "image_url": "https://www.bing.com/maps/geoplat/REST/v1/Imagery/Map/RoadVibrant?ms=92,112&key=AnTcaqBi2ypp0xI-OZNi4W_ik2KhjgpqioTAtXLC8GzkMBQRMlyxvxyTnd5b73im&c=en-US&ur=in&da=n&logo=n&fmt=png&od=1&shading=hill&pp=27.146877,83.563965;dfp"
  },
  {
    "name": "Vision Pathology",
    "address": "Farenda Road, Near Main Chauraha, Maharajganj, Uttar Pradesh 273303",
    "phone": "Vision Pathology",
    "hours": "Open 24 hours",
    "image_url": null
  },
  {
    "name": "Pramila Altrasaund Pathology Center",
    "address": "Nh730, Ram Manohar Lohiya Children Park, Shastri Nagar, Maharajganj, Uttar Pradesh 273303",
    "phone": "Pramila Altrasaund Pathology Center",
    "hours": null,
    "image_url": "https://www.bing.com/maps/geoplat/REST/v1/Imagery/Map/RoadVibrant?ms=92,112&key=AnTcaqBi2ypp0xI-OZNi4W_ik2KhjgpqioTAtXLC8GzkMBQRMlyxvxyTnd5b73im&c=en-US&ur=in&da=n&logo=n&fmt=png&od=1&shading=hill&pp=27.146976,83.545029;dfp"
  }
]