[
  {
    "name": "Sai Clinic Komakhan",
    "address": "Font Of Old Mandi, Komakhan, Bagbahara, Chhura Road, Mahasamund, Chhattisgarh 493449",
    "phone": "Sai Clinic Komakhan",
    "hours": null,
    "image_url": "https://www.bing.com/maps/geoplat/REST/v1/Imagery/Map/RoadVibrant?ms=92,112&key=AnTcaqBi2ypp0xI-OZNi4W_ik2KhjgpqioTAtXLC8GzkMBQRMlyxvxyTnd5b73im&c=en-US&ur=in&da=n&logo=n&fmt=png&od=1&shading=hill&pp=21.103054,82.091949;dfp"
  },
  {
    "name": "Patanjali Chikitsalay",
    "address": "Ward No 30, Bhalesar Road, Adrash Nagar, Mahasamund, Chhattisgarh 493445",
    "phone": "Patanjali Chikitsalay",
    "hours": "Open· Closes 21:30",
    "image_url": "https://www.bing.com/maps/geoplat/REST/v1/Imagery/Map/RoadVibrant?ms=92,134&key=AnTcaqBi2ypp0xI-OZNi4W_ik2KhjgpqioTAtXLC8GzkMBQRMlyxvxyTnd5b73im&c=en-US&ur=in&da=n&logo=n&fmt=png&od=1&shading=hill&pp=21.104412,82.094719;dfp"
  },
  {
    "name": "Maa Memorial Physio Care Clinic",
    "address": "256, Shubash Nagar, Near Shantoshi Mandir, Mahasamund, Chhattisgarh 493445",
    "phone": "Maa Memorial Physio Care Clinic",
    "hours": null,
    "image_url": "https://www.bing.com/maps/geoplat/REST/v1/Imagery/Map/RoadVibrant?ms=92,112&key=AnTcaqBi2ypp0xI-OZNi4W_ik2KhjgpqioTAtXLC8GzkMBQRMlyxvxyTnd5b73im&c=en-US&ur=in&da=n&logo=n&fmt=png&od=1&shading=hill&pp=21.102116,82.090294;dfp"
  },
  {
    "name": "Dr. RAMESHWAR LAL CHAUHAN | General Physician | BABU JI CARE HOSPITAL ARANG",
    "address": "Babu JI Care Hospital Arang, Ward 6, Arang, Chhattisgarh, India, 493441, Arang, Madhya Pradesh 4…",
    "phone": "Dr. RAMESHWAR LAL CHAUHAN | General Physician | BABU JI CARE HOSPITAL ARANG",
    "hours": null,
    "image_url": "/th?id=OLC.M2TT3SiGq2ox%2bA480x360&w=92&h=112&c=8&rs=1&qlt=80&cdv=1&pid=Local"
  },
  {
    "name": "DR. Kosaria Clinic",
    "address": "Jay Satambh CHowk, Saraipali Main Road, Saraipali, Mahasamund, Chhattisgarh 493558",
    "phone": "DR. Kosaria Clinic",
    "hours": null,
    "image_url": "https://www.bing.com/maps/geoplat/REST/v1/Imagery/Map/RoadVibrant?ms=92,112&key=AnTcaqBi2ypp0xI-OZNi4W_ik2KhjgpqioTAtXLC8GzkMBQRMlyxvxyTnd5b73im&c=en-US&ur=in&da=n&logo=n&fmt=png&od=1&shading=hill&pp=21.308542,82.990471;dfp"
  },
  {
    "name": "Dr. Nikesh Nishad General Physician",
    "address": "Arang Raipur, Raipur, Chhattisgarh 493441",
    "phone": "Dr. Nikesh Nishad General Physician",
    "hours": "Open· Closes 11:00",
    "image_url": "https://www.bing.com/maps/geoplat/REST/v1/Imagery/Map/RoadVibrant?ms=92,134&key=AnTcaqBi2ypp0xI-OZNi4W_ik2KhjgpqioTAtXLC8GzkMBQRMlyxvxyTnd5b73im&c=en-US&ur=in&da=n&logo=n&fmt=png&od=1&shading=hill&pp=21.194906,81.969872;dfp"
  },
  {
    "name": "Shri Dhanvantri Ayurved & Homeo Clinic",
    "address": "Asha Nagar, Behind Mother Convent School, Chhattisgarh",
    "phone": "Shri Dhanvantri Ayurved & Homeo Clinic",
    "hours": null,
    "image_url": "https://www.bing.com/maps/geoplat/REST/v1/Imagery/Map/RoadVibrant?ms=92,112&key=AnTcaqBi2ypp0xI-OZNi4W_ik2KhjgpqioTAtXLC8GzkMBQRMlyxvxyTnd5b73im&c=en-US&ur=in&da=n&logo=n&fmt=png&od=1&shading=hill&pp=21.26685,82.041275;dfp"
  },
  {
    "name": "Rao Pathology & Clinic",
    "address": "Netaji Chowk, Near Bus Stand, Arang, Chhattisgarh 493441, India, Arang, Chhattisgarh 493441",
    "phone": "Rao Pathology & Clinic",
    "hours": null,
    "image_url": "https://www.bing.com/maps/geoplat/REST/v1/Imagery/Map/RoadVibrant?ms=92,112&key=AnTcaqBi2ypp0xI-OZNi4W_ik2KhjgpqioTAtXLC8GzkMBQRMlyxvxyTnd5b73im&c=en-US&ur=in&da=n&logo=n&fmt=png&od=1&shading=hill&pp=21.195499,81.962196;dfp"
  }
]