[
  {
    "name": "Dr Bhavya Shah-Spine Surgeon",
    "address": "Sanjivani Hospital, Radhanpur Circle, Mehsana, GJ, India, Mehsana, Gujarat 384002",
    "phone": "Dr Bhavya Shah-Spine Surgeon",
    "hours": null,
    "image_url": "/th?id=OLC.Pp6uhxzstPuFSQ480x360&w=92&h=112&c=8&rs=1&qlt=80&cdv=1&pid=Local"
  },
  {
    "name": "Dr. Umesh Goswami",
    "address": "Gujrat Sh41, Modhera Circle, Mehsana, Mahesana, Gujarat 384002",
    "phone": "Dr. Umesh Goswami",
    "hours": null,
    "image_url": "https://www.bing.com/maps/geoplat/REST/v1/Imagery/Map/RoadVibrant?ms=92,112&key=AnTcaqBi2ypp0xI-OZNi4W_ik2KhjgpqioTAtXLC8GzkMBQRMlyxvxyTnd5b73im&c=en-US&ur=in&da=n&logo=n&fmt=png&od=1&shading=hill&pp=23.594719,72.378662;dfp"
  },
  {
    "name": "Dr Batra’s Homeopathy, Hair & Skin Clinic",
    "address": "Shop No. 13/14, Opposite Classic Plaza Highway Mehsana, Near Mehsana Urban Co-Operative Bank, M…",
    "phone": "Dr Batra’s Homeopathy, Hair & Skin Clinic",
    "hours": "Closed· Opens 11:00",
    "image_url": "/th?id=OLC.1a2XXcuQmY08rw480x360&w=92&h=134&c=8&rs=1&qlt=80&cdv=1&pid=Local"
  },
  {
    "name": "Dr Ramesh Clinic",
    "address": "I C B Office, Hansara Bazar Rd, Pilaji Ganj, Azad Chowk, Mahesana, Gujarat 384001",
    "phone": "Dr Ramesh Clinic",
    "hours": null,
    "image_url": "https://www.bing.com/maps/geoplat/REST/v1/Imagery/Map/RoadVibrant?ms=92,112&key=AnTcaqBi2ypp0xI-OZNi4W_ik2KhjgpqioTAtXLC8GzkMBQRMlyxvxyTnd5b73im&c=en-US&ur=in&da=n&logo=n&fmt=png&od=1&shading=hill&pp=23.595701,72.387001;dfp"
  },
  {
    "name": "Dr. Tapan Gandhi",
    "address": "Mehsana District, Mahesana, Gujarat",
    "phone": "Dr. Tapan Gandhi",
    "hours": null,
    "image_url": "https://www.bing.com/maps/geoplat/REST/v1/Imagery/Map/RoadVibrant?ms=92,112&key=AnTcaqBi2ypp0xI-OZNi4W_ik2KhjgpqioTAtXLC8GzkMBQRMlyxvxyTnd5b73im&c=en-US&ur=in&da=n&logo=n&fmt=png&od=1&shading=hill&pp=23.587961,72.369324;dfp"
  },
  {
    "name": "Dr. Ketan H Chaudhary | Abhay Medical Hospital",
    "address": "OPP Dudhasagar Dairy OLD Taluka Police Station, Mehsana, Gujarat, India, 384002, Mehsana, Madhya Pr…",
    "phone": "Dr. Ketan H Chaudhary | Abhay Medical Hospital",
    "hours": "Open· Closes 13:00",
    "image_url": "/th?id=OLC.n8aCN6yT08uhMg480x360&w=92&h=112&c=8&rs=1&qlt=80&cdv=1&pid=Local"
  },
  {
    "name": "Dr Nilesh Dixit",
    "address": "Radhanpur Cross Road, Mehsana, Gujarat, Gujarat 384002",
    "phone": "Dr Nilesh Dixit",
    "hours": null,
    "image_url": "https://www.bing.com/maps/geoplat/REST/v1/Imagery/Map/RoadVibrant?ms=92,112&key=AnTcaqBi2ypp0xI-OZNi4W_ik2KhjgpqioTAtXLC8GzkMBQRMlyxvxyTnd5b73im&c=en-US&ur=in&da=n&logo=n&fmt=png&od=1&shading=hill&pp=23.604975,72.380844;dfp"
  },
  {
    "name": "Ayurkalp Ayurvedic Hospital",
    "address": "15-19, Krishanam Skywalk, Near Radhekirtan Flat, Radhanpur Road, Mehsana, Gujarat 384002",
    "phone": "Ayurkalp Ayurvedic Hospital",
    "hours": null,
    "image_url": null
  },
  {
    "name": "Krishna Children Hospital",
    "address": "384002 Radhampur Road, Mahesana, Gujarat 384002",
    "phone": "Krishna Children Hospital",
    "hours": "Open· Closes 19:00",
    "image_url": null
  },
  {
    "name": "Dr. Kaushal Patel | Best Obstetrician gynecologist and maternity specialist near me Visanagar Gujarat",
    "address": "Aarni Meternity Hospital First Flouruma Market, Near klp Distributors, Opp. Bus Stand, Visnagar, Gujarat",
    "phone": "Dr. Kaushal Patel | Best Obstetrician gynecologist and maternity specialist near me Visanagar Gujarat",
    "hours": null,
    "image_url": "https://www.bing.com/maps/geoplat/REST/v1/Imagery/Map/RoadVibrant?ms=92,112&key=AnTcaqBi2ypp0xI-OZNi4W_ik2KhjgpqioTAtXLC8GzkMBQRMlyxvxyTnd5b73im&c=en-US&ur=in&da=n&logo=n&fmt=png&od=1&shading=hill&pp=23.699089,72.541451;dfp"
  },
  {
    "name": "Dr Kiritbhai Clinic",
    "address": "Municipal Market Railway Circle, G.D. Highschool Road, Visnagar, Gujarat 384315",
    "phone": "Dr Kiritbhai Clinic",
    "hours": null,
    "image_url": "https://www.bing.com/maps/geoplat/REST/v1/Imagery/Map/RoadVibrant?ms=92,112&key=AnTcaqBi2ypp0xI-OZNi4W_ik2KhjgpqioTAtXLC8GzkMBQRMlyxvxyTnd5b73im&c=en-US&ur=in&da=n&logo=n&fmt=png&od=1&shading=hill&pp=23.702457,72.542793;dfp"
  },
  {
    "name": "TAPAS AYURVEDIC HOSPITAL (piles, fissure, fistula)Dr. Vijay chaudhari",
    "address": "Block_b 2nd Floor, Joyous hub Town, s.t. Workshop Road, Near Modhera Circle, Mehsana, Gujarat",
    "phone": "TAPAS AYURVEDIC HOSPITAL (piles, fissure, fistula)Dr. Vijay chaudhari",
    "hours": null,
    "image_url": "https://www.bing.com/maps/geoplat/REST/v1/Imagery/Map/RoadVibrant?ms=92,112&key=AnTcaqBi2ypp0xI-OZNi4W_ik2KhjgpqioTAtXLC8GzkMBQRMlyxvxyTnd5b73im&c=en-US&ur=in&da=n&logo=n&fmt=png&od=1&shading=hill&pp=23.594704,72.382828;dfp"
  },
  {
    "name": "Krishna : The Multispeciality Clinic",
    "address": "C303 Swagat Rainforest 4 Near Sargasan Cross Road Gandhinagar, Visnagar, Gujarat, Gujarat 384315",
    "phone": "Krishna : The Multispeciality Clinic",
    "hours": null,
    "image_url": "https://www.bing.com/maps/geoplat/REST/v1/Imagery/Map/RoadVibrant?ms=92,112&key=AnTcaqBi2ypp0xI-OZNi4W_ik2KhjgpqioTAtXLC8GzkMBQRMlyxvxyTnd5b73im&c=en-US&ur=in&da=n&logo=n&fmt=png&od=1&shading=hill&pp=23.704855,72.537704;dfp"
  },
  {
    "name": "Ridham Women's Hospital & Endoscopy Center",
    "address": "Ankur Society, Opp B Ed College, Visnagar, Gujarat, Gujarat 384315",
    "phone": "Ridham Women's Hospital & Endoscopy Center",
    "hours": null,
    "image_url": null
  },
  {
    "name": "Synergy Eye & ENT hospital",
    "address": "2nd Floor, Vimal Arcade, Modhera Road, Mehsana Gujarat, Gujarat 384002",
    "phone": "Synergy Eye & ENT hospital",
    "hours": null,
    "image_url": null
  },
  {
    "name": "Dr. Patel's Homeocare",
    "address": "6a Parvati Complex, Dairy Road, Nr. Gopinala, Mehsana, Gujarat, Gujarat 384002",
    "phone": "Dr. Patel's Homeocare",
    "hours": "Open· Closes 01:00",
    "image_url": "https://www.bing.com/maps/geoplat/REST/v1/Imagery/Map/RoadVibrant?ms=92,134&key=AnTcaqBi2ypp0xI-OZNi4W_ik2KhjgpqioTAtXLC8GzkMBQRMlyxvxyTnd5b73im&c=en-US&ur=in&da=n&logo=n&fmt=png&od=1&shading=hill&pp=23.6,72.400002;dfp"
  },
  {
    "name": "Saumya Clinic & Wellness Center",
    "address": "Span Mega Mall, Visnagar, Gujarat 384315",
    "phone": "Saumya Clinic & Wellness Center",
    "hours": null,
    "image_url": "https://www.bing.com/maps/geoplat/REST/v1/Imagery/Map/RoadVibrant?ms=92,112&key=AnTcaqBi2ypp0xI-OZNi4W_ik2KhjgpqioTAtXLC8GzkMBQRMlyxvxyTnd5b73im&c=en-US&ur=in&da=n&logo=n&fmt=png&od=1&shading=hill&pp=23.70857,72.541611;dfp"
  },
  {
    "name": "Dr. Dr.Rahul Patel",
    "address": "FF56, Someshwar Mall, Modhera Road, Landmark: Near To Modera Circle, Mahesana, Gujarat",
    "phone": "Dr. Dr.Rahul Patel",
    "hours": "Open· Closes 13:00",
    "image_url": "https://www.bing.com/maps/geoplat/REST/v1/Imagery/Map/RoadVibrant?ms=92,112&key=AnTcaqBi2ypp0xI-OZNi4W_ik2KhjgpqioTAtXLC8GzkMBQRMlyxvxyTnd5b73im&c=en-US&ur=in&da=n&logo=n&fmt=png&od=1&shading=hill&pp=23.594093,72.37603;dfp"
  }
]