[
  {
    "name": "Vatsahalya Clinic",
    "address": "Ram Katha Marg, Hotel Keshav Residency, Makaniya Purva, Mahoba, Uttar Pradesh 210427",
    "phone": "Vatsahalya Clinic",
    "hours": null,
    "image_url": "https://www.bing.com/maps/geoplat/REST/v1/Imagery/Map/RoadVibrant?ms=92,112&key=AnTcaqBi2ypp0xI-OZNi4W_ik2KhjgpqioTAtXLC8GzkMBQRMlyxvxyTnd5b73im&c=en-US&ur=in&da=n&logo=n&fmt=png&od=1&shading=hill&pp=25.292877,79.875893;dfp"
  },
  {
    "name": "Dr.habib Ansari, Taj Clinic",
    "address": "7vpg+4rm, Makaniya Purva, Mahoba, Uttar Pradesh 210427, India, Mahoba, Uttar Pradesh 210427",
    "phone": "Dr.habib Ansari, Taj Clinic",
    "hours": null,
    "image_url": "/th?id=OLC.kAtyi1W5IOifPQ480x360&w=92&h=112&c=8&rs=1&qlt=80&cdv=1&pid=Local"
  },
  {
    "name": "Shivangi Clinic",
    "address": "Wazidpur Tiraha, Nh231 Badshahpur Jaunpur Road, Mahoba, Uttar Pradesh 222002",
    "phone": "Shivangi Clinic",
    "hours": null,
    "image_url": "https://www.bing.com/maps/geoplat/REST/v1/Imagery/Map/RoadVibrant?ms=92,112&key=AnTcaqBi2ypp0xI-OZNi4W_ik2KhjgpqioTAtXLC8GzkMBQRMlyxvxyTnd5b73im&c=en-US&ur=in&da=n&logo=n&fmt=png&od=1&shading=hill&pp=25.291986,79.873222;dfp"
  },
  {
    "name": "Astha Clinic",
    "address": "Main Road Sharda Chowk, Mahoba, Uttar Pradesh 210427",
    "phone": "Astha Clinic",
    "hours": null,
    "image_url": "https://www.bing.com/maps/geoplat/REST/v1/Imagery/Map/RoadVibrant?ms=92,112&key=AnTcaqBi2ypp0xI-OZNi4W_ik2KhjgpqioTAtXLC8GzkMBQRMlyxvxyTnd5b73im&c=en-US&ur=in&da=n&logo=n&fmt=png&od=1&shading=hill&pp=25.291798,79.872215;dfp"
  },
  {
    "name": "Krishna Clinic",
    "address": "Private Bus Stand Road, Uttar Pradesh Jal Nigam, Mahoba, Uttar Pradesh 210427",
    "phone": "Krishna Clinic",
    "hours": null,
    "image_url": "https://www.bing.com/maps/geoplat/REST/v1/Imagery/Map/RoadVibrant?ms=92,112&key=AnTcaqBi2ypp0xI-OZNi4W_ik2KhjgpqioTAtXLC8GzkMBQRMlyxvxyTnd5b73im&c=en-US&ur=in&da=n&logo=n&fmt=png&od=1&shading=hill&pp=25.291473,79.884949;dfp"
  },
  {
    "name": "Arogya Clinic",
    "address": "Tehsil Road, Mahoba, Uttar Pradesh 210427",
    "phone": "Arogya Clinic",
    "hours": null,
    "image_url": "https://www.bing.com/maps/geoplat/REST/v1/Imagery/Map/RoadVibrant?ms=92,112&key=AnTcaqBi2ypp0xI-OZNi4W_ik2KhjgpqioTAtXLC8GzkMBQRMlyxvxyTnd5b73im&c=en-US&ur=in&da=n&logo=n&fmt=png&od=1&shading=hill&pp=25.291025,79.885178;dfp"
  },
  {
    "name": "Dr Archana Clinic",
    "address": "Kachahri Road, Gandhi Nagar, Bus Stand Road, Mahoba, Uttar Pradesh 210427",
    "phone": "Dr Archana Clinic",
    "hours": null,
    "image_url": "https://www.bing.com/maps/geoplat/REST/v1/Imagery/Map/RoadVibrant?ms=92,112&key=AnTcaqBi2ypp0xI-OZNi4W_ik2KhjgpqioTAtXLC8GzkMBQRMlyxvxyTnd5b73im&c=en-US&ur=in&da=n&logo=n&fmt=png&od=1&shading=hill&pp=25.293503,79.883324;dfp"
  },
  {
    "name": "Shubham Hemeo Clinic",
    "address": "Kotwali Road, Kotwali Mahoba, Chhajman Pura, Mahoba, Uttar Pradesh 210427",
    "phone": "Shubham Hemeo Clinic",
    "hours": null,
    "image_url": "https://www.bing.com/maps/geoplat/REST/v1/Imagery/Map/RoadVibrant?ms=92,112&key=AnTcaqBi2ypp0xI-OZNi4W_ik2KhjgpqioTAtXLC8GzkMBQRMlyxvxyTnd5b73im&c=en-US&ur=in&da=n&logo=n&fmt=png&od=1&shading=hill&pp=25.291121,79.873421;dfp"
  },
  {
    "name": "Pratyaksh Ayurveda Clinic & Panchkarma Center",
    "address": "H.N.847, Near Hamirpur - Chungi Highway, Subhash Nagar, Bija Nagar, Mahoba, Uttar Pradesh",
    "phone": "Pratyaksh Ayurveda Clinic & Panchkarma Center",
    "hours": null,
    "image_url": "https://www.bing.com/maps/geoplat/REST/v1/Imagery/Map/RoadVibrant?ms=92,112&key=AnTcaqBi2ypp0xI-OZNi4W_ik2KhjgpqioTAtXLC8GzkMBQRMlyxvxyTnd5b73im&c=en-US&ur=in&da=n&logo=n&fmt=png&od=1&shading=hill&pp=25.295889,79.8638;dfp"
  },
  {
    "name": "Vinay Dawakhana",
    "address": "Kotwali Road, Kotwali Mahoba, Nayapura Naikhana, Mahoba, Uttar Pradesh 210427",
    "phone": "Vinay Dawakhana",
    "hours": null,
    "image_url": "https://www.bing.com/maps/geoplat/REST/v1/Imagery/Map/RoadVibrant?ms=92,112&key=AnTcaqBi2ypp0xI-OZNi4W_ik2KhjgpqioTAtXLC8GzkMBQRMlyxvxyTnd5b73im&c=en-US&ur=in&da=n&logo=n&fmt=png&od=1&shading=hill&pp=25.286438,79.878891;dfp"
  },
  {
    "name": "Muskan Clinic",
    "address": "Mahoba Road, Charkhari, Uttar Pradesh 210421",
    "phone": "Muskan Clinic",
    "hours": null,
    "image_url": "https://www.bing.com/maps/geoplat/REST/v1/Imagery/Map/RoadVibrant?ms=92,112&key=AnTcaqBi2ypp0xI-OZNi4W_ik2KhjgpqioTAtXLC8GzkMBQRMlyxvxyTnd5b73im&c=en-US&ur=in&da=n&logo=n&fmt=png&od=1&shading=hill&pp=25.40077,79.750877;dfp"
  },
  {
    "name": "Jivan Jyoti Pathology",
    "address": "Saraswati Vidya Mandir Road, Parmanand Chowk, Makaniya Purwa, Mahoba, Uttar Pradesh 210427",
    "phone": "Jivan Jyoti Pathology",
    "hours": null,
    "image_url": "https://www.bing.com/maps/geoplat/REST/v1/Imagery/Map/RoadVibrant?ms=92,112&key=AnTcaqBi2ypp0xI-OZNi4W_ik2KhjgpqioTAtXLC8GzkMBQRMlyxvxyTnd5b73im&c=en-US&ur=in&da=n&logo=n&fmt=png&od=1&shading=hill&pp=25.293869,79.884384;dfp"
  },
  {
    "name": "Doctor KD Gupta Medical Store",
    "address": "Kanpur Sagar Road, Naya Pura Makaniya Purva, Mahoba, Uttar Pradesh 210427",
    "phone": "Doctor KD Gupta Medical Store",
    "hours": null,
    "image_url": "https://www.bing.com/maps/geoplat/REST/v1/Imagery/Map/RoadVibrant?ms=92,112&key=AnTcaqBi2ypp0xI-OZNi4W_ik2KhjgpqioTAtXLC8GzkMBQRMlyxvxyTnd5b73im&c=en-US&ur=in&da=n&logo=n&fmt=png&od=1&shading=hill&pp=25.297163,79.892784;dfp"
  },
  {
    "name": "Dental Hospital Dr Arun Singh",
    "address": "Roadways Station Road, Mahoba, Uttar Pradesh 210427",
    "phone": "Dental Hospital Dr Arun Singh",
    "hours": null,
    "image_url": "https://www.bing.com/maps/geoplat/REST/v1/Imagery/Map/RoadVibrant?ms=92,112&key=AnTcaqBi2ypp0xI-OZNi4W_ik2KhjgpqioTAtXLC8GzkMBQRMlyxvxyTnd5b73im&c=en-US&ur=in&da=n&logo=n&fmt=png&od=1&shading=hill&pp=25.293674,79.884125;dfp"
  },
  {
    "name": "Ganga Nursing Home",
    "address": "Main Road, Mahoba, Uttar Pradesh 210427",
    "phone": "Ganga Nursing Home",
    "hours": null,
    "image_url": "https://www.bing.com/maps/geoplat/REST/v1/Imagery/Map/RoadVibrant?ms=92,112&key=AnTcaqBi2ypp0xI-OZNi4W_ik2KhjgpqioTAtXLC8GzkMBQRMlyxvxyTnd5b73im&c=en-US&ur=in&da=n&logo=n&fmt=png&od=1&shading=hill&pp=25.292658,79.88028;dfp"
  },
  {
    "name": "Lal Pathology",
    "address": "Rath Road, Mahoba, Uttar Pradesh 210427",
    "phone": "Lal Pathology",
    "hours": null,
    "image_url": "https://www.bing.com/maps/geoplat/REST/v1/Imagery/Map/RoadVibrant?ms=92,112&key=AnTcaqBi2ypp0xI-OZNi4W_ik2KhjgpqioTAtXLC8GzkMBQRMlyxvxyTnd5b73im&c=en-US&ur=in&da=n&logo=n&fmt=png&od=1&shading=hill&pp=25.291637,79.870102;dfp"
  },
  {
    "name": "Shri Baba Pathology Lab",
    "address": "01, Infront Of Government Distt Hospital, Kabrai, Laxmi Market, Mahoba, Uttar Pradesh 210427",
    "phone": "Shri Baba Pathology Lab",
    "hours": null,
    "image_url": "https://www.bing.com/maps/geoplat/REST/v1/Imagery/Map/RoadVibrant?ms=92,112&key=AnTcaqBi2ypp0xI-OZNi4W_ik2KhjgpqioTAtXLC8GzkMBQRMlyxvxyTnd5b73im&c=en-US&ur=in&da=n&logo=n&fmt=png&od=1&shading=hill&pp=25.293859,79.884598;dfp"
  }
]