[
  {
    "name": "Dr Rafiqul Hasan",
    "address": "90/34, Maheshmati Road, Malda, West Bengal 732101",
    "phone": "Dr Rafiqul Hasan",
    "hours": "Open· Closes 18:00",
    "image_url": "/th?id=OLC.uWkmTctO2tqBOg480x360&w=92&h=134&c=8&rs=1&qlt=80&cdv=1&pid=Local"
  },
  {
    "name": "Dr Prasenjit Kumar Kundu Clinic",
    "address": "B.S. Road (Near B.S Road Club Durga Mandir), English Bazar, West Bengal 732101",
    "phone": "Dr Prasenjit Kumar Kundu Clinic",
    "hours": "Closed· Opens 19:00",
    "image_url": "https://www.bing.com/maps/geoplat/REST/v1/Imagery/Map/RoadVibrant?ms=92,112&key=AnTcaqBi2ypp0xI-OZNi4W_ik2KhjgpqioTAtXLC8GzkMBQRMlyxvxyTnd5b73im&c=en-US&ur=in&da=n&logo=n&fmt=png&od=1&shading=hill&pp=25.006201,88.14373;dfp"
  },
  {
    "name": "Apollo Clinic",
    "address": "Apollo Building Complex English Bazar, Abhirampur Market, Malda, West Bengal 732103",
    "phone": "Apollo Clinic",
    "hours": "Open· Closes 20:00",
    "image_url": "/th?id=OLC.nT3ypqDDzdaQDg480x360&w=92&h=134&c=8&rs=1&qlt=80&cdv=1&pid=Local"
  },
  {
    "name": "Dr Suman Ghosh",
    "address": "Krishna Jiban Sanyal Rd, Mokdumpur, Malda, West Bengal",
    "phone": "Dr Suman Ghosh",
    "hours": null,
    "image_url": "https://www.bing.com/maps/geoplat/REST/v1/Imagery/Map/RoadVibrant?ms=92,112&key=AnTcaqBi2ypp0xI-OZNi4W_ik2KhjgpqioTAtXLC8GzkMBQRMlyxvxyTnd5b73im&c=en-US&ur=in&da=n&logo=n&fmt=png&od=1&shading=hill&pp=24.994152,88.141884;dfp"
  },
  {
    "name": "Dr. Soumyadip Roy",
    "address": "22/24, Krishna Jiban Sanyal Rd, Near North Bengal Nursing Home, Mokdumpur, Malda, West Bengal",
    "phone": "Dr. Soumyadip Roy",
    "hours": null,
    "image_url": "https://www.bing.com/maps/geoplat/REST/v1/Imagery/Map/RoadVibrant?ms=92,112&key=AnTcaqBi2ypp0xI-OZNi4W_ik2KhjgpqioTAtXLC8GzkMBQRMlyxvxyTnd5b73im&c=en-US&ur=in&da=n&logo=n&fmt=png&od=1&shading=hill&pp=24.994652,88.142174;dfp"
  },
  {
    "name": "Dr. Kumar Amit",
    "address": "Station Road. Bakhri Bazar",
    "phone": "Dr. Kumar Amit",
    "hours": null,
    "image_url": "/th?id=OLC.ufBRKHrajNnURQ480x360&w=92&h=112&c=8&rs=1&qlt=80&cdv=1&pid=Local"
  },
  {
    "name": "Dr Sourav Agarwala, Md (medicine), Cdm (diabetes)",
    "address": "Bipin Ghosh Road, Mokdumpur, Malda, Malda 732103",
    "phone": "Dr Sourav Agarwala, Md (medicine), Cdm (diabetes)",
    "hours": "Open· Closes 12:00",
    "image_url": null
  },
  {
    "name": "Dr Krishendu Dutta Clinic",
    "address": "Kutubpur Nayagram Road, Mirchak Sub Post Office, Malda, English Bazar, West Bengal 732101",
    "phone": "Dr Krishendu Dutta Clinic",
    "hours": null,
    "image_url": "https://www.bing.com/maps/geoplat/REST/v1/Imagery/Map/RoadVibrant?ms=92,112&key=AnTcaqBi2ypp0xI-OZNi4W_ik2KhjgpqioTAtXLC8GzkMBQRMlyxvxyTnd5b73im&c=en-US&ur=in&da=n&logo=n&fmt=png&od=1&shading=hill&pp=25.006836,88.146828;dfp"
  },
  {
    "name": "Dr. B Agarwal clinic",
    "address": "22\\24 KJ Sanal Road, Malda, West Bengal, West Bengal, India, 732101, Malda, Madhya Pradesh 732101",
    "phone": "Dr. B Agarwal clinic",
    "hours": "Open· Closes 13:00",
    "image_url": null
  },
  {
    "name": "DR. Wasim’S Heart & Diabetic Care Clinic",
    "address": "Gour Rd, opp. Ish Diagnostic, Taltala, Malda, West Bengal",
    "phone": "DR. Wasim’S Heart & Diabetic Care Clinic",
    "hours": null,
    "image_url": "https://www.bing.com/maps/geoplat/REST/v1/Imagery/Map/RoadVibrant?ms=92,112&key=AnTcaqBi2ypp0xI-OZNi4W_ik2KhjgpqioTAtXLC8GzkMBQRMlyxvxyTnd5b73im&c=en-US&ur=in&da=n&logo=n&fmt=png&od=1&shading=hill&pp=24.992126,88.1427;dfp"
  },
  {
    "name": "Dr Amrita Pal Clinic",
    "address": "C/o Dr. Biswadip Agarwala 22/24 K. J. Sanyal Road Near North Bengal Nursing Home Malda(W.B.) 732101, Old …",
    "phone": "Dr Amrita Pal Clinic",
    "hours": null,
    "image_url": "https://www.bing.com/maps/geoplat/REST/v1/Imagery/Map/RoadVibrant?ms=92,112&key=AnTcaqBi2ypp0xI-OZNi4W_ik2KhjgpqioTAtXLC8GzkMBQRMlyxvxyTnd5b73im&c=en-US&ur=in&da=n&logo=n&fmt=png&od=1&shading=hill&pp=24.994381,88.141914;dfp"
  },
  {
    "name": "Dr. Mainak Maiti | Gynaecologist | Narayana Health",
    "address": "Glow Nursing Home, North Singatala, Malda Medical College & Hospital Road, Malda, West Bengal 732101",
    "phone": "Dr. Mainak Maiti | Gynaecologist | Narayana Health",
    "hours": "Open· Closes 17:00",
    "image_url": "https://www.bing.com/maps/geoplat/REST/v1/Imagery/Map/RoadVibrant?ms=92,134&key=AnTcaqBi2ypp0xI-OZNi4W_ik2KhjgpqioTAtXLC8GzkMBQRMlyxvxyTnd5b73im&c=en-US&ur=in&da=n&logo=n&fmt=png&od=1&shading=hill&pp=24.992506,88.138992;dfp"
  },
  {
    "name": "Dr R Bhattacharya Clinic",
    "address": "Netaji Club & Ghantaghar, K J Sannal Rd, Ramkrishna Pally, English Bazar, West Bengal 732101",
    "phone": "Dr R Bhattacharya Clinic",
    "hours": null,
    "image_url": "https://www.bing.com/maps/geoplat/REST/v1/Imagery/Map/RoadVibrant?ms=92,112&key=AnTcaqBi2ypp0xI-OZNi4W_ik2KhjgpqioTAtXLC8GzkMBQRMlyxvxyTnd5b73im&c=en-US&ur=in&da=n&logo=n&fmt=png&od=1&shading=hill&pp=25.018036,88.137001;dfp"
  },
  {
    "name": "Dr. Arup Ganguly Chember",
    "address": "Kutubpur Nayagram Road, राम कृष्णा कॉलोनी, West Bengal 732101",
    "phone": "Dr. Arup Ganguly Chember",
    "hours": null,
    "image_url": null
  },
  {
    "name": "DR. Pranabanands Saha",
    "address": "Manskamana Road, Union Bank Of India, Sarbamangala Pally, English Bazar, West Bengal 732101",
    "phone": "DR. Pranabanands Saha",
    "hours": null,
    "image_url": "https://www.bing.com/maps/geoplat/REST/v1/Imagery/Map/RoadVibrant?ms=92,112&key=AnTcaqBi2ypp0xI-OZNi4W_ik2KhjgpqioTAtXLC8GzkMBQRMlyxvxyTnd5b73im&c=en-US&ur=in&da=n&logo=n&fmt=png&od=1&shading=hill&pp=25.010851,88.138;dfp"
  },
  {
    "name": "Dr. Malay Sarkar",
    "address": "Kj Sanyal Road, Malda, West Bengal 732101",
    "phone": "Dr. Malay Sarkar",
    "hours": null,
    "image_url": "https://www.bing.com/maps/geoplat/REST/v1/Imagery/Map/RoadVibrant?ms=92,112&key=AnTcaqBi2ypp0xI-OZNi4W_ik2KhjgpqioTAtXLC8GzkMBQRMlyxvxyTnd5b73im&c=en-US&ur=in&da=n&logo=n&fmt=png&od=1&shading=hill&pp=24.994152,88.141884;dfp"
  },
  {
    "name": "Dr. Md. Ismail Shaikh | Top Homeopathy Doctor , West Bengal, India |",
    "address": "Ghorapir, Malda, Madhya Pradesh 732101",
    "phone": "Dr. Md. Ismail Shaikh | Top Homeopathy Doctor , West Bengal, India |",
    "hours": "Closed· Opens Sep 29 at 09:00",
    "image_url": null
  },
  {
    "name": "Dr Abhijit Misra (MBBS MD Ped) Chamber",
    "address": "Singatala Road, Near Old Batkhara Office, Singatala, Uma Roy Sarani, English Bazar, West Bengal 732101",
    "phone": "Dr Abhijit Misra (MBBS MD Ped) Chamber",
    "hours": "Open· Closes 19:00",
    "image_url": null
  }
]