[
  {
    "name": "Dr. Mahesh Rajashekaraiah",
    "address": "General Hospital Rd, Kolakaranadoddi, Nehru Nagar, Mandya, Karnataka",
    "phone": "Dr. Mahesh Rajashekaraiah",
    "hours": "Closed· Opens Wed 15:00",
    "image_url": "/th?id=OLC.phIfoB56N43esQ480x360&w=92&h=112&c=8&rs=1&qlt=80&cdv=1&pid=Local"
  },
  {
    "name": "Dr Javraegowda Clinic And Laboratory",
    "address": "Apmc Market Rd, V V Nagar, Mandya, Karnataka 571401, India, Mandya, Karnataka 571401",
    "phone": "Dr Javraegowda Clinic And Laboratory",
    "hours": null,
    "image_url": "https://www.bing.com/maps/geoplat/REST/v1/Imagery/Map/RoadVibrant?ms=92,112&key=AnTcaqBi2ypp0xI-OZNi4W_ik2KhjgpqioTAtXLC8GzkMBQRMlyxvxyTnd5b73im&c=en-US&ur=in&da=n&logo=n&fmt=png&od=1&shading=hill&pp=12.525379,76.894829;dfp"
  },
  {
    "name": "Dr sharieff clinic mandya",
    "address": "2nd Cross, Near Reliance Fresh, Gandhinagar, Mandya, Karnataka",
    "phone": "Dr sharieff clinic mandya",
    "hours": null,
    "image_url": "/th?id=OLC.lXY1W5RP%2bTh9FA480x360&w=92&h=112&c=8&rs=1&qlt=80&cdv=1&pid=Local"
  },
  {
    "name": "Dr satish bikadi clinic",
    "address": "Ashok Nagar 3rd Cross Road, Mandya, Karnataka 571401",
    "phone": "Dr satish bikadi clinic",
    "hours": null,
    "image_url": "https://www.bing.com/maps/geoplat/REST/v1/Imagery/Map/RoadVibrant?ms=92,112&key=AnTcaqBi2ypp0xI-OZNi4W_ik2KhjgpqioTAtXLC8GzkMBQRMlyxvxyTnd5b73im&c=en-US&ur=in&da=n&logo=n&fmt=png&od=1&shading=hill&pp=12.525003,76.895294;dfp"
  },
  {
    "name": "Dr. Vinay B S",
    "address": "100 Feet Road, Besagarahalli Ramanna Circle, Mandya, Karnataka",
    "phone": "Dr. Vinay B S",
    "hours": null,
    "image_url": "/th?id=OLC.BfMqAKORcY66IA480x360&w=92&h=112&c=8&rs=1&qlt=80&cdv=1&pid=Local"
  },
  {
    "name": "Mandya E.n.t. Care Centre And Hospital",
    "address": "General Hospital Road, Pragati Hospital, Nehru Nagar, Mandya, Karnataka 571401",
    "phone": "Mandya E.n.t. Care Centre And Hospital",
    "hours": null,
    "image_url": "https://www.bing.com/maps/geoplat/REST/v1/Imagery/Map/RoadVibrant?ms=92,112&key=AnTcaqBi2ypp0xI-OZNi4W_ik2KhjgpqioTAtXLC8GzkMBQRMlyxvxyTnd5b73im&c=en-US&ur=in&da=n&logo=n&fmt=png&od=1&shading=hill&pp=12.521817,76.899117;dfp"
  },
  {
    "name": "Sri Raghavendra Clinic",
    "address": "Ashok Nagar 3Th Cross, Government Hospital, Nehru Nagar, Mandya, Karnataka 571403",
    "phone": "Sri Raghavendra Clinic",
    "hours": null,
    "image_url": "https://www.bing.com/maps/geoplat/REST/v1/Imagery/Map/RoadVibrant?ms=92,112&key=AnTcaqBi2ypp0xI-OZNi4W_ik2KhjgpqioTAtXLC8GzkMBQRMlyxvxyTnd5b73im&c=en-US&ur=in&da=n&logo=n&fmt=png&od=1&shading=hill&pp=12.526098,76.898674;dfp"
  },
  {
    "name": "Dr. Darshan Gowda P V | Ent and head and neck and allergy specialist",
    "address": "Gvfx+743, Ashok Nagar, Mandya, Karnataka, Mandya, India, 571401, Mandya, Madhya Pradesh 571401",
    "phone": "Dr. Darshan Gowda P V | Ent and head and neck and allergy specialist",
    "hours": "Open· Closes 18:00",
    "image_url": null
  },
  {
    "name": "Dr. Arun Kumar",
    "address": "no 13, Vidyanagar 2nd Cross, Mandya, Karnataka",
    "phone": "Dr. Arun Kumar",
    "hours": "Closed· Opens Wed 08:00",
    "image_url": "https://www.bing.com/maps/geoplat/REST/v1/Imagery/Map/RoadVibrant?ms=92,112&key=AnTcaqBi2ypp0xI-OZNi4W_ik2KhjgpqioTAtXLC8GzkMBQRMlyxvxyTnd5b73im&c=en-US&ur=in&da=n&logo=n&fmt=png&od=1&shading=hill&pp=12.521599,76.889381;dfp"
  },
  {
    "name": "Sri Basaveshwara Poly Clinic",
    "address": "541\\502, Munsipaal Asessment, 5TH Block, B M Road, Maddur, Mandya, Karnataka 571428",
    "phone": "Sri Basaveshwara Poly Clinic",
    "hours": null,
    "image_url": "https://www.bing.com/maps/geoplat/REST/v1/Imagery/Map/RoadVibrant?ms=92,112&key=AnTcaqBi2ypp0xI-OZNi4W_ik2KhjgpqioTAtXLC8GzkMBQRMlyxvxyTnd5b73im&c=en-US&ur=in&da=n&logo=n&fmt=png&od=1&shading=hill&pp=12.527904,76.899216;dfp"
  },
  {
    "name": "Dr Navyashree S",
    "address": "Govt Hospital Road, Ashok Nagar 3 rd Cross, Mandya, Beside SD Jayaram Hospital, Mandya, Karnataka 571401",
    "phone": "Dr Navyashree S",
    "hours": "Closed· Opens 17:30",
    "image_url": null
  },
  {
    "name": "Kriti Speech & Hearing Clinic",
    "address": "D5, 408/1300, 2nd Cross Rd, Behind Government Hospital, Tamilians Colony, Nehru Nagar, Mandya, Kar…",
    "phone": "Kriti Speech & Hearing Clinic",
    "hours": null,
    "image_url": null
  },
  {
    "name": "Prakruthi Skin Care Clinic - Dr Sridhar Ks",
    "address": "1st Cross Rd, Ashok Nagar, Mandya, Karnataka 571402, India, Mandya, Karnataka 571402",
    "phone": "Prakruthi Skin Care Clinic - Dr Sridhar Ks",
    "hours": null,
    "image_url": "https://www.bing.com/maps/geoplat/REST/v1/Imagery/Map/RoadVibrant?ms=92,112&key=AnTcaqBi2ypp0xI-OZNi4W_ik2KhjgpqioTAtXLC8GzkMBQRMlyxvxyTnd5b73im&c=en-US&ur=in&da=n&logo=n&fmt=png&od=1&shading=hill&pp=12.526498,76.893288;dfp"
  },
  {
    "name": "Raitha Bandhu Agri Clinic",
    "address": "505 G P Road, Cheenya Village, Nagamangala Taluk, Mandya, Karnataka 571431",
    "phone": "Raitha Bandhu Agri Clinic",
    "hours": null,
    "image_url": "https://www.bing.com/maps/geoplat/REST/v1/Imagery/Map/RoadVibrant?ms=92,112&key=AnTcaqBi2ypp0xI-OZNi4W_ik2KhjgpqioTAtXLC8GzkMBQRMlyxvxyTnd5b73im&c=en-US&ur=in&da=n&logo=n&fmt=png&od=1&shading=hill&pp=12.522401,76.890923;dfp"
  },
  {
    "name": "Siri ENT care",
    "address": "G H Road, Beside Nirala Clinic, Near Pragathi Hospital, Mandya, Karnataka",
    "phone": "Siri ENT care",
    "hours": null,
    "image_url": "https://www.bing.com/maps/geoplat/REST/v1/Imagery/Map/RoadVibrant?ms=92,112&key=AnTcaqBi2ypp0xI-OZNi4W_ik2KhjgpqioTAtXLC8GzkMBQRMlyxvxyTnd5b73im&c=en-US&ur=in&da=n&logo=n&fmt=png&od=1&shading=hill&pp=12.523989,76.899178;dfp"
  },
  {
    "name": "Sri Balaji Agri Clinic",
    "address": "Survey NO. 34\\02, Shop NO. 3 & 4, Nagamangala Taluk, Bindiganavile, Mandya, Karnataka 571802",
    "phone": "Sri Balaji Agri Clinic",
    "hours": null,
    "image_url": "https://www.bing.com/maps/geoplat/REST/v1/Imagery/Map/RoadVibrant?ms=92,112&key=AnTcaqBi2ypp0xI-OZNi4W_ik2KhjgpqioTAtXLC8GzkMBQRMlyxvxyTnd5b73im&c=en-US&ur=in&da=n&logo=n&fmt=png&od=1&shading=hill&pp=12.527492,76.890648;dfp"
  },
  {
    "name": "Brindhavana Diagnostic Centre",
    "address": "D-5/113/1140, Next TO Mamatha Nursing Home, Near, Nanda Circle, Govt Hospital Road, Ashoka Nagar, Man…",
    "phone": "Brindhavana Diagnostic Centre",
    "hours": null,
    "image_url": "https://www.bing.com/maps/geoplat/REST/v1/Imagery/Map/RoadVibrant?ms=92,112&key=AnTcaqBi2ypp0xI-OZNi4W_ik2KhjgpqioTAtXLC8GzkMBQRMlyxvxyTnd5b73im&c=en-US&ur=in&da=n&logo=n&fmt=png&od=1&shading=hill&pp=12.525828,76.895943;dfp"
  },
  {
    "name": "Vinayaka Nursing Home (Dr.Vasumathy S Rao)",
    "address": "Ashok Nagar, Mandya, Karnataka",
    "phone": "Vinayaka Nursing Home (Dr.Vasumathy S Rao)",
    "hours": null,
    "image_url": "https://www.bing.com/maps/geoplat/REST/v1/Imagery/Map/RoadVibrant?ms=92,112&key=AnTcaqBi2ypp0xI-OZNi4W_ik2KhjgpqioTAtXLC8GzkMBQRMlyxvxyTnd5b73im&c=en-US&ur=in&da=n&logo=n&fmt=png&od=1&shading=hill&pp=12.524797,76.897003;dfp"
  }
]