[
  {
    "name": "Dr. Bhupendra Mukati- General Surgeon",
    "address": "Patidar Clinic, Mhow- Neemuch Rd, Daloda Chopati, Bhatrewas, Mandsaur, Madhya Pradesh 458001",
    "phone": "Dr. Bhupendra Mukati- General Surgeon",
    "hours": "Closed· Opens 11:00",
    "image_url": "https://www.bing.com/maps/geoplat/REST/v1/Imagery/Map/RoadVibrant?ms=92,134&key=AnTcaqBi2ypp0xI-OZNi4W_ik2KhjgpqioTAtXLC8GzkMBQRMlyxvxyTnd5b73im&c=en-US&ur=in&da=n&logo=n&fmt=png&od=1&shading=hill&pp=24.073444,75.064545;dfp"
  },
  {
    "name": "Dr. Yogendra Kothari- Physician & Cardiologist",
    "address": "Anuyog Hospital And Research Centre, Kambal Kendra Rd, Mandsaur, Madhya Pradesh 458001",
    "phone": "Dr. Yogendra Kothari- Physician & Cardiologist",
    "hours": "Open· Closes 14:00",
    "image_url": "https://www.bing.com/maps/geoplat/REST/v1/Imagery/Map/RoadVibrant?ms=92,134&key=AnTcaqBi2ypp0xI-OZNi4W_ik2KhjgpqioTAtXLC8GzkMBQRMlyxvxyTnd5b73im&c=en-US&ur=in&da=n&logo=n&fmt=png&od=1&shading=hill&pp=24.077477,75.064995;dfp"
  },
  {
    "name": "Dr. TK jhala",
    "address": "Https:/m.Facebook.com/College.Mandsaur, Mandsaur, Madhya Pradesh 458001",
    "phone": "Dr. TK jhala",
    "hours": null,
    "image_url": "https://www.bing.com/maps/geoplat/REST/v1/Imagery/Map/RoadVibrant?ms=92,112&key=AnTcaqBi2ypp0xI-OZNi4W_ik2KhjgpqioTAtXLC8GzkMBQRMlyxvxyTnd5b73im&c=en-US&ur=in&da=n&logo=n&fmt=png&od=1&shading=hill&pp=24.07259,75.066002;dfp"
  },
  {
    "name": "Dr Vijay Shankar Mishra",
    "address": "87/3, Scheme no. 2, Nai Abadi, Gol Chouraha, Mandsaur, Madhya Pradesh",
    "phone": "Dr Vijay Shankar Mishra",
    "hours": "Open· Closes 12:29",
    "image_url": "https://www.bing.com/maps/geoplat/REST/v1/Imagery/Map/RoadVibrant?ms=92,112&key=AnTcaqBi2ypp0xI-OZNi4W_ik2KhjgpqioTAtXLC8GzkMBQRMlyxvxyTnd5b73im&c=en-US&ur=in&da=n&logo=n&fmt=png&od=1&shading=hill&pp=24.072092,75.068474;dfp"
  },
  {
    "name": "Dr Vandana Patidar Neuropsychiatrist",
    "address": "151, Tirupati Nagar, Rudraksh Hospital, Station Road, Mandsaur, Madhya Pradesh 458001",
    "phone": "Dr Vandana Patidar Neuropsychiatrist",
    "hours": "Open· Closes 14:30",
    "image_url": "/th?id=OLC.ooT2CsLLXra6dQ480x360&w=92&h=134&c=8&rs=1&qlt=80&cdv=1&pid=Local"
  },
  {
    "name": "Dr. Suresh Jain",
    "address": "Daya Mandi, Mandsaur, Madhya Pradesh 458002",
    "phone": "Dr. Suresh Jain",
    "hours": null,
    "image_url": "https://www.bing.com/maps/geoplat/REST/v1/Imagery/Map/RoadVibrant?ms=92,112&key=AnTcaqBi2ypp0xI-OZNi4W_ik2KhjgpqioTAtXLC8GzkMBQRMlyxvxyTnd5b73im&c=en-US&ur=in&da=n&logo=n&fmt=png&od=1&shading=hill&pp=24.067835,75.070496;clcp"
  },
  {
    "name": "Arihant Clinic",
    "address": "Mandsaur, Madhya Pradesh, India, 458001, Mandsaur, Madhya Pradesh 458001",
    "phone": "Arihant Clinic",
    "hours": "Open· Closes 18:00",
    "image_url": null
  },
  {
    "name": "Dr Mukesh Kumawat",
    "address": "Mandi Gate, Mandsaur, Madhya Pradesh 458002",
    "phone": "Dr Mukesh Kumawat",
    "hours": null,
    "image_url": "https://www.bing.com/maps/geoplat/REST/v1/Imagery/Map/RoadVibrant?ms=92,112&key=AnTcaqBi2ypp0xI-OZNi4W_ik2KhjgpqioTAtXLC8GzkMBQRMlyxvxyTnd5b73im&c=en-US&ur=in&da=n&logo=n&fmt=png&od=1&shading=hill&pp=24.059351,75.07103;dfp"
  },
  {
    "name": "Dr Om Prakash",
    "address": "0, Main Road, Sitamau Fatak, Mandsaur, Mandsaur Sitamau Main Road, Mandsaur, Madhya Pradesh 458002",
    "phone": "Dr Om Prakash",
    "hours": null,
    "image_url": "https://www.bing.com/maps/geoplat/REST/v1/Imagery/Map/RoadVibrant?ms=92,112&key=AnTcaqBi2ypp0xI-OZNi4W_ik2KhjgpqioTAtXLC8GzkMBQRMlyxvxyTnd5b73im&c=en-US&ur=in&da=n&logo=n&fmt=png&od=1&shading=hill&pp=24.061501,75.087448;dfp"
  },
  {
    "name": "Dr. Vijayshankar Misr (MD Medicine) - Senior Physician",
    "address": "Shree Siddhi Vinayak Multispeciality Hospitals, 12, Dashpur Kunj Rd, Opposite Civil Hospitals, Mandsaur, …",
    "phone": "Dr. Vijayshankar Misr (MD Medicine) - Senior Physician",
    "hours": null,
    "image_url": "https://www.bing.com/maps/geoplat/REST/v1/Imagery/Map/RoadVibrant?ms=92,112&key=AnTcaqBi2ypp0xI-OZNi4W_ik2KhjgpqioTAtXLC8GzkMBQRMlyxvxyTnd5b73im&c=en-US&ur=in&da=n&logo=n&fmt=png&od=1&shading=hill&pp=24.071325,75.064285;dfp"
  },
  {
    "name": "Dr. Shrimal's Orthopaedic clinic",
    "address": "65, Shukla Colony, Nootan Stadium Ground Opposite Mishrilal Petrol Pump Infront M. P. E. B. Office",
    "phone": "Dr. Shrimal's Orthopaedic clinic",
    "hours": null,
    "image_url": "https://www.bing.com/maps/geoplat/REST/v1/Imagery/Map/RoadVibrant?ms=92,112&key=AnTcaqBi2ypp0xI-OZNi4W_ik2KhjgpqioTAtXLC8GzkMBQRMlyxvxyTnd5b73im&c=en-US&ur=in&da=n&logo=n&fmt=png&od=1&shading=hill&pp=24.070185,75.076401;dfp"
  },
  {
    "name": "Shree Dev Clinic",
    "address": "01 Shree DEV Clinic Suwasra Kurawan Road Basai, Mandsaur, Madhya Pradesh 458888",
    "phone": "Shree Dev Clinic",
    "hours": null,
    "image_url": "https://www.bing.com/maps/geoplat/REST/v1/Imagery/Map/RoadVibrant?ms=92,112&key=AnTcaqBi2ypp0xI-OZNi4W_ik2KhjgpqioTAtXLC8GzkMBQRMlyxvxyTnd5b73im&c=en-US&ur=in&da=n&logo=n&fmt=png&od=1&shading=hill&pp=24.089066,75.634872;dfp"
  },
  {
    "name": "Parth Clinic",
    "address": "Collectorate Road, Sunni Barelvi Rehmani Masjid, Mandsaur, Madhya Pradesh 458002",
    "phone": "Parth Clinic",
    "hours": null,
    "image_url": "https://www.bing.com/maps/geoplat/REST/v1/Imagery/Map/RoadVibrant?ms=92,112&key=AnTcaqBi2ypp0xI-OZNi4W_ik2KhjgpqioTAtXLC8GzkMBQRMlyxvxyTnd5b73im&c=en-US&ur=in&da=n&logo=n&fmt=png&od=1&shading=hill&pp=24.060045,75.072876;dfp"
  },
  {
    "name": "Dr.ARJUN PATIDAR HOMEOPATHIC CLINIC",
    "address": "Swimming Pool Road, Kalakhet, Mandsaur, Madhya Pradesh",
    "phone": "Dr.ARJUN PATIDAR HOMEOPATHIC CLINIC",
    "hours": null,
    "image_url": "https://www.bing.com/maps/geoplat/REST/v1/Imagery/Map/RoadVibrant?ms=92,112&key=AnTcaqBi2ypp0xI-OZNi4W_ik2KhjgpqioTAtXLC8GzkMBQRMlyxvxyTnd5b73im&c=en-US&ur=in&da=n&logo=n&fmt=png&od=1&shading=hill&pp=24.064762,75.069626;dfp"
  },
  {
    "name": "Kushvaha Shree Clinic",
    "address": "Khadawada Road, Civil Hospital, Garoth, Madhya Pradesh 458880",
    "phone": "Kushvaha Shree Clinic",
    "hours": null,
    "image_url": "https://www.bing.com/maps/geoplat/REST/v1/Imagery/Map/RoadVibrant?ms=92,112&key=AnTcaqBi2ypp0xI-OZNi4W_ik2KhjgpqioTAtXLC8GzkMBQRMlyxvxyTnd5b73im&c=en-US&ur=in&da=n&logo=n&fmt=png&od=1&shading=hill&pp=24.327036,75.648689;dfp"
  },
  {
    "name": "Parihar Clinic",
    "address": "Khadwada Road, Police Station, Garoth, Madhya Pradesh 458880",
    "phone": "Parihar Clinic",
    "hours": null,
    "image_url": "https://www.bing.com/maps/geoplat/REST/v1/Imagery/Map/RoadVibrant?ms=92,112&key=AnTcaqBi2ypp0xI-OZNi4W_ik2KhjgpqioTAtXLC8GzkMBQRMlyxvxyTnd5b73im&c=en-US&ur=in&da=n&logo=n&fmt=png&od=1&shading=hill&pp=24.328241,75.647789;dfp"
  },
  {
    "name": "Shiv Shakti Clinic",
    "address": "Nagri Dhamnar Road, Nagar Parishad Nagari, Nagri, Madhya Pradesh 458669",
    "phone": "Shiv Shakti Clinic",
    "hours": null,
    "image_url": "https://www.bing.com/maps/geoplat/REST/v1/Imagery/Map/RoadVibrant?ms=92,112&key=AnTcaqBi2ypp0xI-OZNi4W_ik2KhjgpqioTAtXLC8GzkMBQRMlyxvxyTnd5b73im&c=en-US&ur=in&da=n&logo=n&fmt=png&od=1&shading=hill&pp=23.848242,75.142906;dfp"
  },
  {
    "name": "Balaji Clinic",
    "address": "Major District Road 42, Government Hospital Pirawa, Nayapura, Pirawa, Rajasthan 326034",
    "phone": "Balaji Clinic",
    "hours": null,
    "image_url": "https://www.bing.com/maps/geoplat/REST/v1/Imagery/Map/RoadVibrant?ms=92,112&key=AnTcaqBi2ypp0xI-OZNi4W_ik2KhjgpqioTAtXLC8GzkMBQRMlyxvxyTnd5b73im&c=en-US&ur=in&da=n&logo=n&fmt=png&od=1&shading=hill&pp=24.163513,76.036674;dfp"
  }
]