[
  {
    "name": "Dr. DILVEER BRAR",
    "address": "Mansa Rd, Guru Ki Nagri, Bathinda, Punjab 151001, Punjab Region",
    "phone": "Dr. DILVEER BRAR",
    "hours": null,
    "image_url": "https://www.bing.com/maps/geoplat/REST/v1/Imagery/Map/RoadVibrant?ms=92,112&key=AnTcaqBi2ypp0xI-OZNi4W_ik2KhjgpqioTAtXLC8GzkMBQRMlyxvxyTnd5b73im&c=en-US&ur=in&da=n&logo=n&fmt=png&od=1&shading=hill&pp=30.22624,74.946365;dfp"
  },
  {
    "name": "Dr Rajesh Vashistha",
    "address": "Barnala Mansa Road, Mansa, Punjab 151505",
    "phone": "Dr Rajesh Vashistha",
    "hours": null,
    "image_url": "https://www.bing.com/maps/geoplat/REST/v1/Imagery/Map/RoadVibrant?ms=92,112&key=AnTcaqBi2ypp0xI-OZNi4W_ik2KhjgpqioTAtXLC8GzkMBQRMlyxvxyTnd5b73im&c=en-US&ur=in&da=n&logo=n&fmt=png&od=1&shading=hill&pp=30.004778,75.391975;dfp"
  },
  {
    "name": "Dr Sunit Jindal's Jindal Hospital",
    "address": "Civil Hospital Road, Sadar, Mansa, Punjab 151505, India, Mansa, Punjab 151505",
    "phone": "Dr Sunit Jindal's Jindal Hospital",
    "hours": null,
    "image_url": "https://www.bing.com/maps/geoplat/REST/v1/Imagery/Map/RoadVibrant?ms=92,112&key=AnTcaqBi2ypp0xI-OZNi4W_ik2KhjgpqioTAtXLC8GzkMBQRMlyxvxyTnd5b73im&c=en-US&ur=in&da=n&logo=n&fmt=png&od=1&shading=hill&pp=29.983578,75.400932;dfp"
  },
  {
    "name": "Dr Satpal Jindal Hospital",
    "address": "Near Civil Hospital, Government Girl School Road, Jeevan Nagar, Mansa, Punjab 151505",
    "phone": "Dr Satpal Jindal Hospital",
    "hours": null,
    "image_url": "https://www.bing.com/maps/geoplat/REST/v1/Imagery/Map/RoadVibrant?ms=92,112&key=AnTcaqBi2ypp0xI-OZNi4W_ik2KhjgpqioTAtXLC8GzkMBQRMlyxvxyTnd5b73im&c=en-US&ur=in&da=n&logo=n&fmt=png&od=1&shading=hill&pp=29.986324,75.402885;dfp"
  },
  {
    "name": "Aggarwal Clinic",
    "address": "Opposite Indian Overseas Bank, Gaushala Road, Jeevan Nagar, Mansa, Punjab 151505",
    "phone": "Aggarwal Clinic",
    "hours": null,
    "image_url": "https://www.bing.com/maps/geoplat/REST/v1/Imagery/Map/RoadVibrant?ms=92,112&key=AnTcaqBi2ypp0xI-OZNi4W_ik2KhjgpqioTAtXLC8GzkMBQRMlyxvxyTnd5b73im&c=en-US&ur=in&da=n&logo=n&fmt=png&od=1&shading=hill&pp=29.989071,75.40078;dfp"
  },
  {
    "name": "Bhatal Clinic",
    "address": "Khokhar Khurd, Village Khokhar Khurd, Mansa, Punjab 151508",
    "phone": "Bhatal Clinic",
    "hours": null,
    "image_url": "https://www.bing.com/maps/geoplat/REST/v1/Imagery/Map/RoadVibrant?ms=92,112&key=AnTcaqBi2ypp0xI-OZNi4W_ik2KhjgpqioTAtXLC8GzkMBQRMlyxvxyTnd5b73im&c=en-US&ur=in&da=n&logo=n&fmt=png&od=1&shading=hill&pp=30.001936,75.39093;dfp"
  },
  {
    "name": "Sharma Clinic",
    "address": "Near Post Office, Bareta, Mansa, Punjab 151501",
    "phone": "Sharma Clinic",
    "hours": null,
    "image_url": "https://www.bing.com/maps/geoplat/REST/v1/Imagery/Map/RoadVibrant?ms=92,112&key=AnTcaqBi2ypp0xI-OZNi4W_ik2KhjgpqioTAtXLC8GzkMBQRMlyxvxyTnd5b73im&c=en-US&ur=in&da=n&logo=n&fmt=png&od=1&shading=hill&pp=29.986341,75.392754;dfp"
  },
  {
    "name": "Nirmal Clinic",
    "address": "Mansa, Sh13 Mansa Road, Mansa, Punjab 152107",
    "phone": "Nirmal Clinic",
    "hours": null,
    "image_url": "https://www.bing.com/maps/geoplat/REST/v1/Imagery/Map/RoadVibrant?ms=92,112&key=AnTcaqBi2ypp0xI-OZNi4W_ik2KhjgpqioTAtXLC8GzkMBQRMlyxvxyTnd5b73im&c=en-US&ur=in&da=n&logo=n&fmt=png&od=1&shading=hill&pp=29.991804,75.387238;dfp"
  },
  {
    "name": "Sidhu Clinic",
    "address": "C\\O Hardeep Singh, Near Sbi Bank, Opp Hanuman Mandir, Bareh, Mansa, Punjab 151502",
    "phone": "Sidhu Clinic",
    "hours": null,
    "image_url": "https://www.bing.com/maps/geoplat/REST/v1/Imagery/Map/RoadVibrant?ms=92,112&key=AnTcaqBi2ypp0xI-OZNi4W_ik2KhjgpqioTAtXLC8GzkMBQRMlyxvxyTnd5b73im&c=en-US&ur=in&da=n&logo=n&fmt=png&od=1&shading=hill&pp=29.990772,75.400093;dfp"
  },
  {
    "name": "Garg Homeopathic Clinic",
    "address": "Hanuman Temple, Kotdharmun Barnala Road, Jeevan Nagar, Mansa, Punjab 151505",
    "phone": "Garg Homeopathic Clinic",
    "hours": null,
    "image_url": "https://www.bing.com/maps/geoplat/REST/v1/Imagery/Map/RoadVibrant?ms=92,112&key=AnTcaqBi2ypp0xI-OZNi4W_ik2KhjgpqioTAtXLC8GzkMBQRMlyxvxyTnd5b73im&c=en-US&ur=in&da=n&logo=n&fmt=png&od=1&shading=hill&pp=29.985941,75.399925;dfp"
  },
  {
    "name": "DR. Priyankas Homeopathic Clinic",
    "address": "NEW Court Road Near Mata Sundri College, Mansa, Punjab 151505",
    "phone": "DR. Priyankas Homeopathic Clinic",
    "hours": null,
    "image_url": "https://www.bing.com/maps/geoplat/REST/v1/Imagery/Map/RoadVibrant?ms=92,112&key=AnTcaqBi2ypp0xI-OZNi4W_ik2KhjgpqioTAtXLC8GzkMBQRMlyxvxyTnd5b73im&c=en-US&ur=in&da=n&logo=n&fmt=png&od=1&shading=hill&pp=29.983578,75.400932;dfp"
  },
  {
    "name": "Dr. Rajneesh Sidhu Child Care Hospital",
    "address": "Opp. Maruti, Suzuki Showroom, Barnala Road, Mansa, Punjab 151505",
    "phone": "Dr. Rajneesh Sidhu Child Care Hospital",
    "hours": null,
    "image_url": null
  },
  {
    "name": "Dr.Gaurav sharma, Neurosurgeon (Brain and spine surgeon), Max Superspeciality Hospital",
    "address": "Room no 7, Max Hospital, Mansa Rd, Bathinda, Punjab",
    "phone": "Dr.Gaurav sharma, Neurosurgeon (Brain and spine surgeon), Max Superspeciality Hospital",
    "hours": null,
    "image_url": "https://www.bing.com/maps/geoplat/REST/v1/Imagery/Map/RoadVibrant?ms=92,112&key=AnTcaqBi2ypp0xI-OZNi4W_ik2KhjgpqioTAtXLC8GzkMBQRMlyxvxyTnd5b73im&c=en-US&ur=in&da=n&logo=n&fmt=png&od=1&shading=hill&pp=30.025965,75.399124;dfp"
  },
  {
    "name": "Dr. R N Gandhi",
    "address": "Janta Supermarket Near ST Stand, Mansa, Gujarat, India, 382845, Mansa, Madhya Pradesh 382845",
    "phone": "Dr. R N Gandhi",
    "hours": "OpenÂ· Closes 18:00",
    "image_url": null
  },
  {
    "name": "New Satyam Diagnostics",
    "address": "Water Works Road, Near SBI Bank, Mansa 151505",
    "phone": "New Satyam Diagnostics",
    "hours": null,
    "image_url": null
  },
  {
    "name": "Shivam Surgical Hospital, Dr. Mukund Patel",
    "address": "Ravi Chamber, Opp. New Bus Stand, Malan, Mansa, Gujarat 382845, India, Mansa (Title), Gujarat 382845",
    "phone": "Shivam Surgical Hospital, Dr. Mukund Patel",
    "hours": null,
    "image_url": "https://www.bing.com/maps/geoplat/REST/v1/Imagery/Map/RoadVibrant?ms=92,112&key=AnTcaqBi2ypp0xI-OZNi4W_ik2KhjgpqioTAtXLC8GzkMBQRMlyxvxyTnd5b73im&c=en-US&ur=in&da=n&logo=n&fmt=png&od=1&shading=hill&pp=23.424189,72.649323;dfp"
  },
  {
    "name": "Bareta Clinical Lab",
    "address": "Opp Kotdharmun Barnala Road, Mansa, Punjab 151505",
    "phone": "Bareta Clinical Lab",
    "hours": null,
    "image_url": null
  },
  {
    "name": "Urvish Clinic",
    "address": "Ambika Chowk, Itadara, Mansa Itadara Road, Mansa, Gandhinagar, Gujarat 382845",
    "phone": "Urvish Clinic",
    "hours": null,
    "image_url": "https://www.bing.com/maps/geoplat/REST/v1/Imagery/Map/RoadVibrant?ms=92,112&key=AnTcaqBi2ypp0xI-OZNi4W_ik2KhjgpqioTAtXLC8GzkMBQRMlyxvxyTnd5b73im&c=en-US&ur=in&da=n&logo=n&fmt=png&od=1&shading=hill&pp=23.435818,72.656433;dfp"
  }
]