[
  {
    "name": "Dr. Dickey Richard Marak- Orthopaedics & Joint Replacement Surgeon",
    "address": "Morigaon Diagnostics Centre, Amal Deka Path, Ghoramara Pathar, Morigaon, Assam 782105",
    "phone": "Dr. Dickey Richard Marak- Orthopaedics & Joint Replacement Surgeon",
    "hours": "Closed· Opens Wed 09:00",
    "image_url": "https://www.bing.com/maps/geoplat/REST/v1/Imagery/Map/RoadVibrant?ms=92,134&key=AnTcaqBi2ypp0xI-OZNi4W_ik2KhjgpqioTAtXLC8GzkMBQRMlyxvxyTnd5b73im&c=en-US&ur=in&da=n&logo=n&fmt=png&od=1&shading=hill&pp=26.25775,92.341858;dfp"
  },
  {
    "name": "Dr. Chinmoy Baruah- Gynecology And Fertility",
    "address": "Dr. Chinmoy Baruah's Clinic, Ward No-4, Morigaon Ho, Morigaon, Assam 782105",
    "phone": "Dr. Chinmoy Baruah- Gynecology And Fertility",
    "hours": "Open· Closes 14:00",
    "image_url": "https://www.bing.com/maps/geoplat/REST/v1/Imagery/Map/RoadVibrant?ms=92,134&key=AnTcaqBi2ypp0xI-OZNi4W_ik2KhjgpqioTAtXLC8GzkMBQRMlyxvxyTnd5b73im&c=en-US&ur=in&da=n&logo=n&fmt=png&od=1&shading=hill&pp=26.251968,92.322189;dfp"
  },
  {
    "name": "Jaya Homoeo Clinic",
    "address": "Morigaon Road, Bakarigaon, Assam 782105",
    "phone": "Jaya Homoeo Clinic",
    "hours": null,
    "image_url": "/th?id=OLC.ANPhL%2bUG%2ff%2fhtw480x360&w=92&h=112&c=8&rs=1&qlt=80&cdv=1&pid=Local"
  },
  {
    "name": "Dr. Ranjit Homeo Clinic",
    "address": "782105, AS, India, Morigaon, Assam",
    "phone": "Dr. Ranjit Homeo Clinic",
    "hours": null,
    "image_url": "https://www.bing.com/maps/geoplat/REST/v1/Imagery/Map/RoadVibrant?ms=92,112&key=AnTcaqBi2ypp0xI-OZNi4W_ik2KhjgpqioTAtXLC8GzkMBQRMlyxvxyTnd5b73im&c=en-US&ur=in&da=n&logo=n&fmt=png&od=1&shading=hill&pp=26.234846,92.290543;dfp"
  },
  {
    "name": "Manipur Health Dispensary",
    "address": "Manipur Bhurbandha, Sh47 Morigaon Bhuragaon Road, Nagaon, Assam 782105",
    "phone": "Manipur Health Dispensary",
    "hours": null,
    "image_url": "https://www.bing.com/maps/geoplat/REST/v1/Imagery/Map/RoadVibrant?ms=92,112&key=AnTcaqBi2ypp0xI-OZNi4W_ik2KhjgpqioTAtXLC8GzkMBQRMlyxvxyTnd5b73im&c=en-US&ur=in&da=n&logo=n&fmt=png&od=1&shading=hill&pp=26.256668,92.305077;dfp"
  },
  {
    "name": "Morigaon Diagnostic Centre",
    "address": "Mb Road, Ward No-1, Opp.Gandhi Bhawan, Morigaon Town, Morigaon, Assam, Assam 782105",
    "phone": "Morigaon Diagnostic Centre",
    "hours": null,
    "image_url": "/th?id=OLC.WvUEE8ooCcJnqg480x360&w=92&h=112&c=8&rs=1&qlt=80&cdv=1&pid=Local"
  },
  {
    "name": "Family Health Clinic",
    "address": "Jagiroad, Morigaon, Marigaon, Assam 782410",
    "phone": "Family Health Clinic",
    "hours": null,
    "image_url": "https://www.bing.com/maps/geoplat/REST/v1/Imagery/Map/RoadVibrant?ms=92,112&key=AnTcaqBi2ypp0xI-OZNi4W_ik2KhjgpqioTAtXLC8GzkMBQRMlyxvxyTnd5b73im&c=en-US&ur=in&da=n&logo=n&fmt=png&od=1&shading=hill&pp=26.125177,92.200447;dfp"
  },
  {
    "name": "Ruposhi Bury Health Sub Dispensary",
    "address": "Rupohibori, Sh47 Dhing Moirabari Bhuragaon Ro, Nagaon, Assam 782105",
    "phone": "Ruposhi Bury Health Sub Dispensary",
    "hours": null,
    "image_url": "https://www.bing.com/maps/geoplat/REST/v1/Imagery/Map/RoadVibrant?ms=92,112&key=AnTcaqBi2ypp0xI-OZNi4W_ik2KhjgpqioTAtXLC8GzkMBQRMlyxvxyTnd5b73im&c=en-US&ur=in&da=n&logo=n&fmt=png&od=1&shading=hill&pp=26.306072,92.304855;dfp"
  },
  {
    "name": "Dr. R. Lahon Dental Clinic",
    "address": "Morigaon Rd, Jagiroad, Assam",
    "phone": "Dr. R. Lahon Dental Clinic",
    "hours": null,
    "image_url": "https://www.bing.com/maps/geoplat/REST/v1/Imagery/Map/RoadVibrant?ms=92,112&key=AnTcaqBi2ypp0xI-OZNi4W_ik2KhjgpqioTAtXLC8GzkMBQRMlyxvxyTnd5b73im&c=en-US&ur=in&da=n&logo=n&fmt=png&od=1&shading=hill&pp=26.255352,92.37294;dfp"
  },
  {
    "name": "Arogya Medical and Clinic",
    "address": "Chandrapur Bar Bhagia, Morigaon Boramngabari Road, Nagaon, Assam 782106",
    "phone": "Arogya Medical and Clinic",
    "hours": null,
    "image_url": "https://www.bing.com/maps/geoplat/REST/v1/Imagery/Map/RoadVibrant?ms=92,112&key=AnTcaqBi2ypp0xI-OZNi4W_ik2KhjgpqioTAtXLC8GzkMBQRMlyxvxyTnd5b73im&c=en-US&ur=in&da=n&logo=n&fmt=png&od=1&shading=hill&pp=26.286213,92.454132;dfp"
  }
]