[
  {
    "name": "Dr. Shradha Soni",
    "address": "Shop No. 2, Shri Square Mall, Near Radha Puram, Mathura, Uttar Pradesh",
    "phone": "Dr. Shradha Soni",
    "hours": "Closed· Opens 11:00",
    "image_url": "/th?id=OLC.Wm%2bSFCxRfaZpfg480x360&w=92&h=134&c=8&rs=1&qlt=80&cdv=1&pid=Local"
  },
  {
    "name": "Dr. D C Khandelwal",
    "address": "Lal Darwaja Road, Mathura, Uttar Pradesh 281001",
    "phone": "Dr. D C Khandelwal",
    "hours": null,
    "image_url": "/th?id=OLC.ew7iJEhiWm2DIg480x360&w=92&h=112&c=8&rs=1&qlt=80&cdv=1&pid=Local"
  },
  {
    "name": "Dr. M.P. Agrawal",
    "address": "Radhika Vihar, NH-2, Mathura, Uttar Pradesh",
    "phone": "Dr. M.P. Agrawal",
    "hours": "Open· Closes 15:00",
    "image_url": "https://www.bing.com/maps/geoplat/REST/v1/Imagery/Map/RoadVibrant?ms=92,112&key=AnTcaqBi2ypp0xI-OZNi4W_ik2KhjgpqioTAtXLC8GzkMBQRMlyxvxyTnd5b73im&c=en-US&ur=in&da=n&logo=n&fmt=png&od=1&shading=hill&pp=27.5,77.683296;dfp"
  },
  {
    "name": "Dr. Adesh Sharma",
    "address": "Sharma Hospital, Mathura, Madhya Pradesh 281004",
    "phone": "Dr. Adesh Sharma",
    "hours": "Open· Closes 14:00",
    "image_url": "/th?id=OLC.ksyq9y2iO5p0Jg480x360&w=92&h=134&c=8&rs=1&qlt=80&cdv=1&pid=Local"
  },
  {
    "name": "Shuddhi Clinic Mathura",
    "address": "1st Floor, SKM Tower, Krishna Nagar, Opposite Jal Nigam Office Or Above Radhika Sweets Showroom, M…",
    "phone": "Shuddhi Clinic Mathura",
    "hours": "Open· Closes 12:00",
    "image_url": "/th?id=OLC.VnqAkssAWHkHcQ480x360&w=92&h=134&c=8&rs=1&qlt=80&cdv=1&pid=Local"
  },
  {
    "name": "Dr. Ansul Gupta",
    "address": "1-B Geeta Enclave, Shankar Vihar, Krishna Nagar, Mathura, Uttar Pradesh",
    "phone": "Dr. Ansul Gupta",
    "hours": null,
    "image_url": "https://www.bing.com/maps/geoplat/REST/v1/Imagery/Map/RoadVibrant?ms=92,112&key=AnTcaqBi2ypp0xI-OZNi4W_ik2KhjgpqioTAtXLC8GzkMBQRMlyxvxyTnd5b73im&c=en-US&ur=in&da=n&logo=n&fmt=png&od=1&shading=hill&pp=27.499203,77.668289;dfp"
  },
  {
    "name": "Dr. Narendra Singh",
    "address": "BSA Road, Infront of Maa Saraswati Marriage Home, Radhika Vihar, Mathura, Uttar Pradesh",
    "phone": "Dr. Narendra Singh",
    "hours": "Open· Closes 14:00",
    "image_url": "https://www.bing.com/maps/geoplat/REST/v1/Imagery/Map/RoadVibrant?ms=92,112&key=AnTcaqBi2ypp0xI-OZNi4W_ik2KhjgpqioTAtXLC8GzkMBQRMlyxvxyTnd5b73im&c=en-US&ur=in&da=n&logo=n&fmt=png&od=1&shading=hill&pp=27.49021,77.657707;dfp"
  },
  {
    "name": "Satyavati Clinic",
    "address": "Daresi Road, Near Police Chowki Deeg Gate, Brij Chikitsa Sansthan Market, Mathura, Uttar Pradesh, Utt…",
    "phone": "Satyavati Clinic",
    "hours": "Closed· Opens 11:00",
    "image_url": null
  },
  {
    "name": "Vanya Clinic",
    "address": "Sundar Complex, Infront of Medical College Gate no 1 & 2, Jhansi, Uttar Pradesh 284128",
    "phone": "Vanya Clinic",
    "hours": "Opens in 7 mins",
    "image_url": "https://www.bing.com/maps/geoplat/REST/v1/Imagery/Map/RoadVibrant?ms=92,112&key=AnTcaqBi2ypp0xI-OZNi4W_ik2KhjgpqioTAtXLC8GzkMBQRMlyxvxyTnd5b73im&c=en-US&ur=in&da=n&logo=n&fmt=png&od=1&shading=hill&pp=27.491859,77.67421;clcp"
  },
  {
    "name": "Dr Ajay Kumar Aggarwal",
    "address": "Dwarika Puri, Mathura, Uttar Pradesh 281001",
    "phone": "Dr Ajay Kumar Aggarwal",
    "hours": null,
    "image_url": "https://www.bing.com/maps/geoplat/REST/v1/Imagery/Map/RoadVibrant?ms=92,112&key=AnTcaqBi2ypp0xI-OZNi4W_ik2KhjgpqioTAtXLC8GzkMBQRMlyxvxyTnd5b73im&c=en-US&ur=in&da=n&logo=n&fmt=png&od=1&shading=hill&pp=27.498302,77.690018;dfp"
  },
  {
    "name": "Dr. Gaurav (pt)",
    "address": "616, Dampier Nagar, Mathura",
    "phone": "Dr. Gaurav (pt)",
    "hours": null,
    "image_url": "https://www.bing.com/maps/geoplat/REST/v1/Imagery/Map/RoadVibrant?ms=92,112&key=AnTcaqBi2ypp0xI-OZNi4W_ik2KhjgpqioTAtXLC8GzkMBQRMlyxvxyTnd5b73im&c=en-US&ur=in&da=n&logo=n&fmt=png&od=1&shading=hill&pp=27.50238,77.685608;dfp"
  },
  {
    "name": "Dr Gaurav Gupta - child ortho clinic, pediatric orthopedic surgeon",
    "address": "Gopi Krishna Hospital Arya Smaj Road, Opp Govt. Inter College, G.I.C, General Ganj, Mathura, Uttar Pradesh",
    "phone": "Dr Gaurav Gupta - child ortho clinic, pediatric orthopedic surgeon",
    "hours": null,
    "image_url": "https://www.bing.com/maps/geoplat/REST/v1/Imagery/Map/RoadVibrant?ms=92,112&key=AnTcaqBi2ypp0xI-OZNi4W_ik2KhjgpqioTAtXLC8GzkMBQRMlyxvxyTnd5b73im&c=en-US&ur=in&da=n&logo=n&fmt=png&od=1&shading=hill&pp=27.494822,77.691078;dfp"
  },
  {
    "name": "Dr. Krishna Sharma | Gynaecologist | Dr. Krishna",
    "address": "Dr. Krishna, Shankar Gali, Mathura, Uttar Pradesh, India, 281001, Mathura, Madhya Pradesh 281001",
    "phone": "Dr. Krishna Sharma | Gynaecologist | Dr. Krishna",
    "hours": "Closed· Opens 18:00",
    "image_url": null
  },
  {
    "name": "Dr. Saurabh Singhal",
    "address": "Landmark: Near Vipin Nursing Home, Mathura, Uttar Pradesh",
    "phone": "Dr. Saurabh Singhal",
    "hours": "Closed· Opens 18:00",
    "image_url": null
  },
  {
    "name": "Dr Bhagwan Singh polyclinic",
    "address": "Kampughat Road, Dampiernagar, Mathura, Uttar Pradesh 281001",
    "phone": "Dr Bhagwan Singh polyclinic",
    "hours": null,
    "image_url": null
  },
  {
    "name": "Dr. Dipak Paruliya",
    "address": "Krishna Nagar Choraha, Mathura, Uttar Pradesh",
    "phone": "Dr. Dipak Paruliya",
    "hours": "Closed· Opens Thu 14:30",
    "image_url": null
  },
  {
    "name": "Dr Batra's Homeopathy, Hair & Skin clinic",
    "address": "Sangam Complex, 98c, Krishna Nagar, In Front Of Jai Guru Dev Ashram, Mathura, Mathura 281004",
    "phone": "Dr Batra's Homeopathy, Hair & Skin clinic",
    "hours": null,
    "image_url": "https://www.bing.com/maps/geoplat/REST/v1/Imagery/Map/RoadVibrant?ms=92,112&key=AnTcaqBi2ypp0xI-OZNi4W_ik2KhjgpqioTAtXLC8GzkMBQRMlyxvxyTnd5b73im&c=en-US&ur=in&da=n&logo=n&fmt=png&od=1&shading=hill&pp=27.49955,77.662659;dfp"
  },
  {
    "name": "Dr. Shazli Azad",
    "address": "1St Floor, Biharilal Plaza, Mathura, Uttar Pradesh",
    "phone": "Dr. Shazli Azad",
    "hours": "Open· Closes 00:00",
    "image_url": null
  }
]