[
  {
    "name": "Dr. Rahul Kumar - Home | Facebook",
    "address": "Sharada Narayan Hospital, Maunath Bhanjan, Uttar Pradesh",
    "phone": "Dr. Rahul Kumar - Home | Facebook",
    "hours": "Open· Closes 18:00",
    "image_url": "/th?id=OLC.zSxzyXuf06kX%2bw480x360&w=92&h=134&c=8&rs=1&qlt=80&cdv=1&pid=Local"
  },
  {
    "name": "Dr. Prashant Kumar Rai",
    "address": "Sahadat Pura, Mau, Uttar Pradesh",
    "phone": "Dr. Prashant Kumar Rai",
    "hours": "Closed· Opens 15:00",
    "image_url": "https://www.bing.com/maps/geoplat/REST/v1/Imagery/Map/RoadVibrant?ms=92,112&key=AnTcaqBi2ypp0xI-OZNi4W_ik2KhjgpqioTAtXLC8GzkMBQRMlyxvxyTnd5b73im&c=en-US&ur=in&da=n&logo=n&fmt=png&od=1&shading=hill&pp=25.929745,83.56665;dfp"
  },
  {
    "name": "Dr. RAHUL KUMAR",
    "address": "Sharada Narayan Hospital, Maunath Bhanjan, Uttar Pradesh",
    "phone": "Dr. RAHUL KUMAR",
    "hours": null,
    "image_url": "/th?id=OLC.YlGKJhuXD36Ymw480x360&w=92&h=112&c=8&rs=1&qlt=80&cdv=1&pid=Local"
  },
  {
    "name": "Dr Jameel Akhtar Clinic",
    "address": "Azmagarh Road, Badi Kamriya, Mau, Uttar Pradesh 275101",
    "phone": "Dr Jameel Akhtar Clinic",
    "hours": null,
    "image_url": "https://www.bing.com/maps/geoplat/REST/v1/Imagery/Map/RoadVibrant?ms=92,112&key=AnTcaqBi2ypp0xI-OZNi4W_ik2KhjgpqioTAtXLC8GzkMBQRMlyxvxyTnd5b73im&c=en-US&ur=in&da=n&logo=n&fmt=png&od=1&shading=hill&pp=25.9356,83.554893;dfp"
  },
  {
    "name": "Fatima Hospital MAU",
    "address": "Sh 34, Chak Mehdi, Mau, Uttar Pradesh 275101, India, Mau, Uttar Pradesh 275101",
    "phone": "Fatima Hospital MAU",
    "hours": null,
    "image_url": "/th?id=OLC.R3TyuWqME5wkDg480x360&w=92&h=112&c=8&rs=1&qlt=80&cdv=1&pid=Local"
  },
  {
    "name": "Dr.M A Khan Clinic",
    "address": "Mohalla Domanpura, Maunath Bhajan, Mau, Uttar Pradesh 275101",
    "phone": "Dr.M A Khan Clinic",
    "hours": null,
    "image_url": "https://www.bing.com/maps/geoplat/REST/v1/Imagery/Map/RoadVibrant?ms=92,112&key=AnTcaqBi2ypp0xI-OZNi4W_ik2KhjgpqioTAtXLC8GzkMBQRMlyxvxyTnd5b73im&c=en-US&ur=in&da=n&logo=n&fmt=png&od=1&shading=hill&pp=25.94486,83.565132;dfp"
  },
  {
    "name": "Satyam Clinic, Dr.satyanand Rai(m.d.) Consultant Physician",
    "address": "Sahadatpura, Mau, Uttar Pradesh 275101",
    "phone": "Satyam Clinic, Dr.satyanand Rai(m.d.) Consultant Physician",
    "hours": null,
    "image_url": "https://www.bing.com/maps/geoplat/REST/v1/Imagery/Map/RoadVibrant?ms=92,112&key=AnTcaqBi2ypp0xI-OZNi4W_ik2KhjgpqioTAtXLC8GzkMBQRMlyxvxyTnd5b73im&c=en-US&ur=in&da=n&logo=n&fmt=png&od=1&shading=hill&pp=25.932039,83.565872;dfp"
  },
  {
    "name": "Homoeo Hope Classical Homoeopathic clinic.",
    "address": "Near Sbi Main Branch Sahadatpura Mau, Maunath Bhanjan, Uttar Pradesh",
    "phone": "Homoeo Hope Classical Homoeopathic clinic.",
    "hours": "Closed· Opens tomorrow 01:00",
    "image_url": "https://www.bing.com/maps/geoplat/REST/v1/Imagery/Map/RoadVibrant?ms=92,134&key=AnTcaqBi2ypp0xI-OZNi4W_ik2KhjgpqioTAtXLC8GzkMBQRMlyxvxyTnd5b73im&c=en-US&ur=in&da=n&logo=n&fmt=png&od=1&shading=hill&pp=25.930241,83.566734;dfp"
  },
  {
    "name": "Dr. Amrit Raj | Ayurvedic Doctor",
    "address": "Opp. DAV Degree College, Arya Samaj Road, Near Meenakshi Chowk, Muzaffarnagar, Uttar Pradesh",
    "phone": "Dr. Amrit Raj | Ayurvedic Doctor",
    "hours": "Open· Closes 22:00",
    "image_url": null
  },
  {
    "name": "Dr.Seema Pandey",
    "address": "Main Road Atrauila, Dist, Azamgarh, Uttar Pradesh 223223",
    "phone": "Dr.Seema Pandey",
    "hours": null,
    "image_url": null
  },
  {
    "name": "Dr. C S SAHNI | Paediatrician | YASH LIFECARE HOSPITAL MAU",
    "address": "Yash Lifecare Hospital MAU, mau, Uttar Pradesh, India, 275101, Mau, Madhya Pradesh 275101",
    "phone": "Dr. C S SAHNI | Paediatrician | YASH LIFECARE HOSPITAL MAU",
    "hours": "Open· Closes 23:30",
    "image_url": null
  },
  {
    "name": "Rahat Dispensary Dr.firoz Ahmad Khan.",
    "address": "Malik Tahir Pura Near Bandha Road new Over Bridge on Bandha, Maunath Bhanjan, Uttar Pradesh 275101",
    "phone": "Rahat Dispensary Dr.firoz Ahmad Khan.",
    "hours": null,
    "image_url": null
  },
  {
    "name": "Dr Rahul Kumar best Orthopaedic Surgeon",
    "address": "Sharada Narayan Hospital, Sahadatpura, Mau, Uttar Pradesh",
    "phone": "Dr Rahul Kumar best Orthopaedic Surgeon",
    "hours": null,
    "image_url": null
  },
  {
    "name": "Dr Aslam's RCT Clinic & smile designing centre",
    "address": "Harikesh Pura, Maunath Bhanjan, Uttar Pradesh",
    "phone": "Dr Aslam's RCT Clinic & smile designing centre",
    "hours": null,
    "image_url": null
  },
  {
    "name": "J K Homoeo Clinic",
    "address": "Hatthi Madari Lari Road Maunath Bhanjan, Mau, Uttar Pradesh 275101",
    "phone": "J K Homoeo Clinic",
    "hours": null,
    "image_url": "https://www.bing.com/maps/geoplat/REST/v1/Imagery/Map/RoadVibrant?ms=92,112&key=AnTcaqBi2ypp0xI-OZNi4W_ik2KhjgpqioTAtXLC8GzkMBQRMlyxvxyTnd5b73im&c=en-US&ur=in&da=n&logo=n&fmt=png&od=1&shading=hill&pp=25.945011,83.565903;dfp"
  },
  {
    "name": "Gupta Surgical Hospital",
    "address": "Narai Bandh, Mau, Uttar Pradesh 275101",
    "phone": "Gupta Surgical Hospital",
    "hours": null,
    "image_url": null
  },
  {
    "name": "Sai Homoeopath Clinic",
    "address": "Bharat Milap SE Dakshin, Kopaganj, Uttar Pradesh",
    "phone": "Sai Homoeopath Clinic",
    "hours": null,
    "image_url": null
  },
  {
    "name": "Dr. M Aslam",
    "address": "Moghal Pura, Mau, Uttar Pradesh",
    "phone": "Dr. M Aslam",
    "hours": "Open· Closes 20:30",
    "image_url": "https://www.bing.com/maps/geoplat/REST/v1/Imagery/Map/RoadVibrant?ms=92,112&key=AnTcaqBi2ypp0xI-OZNi4W_ik2KhjgpqioTAtXLC8GzkMBQRMlyxvxyTnd5b73im&c=en-US&ur=in&da=n&logo=n&fmt=png&od=1&shading=hill&pp=25.951658,83.557236;dfp"
  }
]