[
  {
    "name": "Dr. M. Chandra Sekhar",
    "address": "Narsapur Cross Roads, Medak, Telangana",
    "phone": "Dr. M. Chandra Sekhar",
    "hours": "Closed· Opens Wed 14:00",
    "image_url": "/th?id=OLC.lOUjR%2fT3qSXWFw480x360&w=92&h=112&c=8&rs=1&qlt=80&cdv=1&pid=Local"
  },
  {
    "name": "Shiva Jyothi Clinic",
    "address": "Jn Road, Shivaji Statue, Pagidimari, Medak, Telangana 502110",
    "phone": "Shiva Jyothi Clinic",
    "hours": null,
    "image_url": "https://www.bing.com/maps/geoplat/REST/v1/Imagery/Map/RoadVibrant?ms=92,112&key=AnTcaqBi2ypp0xI-OZNi4W_ik2KhjgpqioTAtXLC8GzkMBQRMlyxvxyTnd5b73im&c=en-US&ur=in&da=n&logo=n&fmt=png&od=1&shading=hill&pp=18.046148,78.262718;dfp"
  },
  {
    "name": "Dr Kiran Varma Uddaraju | Best Orthopaedician  | Fracture | Sports Injury | Back Pain",
    "address": "Apollo Clinic, Nizmapet, Near Bhavys Apartment Nizmapet, Hyderabad, Telangana 500090",
    "phone": "Dr Kiran Varma Uddaraju | Best Orthopaedician  | Fracture | Sports Injury | Back Pain",
    "hours": "Open· Closes 17:30",
    "image_url": "/th?id=OLC.0cbMfiy2dASQjw480x360&w=92&h=134&c=8&rs=1&qlt=80&cdv=1&pid=Local"
  },
  {
    "name": "Sri Raghavendra Clinic",
    "address": "Durga Nagar, Kistareddypet, Telangana",
    "phone": "Sri Raghavendra Clinic",
    "hours": null,
    "image_url": "/th?id=OLC.HQtGVpJmuLZCAA480x360&w=92&h=112&c=8&rs=1&qlt=80&cdv=1&pid=Local"
  },
  {
    "name": "+ Mubbasheera Clinic +",
    "address": "Dr.Khajamohinuddin, 2-17, 1st Ward, Bachannapet, Telangana",
    "phone": "+ Mubbasheera Clinic +",
    "hours": null,
    "image_url": "https://www.bing.com/maps/geoplat/REST/v1/Imagery/Map/RoadVibrant?ms=92,112&key=AnTcaqBi2ypp0xI-OZNi4W_ik2KhjgpqioTAtXLC8GzkMBQRMlyxvxyTnd5b73im&c=en-US&ur=in&da=n&logo=n&fmt=png&od=1&shading=hill&pp=17.842489,78.689697;dfp"
  },
  {
    "name": "Dr. P. Kiranmayi",
    "address": "Isnapur X Road, Hyderabad, Telangana",
    "phone": "Dr. P. Kiranmayi",
    "hours": "Closed· Opens Thu 16:00",
    "image_url": "/th?id=OLC.rxkzBNr6iSa9ZQ480x360&w=92&h=112&c=8&rs=1&qlt=80&cdv=1&pid=Local"
  },
  {
    "name": "Sai Teja Poly Clinic",
    "address": "Kowdipally, Telangana 502316, India, Medak, Telangana 502316",
    "phone": "Sai Teja Poly Clinic",
    "hours": null,
    "image_url": "https://www.bing.com/maps/geoplat/REST/v1/Imagery/Map/RoadVibrant?ms=92,112&key=AnTcaqBi2ypp0xI-OZNi4W_ik2KhjgpqioTAtXLC8GzkMBQRMlyxvxyTnd5b73im&c=en-US&ur=in&da=n&logo=n&fmt=png&od=1&shading=hill&pp=17.898598,78.206184;dfp"
  },
  {
    "name": "Dr Ramakrishna Reddy Hospital",
    "address": "Narsapur, Telangana 502313, India, Medak, Telangana 502313",
    "phone": "Dr Ramakrishna Reddy Hospital",
    "hours": null,
    "image_url": null
  },
  {
    "name": "Government Ayurvedic Hospital",
    "address": "Jambikunta, Ram Nagar, Medak, Telangana 502110, India, Medak, Telangana 502110",
    "phone": "Government Ayurvedic Hospital",
    "hours": null,
    "image_url": "https://www.bing.com/maps/geoplat/REST/v1/Imagery/Map/RoadVibrant?ms=92,112&key=AnTcaqBi2ypp0xI-OZNi4W_ik2KhjgpqioTAtXLC8GzkMBQRMlyxvxyTnd5b73im&c=en-US&ur=in&da=n&logo=n&fmt=png&od=1&shading=hill&pp=18.038483,78.260231;dfp"
  },
  {
    "name": "Dr. Harshavardhana Reddy",
    "address": "Apollo Clinic, Near Bhavys Apartment, Hill County, Nizampet, Hyderabad, Telangana",
    "phone": "Dr. Harshavardhana Reddy",
    "hours": null,
    "image_url": "https://www.bing.com/maps/geoplat/REST/v1/Imagery/Map/RoadVibrant?ms=92,112&key=AnTcaqBi2ypp0xI-OZNi4W_ik2KhjgpqioTAtXLC8GzkMBQRMlyxvxyTnd5b73im&c=en-US&ur=in&da=n&logo=n&fmt=png&od=1&shading=hill&pp=17.530041,78.378075;dfp"
  },
  {
    "name": "Sri Anagha Children’s Clinic in Medchal",
    "address": "Ground Floor, Migh 14, Housing Board Colony, Beside RR Shopping Mall, Medchal, Secunderabad, Telangan…",
    "phone": "Sri Anagha Children’s Clinic in Medchal",
    "hours": "Open· Closes 14:00",
    "image_url": null
  },
  {
    "name": "Sri Venkateswara Clinic",
    "address": "Nizampet Road, Hanuman Temple, Nizampet, Telangana 502102",
    "phone": "Sri Venkateswara Clinic",
    "hours": null,
    "image_url": "https://www.bing.com/maps/geoplat/REST/v1/Imagery/Map/RoadVibrant?ms=92,112&key=AnTcaqBi2ypp0xI-OZNi4W_ik2KhjgpqioTAtXLC8GzkMBQRMlyxvxyTnd5b73im&c=en-US&ur=in&da=n&logo=n&fmt=png&od=1&shading=hill&pp=18.130064,78.531158;dfp"
  },
  {
    "name": "Sheshadri Skin Hospital",
    "address": "Beside Rk Lodge, Near New Bus Stand, Kamareddy, Kamareddy, Telangana, Telangana 503111",
    "phone": "Sheshadri Skin Hospital",
    "hours": "Opens in 7 mins",
    "image_url": null
  },
  {
    "name": "Dr. Babul Reddy.B",
    "address": "Sainagar Colony, SH 17, Pothireddypally, Medak, Telangana",
    "phone": "Dr. Babul Reddy.B",
    "hours": "Closed· Opens 17:00",
    "image_url": null
  },
  {
    "name": "Dr. Sharat Kumar P",
    "address": "9, 1-58/91/SS, Suresh Square, Madeenaguda Seri Lingampally, Mandal Ranga Reddy District, Hyderabad…",
    "phone": "Dr. Sharat Kumar P",
    "hours": "Closed· Opens 16:30",
    "image_url": "https://www.bing.com/maps/geoplat/REST/v1/Imagery/Map/RoadVibrant?ms=92,112&key=AnTcaqBi2ypp0xI-OZNi4W_ik2KhjgpqioTAtXLC8GzkMBQRMlyxvxyTnd5b73im&c=en-US&ur=in&da=n&logo=n&fmt=png&od=1&shading=hill&pp=17.496635,78.346733;dfp"
  },
  {
    "name": "Sri Venkateswara Clinic",
    "address": "Medak Main Road, Kowdi Pally, Narsapur, Telangana 502316",
    "phone": "Sri Venkateswara Clinic",
    "hours": null,
    "image_url": "https://www.bing.com/maps/geoplat/REST/v1/Imagery/Map/RoadVibrant?ms=92,112&key=AnTcaqBi2ypp0xI-OZNi4W_ik2KhjgpqioTAtXLC8GzkMBQRMlyxvxyTnd5b73im&c=en-US&ur=in&da=n&logo=n&fmt=png&od=1&shading=hill&pp=17.901613,78.206062;dfp"
  },
  {
    "name": "Dr. Gangadhar Vajrala",
    "address": "Doctors Street, Siddipet, Medak, Telangana",
    "phone": "Dr. Gangadhar Vajrala",
    "hours": "Closed· Opens Wed 14:00",
    "image_url": null
  },
  {
    "name": "Dr Bhushan's Homoeo World",
    "address": "Miyapur, Landmark: Opposite Rao's High School & Near Old Mumbai Highway, Hyderabad, Telangana 500049",
    "phone": "Dr Bhushan's Homoeo World",
    "hours": null,
    "image_url": null
  }
]