[
  {
    "name": "Dr. Shashi Kant Mishra General Physician",
    "address": "Mishra Clinic Bathwa, Mirzapur, Uttar Pradesh 224132",
    "phone": "Dr. Shashi Kant Mishra General Physician",
    "hours": "Open· Closes 14:00",
    "image_url": "https://www.bing.com/maps/geoplat/REST/v1/Imagery/Map/RoadVibrant?ms=92,134&key=AnTcaqBi2ypp0xI-OZNi4W_ik2KhjgpqioTAtXLC8GzkMBQRMlyxvxyTnd5b73im&c=en-US&ur=in&da=n&logo=n&fmt=png&od=1&shading=hill&pp=25.133686,82.564491;dfp"
  },
  {
    "name": "Dr. Ravi Dubey- General Physician In Mirzapur",
    "address": "JP Memorial Clinic, Opp. Roadways Work Shop, Pili Kothi, Lahauli Gautam, Mirzapur-Cum, Vindhyachal, Mi…",
    "phone": "Dr. Ravi Dubey- General Physician In Mirzapur",
    "hours": "Open· Closes 21:00",
    "image_url": "https://www.bing.com/maps/geoplat/REST/v1/Imagery/Map/RoadVibrant?ms=92,134&key=AnTcaqBi2ypp0xI-OZNi4W_ik2KhjgpqioTAtXLC8GzkMBQRMlyxvxyTnd5b73im&c=en-US&ur=in&da=n&logo=n&fmt=png&od=1&shading=hill&pp=25.135777,82.57254;dfp"
  },
  {
    "name": "Dr. Manoj Gupta- General Physician",
    "address": "Sethganj Tata Building, Mirzapur, Uttar Pradesh 231001",
    "phone": "Dr. Manoj Gupta- General Physician",
    "hours": "Open· Closes 14:00",
    "image_url": "https://www.bing.com/maps/geoplat/REST/v1/Imagery/Map/RoadVibrant?ms=92,134&key=AnTcaqBi2ypp0xI-OZNi4W_ik2KhjgpqioTAtXLC8GzkMBQRMlyxvxyTnd5b73im&c=en-US&ur=in&da=n&logo=n&fmt=png&od=1&shading=hill&pp=25.138735,82.567284;dfp"
  },
  {
    "name": "Dr. Shivdayal- General Physician",
    "address": "S Dayal Clinic, Main Road, Ganesh Ganj, Mirzapur, Uttar Pradesh 231001",
    "phone": "Dr. Shivdayal- General Physician",
    "hours": "Open· Closes 20:00",
    "image_url": "https://www.bing.com/maps/geoplat/REST/v1/Imagery/Map/RoadVibrant?ms=92,134&key=AnTcaqBi2ypp0xI-OZNi4W_ik2KhjgpqioTAtXLC8GzkMBQRMlyxvxyTnd5b73im&c=en-US&ur=in&da=n&logo=n&fmt=png&od=1&shading=hill&pp=25.142025,82.558144;dfp"
  },
  {
    "name": "Dr. A K Singh- Ayush",
    "address": "Shipra Clinic, Near Polytechnic College, Bathua Reva Road, Mirzapur, Uttar Pradesh 231001",
    "phone": "Dr. A K Singh- Ayush",
    "hours": "Open· Closes 14:00",
    "image_url": "https://www.bing.com/maps/geoplat/REST/v1/Imagery/Map/RoadVibrant?ms=92,134&key=AnTcaqBi2ypp0xI-OZNi4W_ik2KhjgpqioTAtXLC8GzkMBQRMlyxvxyTnd5b73im&c=en-US&ur=in&da=n&logo=n&fmt=png&od=1&shading=hill&pp=25.129065,82.560555;dfp"
  },
  {
    "name": "Dr. Sukumar Bagchi- Ayush in Mirzapur",
    "address": "Rama Clinic, Natwa, Saket Puri Colony, Mirzapur- Cum- Vindhyachal, Mirzapur, Uttar Pradesh 231001",
    "phone": "Dr. Sukumar Bagchi- Ayush in Mirzapur",
    "hours": "Open· Closes 14:00",
    "image_url": "https://www.bing.com/maps/geoplat/REST/v1/Imagery/Map/RoadVibrant?ms=92,134&key=AnTcaqBi2ypp0xI-OZNi4W_ik2KhjgpqioTAtXLC8GzkMBQRMlyxvxyTnd5b73im&c=en-US&ur=in&da=n&logo=n&fmt=png&od=1&shading=hill&pp=25.148609,82.544167;dfp"
  },
  {
    "name": "Dr. Sunil Gupta- General Physician",
    "address": "Radheshyam Multispeciality Clinic, Bathua Rewa Road, Mirzapur, Uttar Pradesh 231001",
    "phone": "Dr. Sunil Gupta- General Physician",
    "hours": "Open· Closes 14:00",
    "image_url": "https://www.bing.com/maps/geoplat/REST/v1/Imagery/Map/RoadVibrant?ms=92,134&key=AnTcaqBi2ypp0xI-OZNi4W_ik2KhjgpqioTAtXLC8GzkMBQRMlyxvxyTnd5b73im&c=en-US&ur=in&da=n&logo=n&fmt=png&od=1&shading=hill&pp=25.129065,82.560555;dfp"
  },
  {
    "name": "Dr Shulab Malniya",
    "address": "Station Road, Vikas Nagar Colony, Mirzapur-Vindhyachal, Uttar Pradesh 231001",
    "phone": "Dr Shulab Malniya",
    "hours": null,
    "image_url": "https://www.bing.com/maps/geoplat/REST/v1/Imagery/Map/RoadVibrant?ms=92,112&key=AnTcaqBi2ypp0xI-OZNi4W_ik2KhjgpqioTAtXLC8GzkMBQRMlyxvxyTnd5b73im&c=en-US&ur=in&da=n&logo=n&fmt=png&od=1&shading=hill&pp=25.137991,82.577583;dfp"
  },
  {
    "name": "Dr. Alok Pandey- General Physician",
    "address": "Health Care Clinic, Amanganj, Mirzapur, Uttar Pradesh 231001",
    "phone": "Dr. Alok Pandey- General Physician",
    "hours": "Open· Closes 13:30",
    "image_url": "https://www.bing.com/maps/geoplat/REST/v1/Imagery/Map/RoadVibrant?ms=92,134&key=AnTcaqBi2ypp0xI-OZNi4W_ik2KhjgpqioTAtXLC8GzkMBQRMlyxvxyTnd5b73im&c=en-US&ur=in&da=n&logo=n&fmt=png&od=1&shading=hill&pp=25.148844,82.552879;dfp"
  },
  {
    "name": "Dr Prem's Clinic",
    "address": "Tathai Rd, Katra Bazirao, Mirzapur-cum-Vindhyachal, Uttar Pradesh",
    "phone": "Dr Prem's Clinic",
    "hours": null,
    "image_url": "https://www.bing.com/maps/geoplat/REST/v1/Imagery/Map/RoadVibrant?ms=92,112&key=AnTcaqBi2ypp0xI-OZNi4W_ik2KhjgpqioTAtXLC8GzkMBQRMlyxvxyTnd5b73im&c=en-US&ur=in&da=n&logo=n&fmt=png&od=1&shading=hill&pp=25.143559,82.565712;dfp"
  },
  {
    "name": "Dr. Zaid Ahmed- Ayush",
    "address": "Jan Swasthya Clinic Mirzapur, Opposite Eidgah, Ganga Darshan Colony, Saket Puri Colony, Mirzapur- Cum- Vi…",
    "phone": "Dr. Zaid Ahmed- Ayush",
    "hours": "Open· Closes 20:00",
    "image_url": "https://www.bing.com/maps/geoplat/REST/v1/Imagery/Map/RoadVibrant?ms=92,134&key=AnTcaqBi2ypp0xI-OZNi4W_ik2KhjgpqioTAtXLC8GzkMBQRMlyxvxyTnd5b73im&c=en-US&ur=in&da=n&logo=n&fmt=png&od=1&shading=hill&pp=25.147173,82.551727;dfp"
  },
  {
    "name": "Krishna Hospital",
    "address": "Mission Compound Front of Church Ramai Patti, Ramaipatti, Mirzapur, Uttar Pradesh 231001, Mirzapur, …",
    "phone": "Krishna Hospital",
    "hours": null,
    "image_url": null
  },
  {
    "name": "Dr. Rajesh Kumar- Ayush",
    "address": "Shivam Seva Sadan, Auto Stand, Ramai Patti, Mahewa Rd, Mirzapur, Uttar Pradesh 231001",
    "phone": "Dr. Rajesh Kumar- Ayush",
    "hours": "Open· Closes 13:00",
    "image_url": "https://www.bing.com/maps/geoplat/REST/v1/Imagery/Map/RoadVibrant?ms=92,134&key=AnTcaqBi2ypp0xI-OZNi4W_ik2KhjgpqioTAtXLC8GzkMBQRMlyxvxyTnd5b73im&c=en-US&ur=in&da=n&logo=n&fmt=png&od=1&shading=hill&pp=25.150806,82.584244;dfp"
  },
  {
    "name": "Raj Clinic",
    "address": "Kritan Bhawan Marg, Ganesh Ganj, Mirzapur-Vindhyachal, Uttar Pradesh 231001",
    "phone": "Raj Clinic",
    "hours": null,
    "image_url": "https://www.bing.com/maps/geoplat/REST/v1/Imagery/Map/RoadVibrant?ms=92,112&key=AnTcaqBi2ypp0xI-OZNi4W_ik2KhjgpqioTAtXLC8GzkMBQRMlyxvxyTnd5b73im&c=en-US&ur=in&da=n&logo=n&fmt=png&od=1&shading=hill&pp=25.14109,82.562927;dfp"
  },
  {
    "name": "Jp Memorial Clinic",
    "address": "Station Road, Pili Khoti, Mirzapur-Vindhyachal, Uttar Pradesh 231001",
    "phone": "Jp Memorial Clinic",
    "hours": null,
    "image_url": "https://www.bing.com/maps/geoplat/REST/v1/Imagery/Map/RoadVibrant?ms=92,112&key=AnTcaqBi2ypp0xI-OZNi4W_ik2KhjgpqioTAtXLC8GzkMBQRMlyxvxyTnd5b73im&c=en-US&ur=in&da=n&logo=n&fmt=png&od=1&shading=hill&pp=25.135792,82.574509;dfp"
  },
  {
    "name": "Dr. SK Musaddi- Cardiologist in Mirzapur",
    "address": "Samarth Nursing Home Station Road, Mirzapur, Uttar Pradesh 231001",
    "phone": "Dr. SK Musaddi- Cardiologist in Mirzapur",
    "hours": "Closed· Opens 11:00",
    "image_url": "https://www.bing.com/maps/geoplat/REST/v1/Imagery/Map/RoadVibrant?ms=92,134&key=AnTcaqBi2ypp0xI-OZNi4W_ik2KhjgpqioTAtXLC8GzkMBQRMlyxvxyTnd5b73im&c=en-US&ur=in&da=n&logo=n&fmt=png&od=1&shading=hill&pp=25.135225,82.572273;dfp"
  },
  {
    "name": "Dr. Vibha Kumari- Homoeopath",
    "address": "Dr. Vibha Homoeopathy, Vindhyachal, Mirzapur, Uttar Pradesh 231307",
    "phone": "Dr. Vibha Kumari- Homoeopath",
    "hours": "Open· Closes 17:00",
    "image_url": null
  },
  {
    "name": "Dr. Prashant Chaturvedi (pt)",
    "address": "Badli Katra- Beltar, Mirzapur, Uttar Pradesh",
    "phone": "Dr. Prashant Chaturvedi (pt)",
    "hours": "Closed· Opens 17:15",
    "image_url": "https://www.bing.com/maps/geoplat/REST/v1/Imagery/Map/RoadVibrant?ms=92,112&key=AnTcaqBi2ypp0xI-OZNi4W_ik2KhjgpqioTAtXLC8GzkMBQRMlyxvxyTnd5b73im&c=en-US&ur=in&da=n&logo=n&fmt=png&od=1&shading=hill&pp=25.144642,82.570236;dfp"
  }
]