[
  {
    "name": "Beyond Smiles Dental Care, Dr Lal Pathlabs & Aarogya Health Center ( Dr. Bhargav Bhagawaty)",
    "address": "Dhodar ali Rd, Railway Station Tiniali, Near Lici Office, Titabor, Assam",
    "phone": "Beyond Smiles Dental Care, Dr Lal Pathlabs & Aarogya Health Center ( Dr. Bhargav Bhagawaty)",
    "hours": null,
    "image_url": "/th?id=OLC.txksjiZZzlTawg480x360&w=92&h=112&c=8&rs=1&qlt=80&cdv=1&pid=Local"
  },
  {
    "name": "Apollo Clinic",
    "address": "J.R. Complex, A.T Road, Near SBI Moran Branch, Peoli Nagar, Moranhat, Assam 785670",
    "phone": "Apollo Clinic",
    "hours": "Open· Closes 20:00",
    "image_url": "https://www.bing.com/maps/geoplat/REST/v1/Imagery/Map/RoadVibrant?ms=92,134&key=AnTcaqBi2ypp0xI-OZNi4W_ik2KhjgpqioTAtXLC8GzkMBQRMlyxvxyTnd5b73im&c=en-US&ur=in&da=n&logo=n&fmt=png&od=1&shading=hill&pp=26.759817,94.209778;dfp"
  },
  {
    "name": "VI-Lo Clinic",
    "address": "Zunheboto, DC Office Road, Zunheboto Town, Mokokchung, Nagaland 798620",
    "phone": "VI-Lo Clinic",
    "hours": null,
    "image_url": "https://www.bing.com/maps/geoplat/REST/v1/Imagery/Map/RoadVibrant?ms=92,112&key=AnTcaqBi2ypp0xI-OZNi4W_ik2KhjgpqioTAtXLC8GzkMBQRMlyxvxyTnd5b73im&c=en-US&ur=in&da=n&logo=n&fmt=png&od=1&shading=hill&pp=26.325296,94.515739;dfp"
  },
  {
    "name": "Dr Kpd bharali",
    "address": "P6R9+7CQ, Chandan Nagar, Jorhat, Assam",
    "phone": "Dr Kpd bharali",
    "hours": null,
    "image_url": "https://www.bing.com/maps/geoplat/REST/v1/Imagery/Map/RoadVibrant?ms=92,112&key=AnTcaqBi2ypp0xI-OZNi4W_ik2KhjgpqioTAtXLC8GzkMBQRMlyxvxyTnd5b73im&c=en-US&ur=in&da=n&logo=n&fmt=png&od=1&shading=hill&pp=26.736948,94.220253;dfp"
  },
  {
    "name": "Metropolis Healthcare Diagnostic Centre",
    "address": "Sangtemla Ward, Mokokchung, Nagaland 798601",
    "phone": "Metropolis Healthcare Diagnostic Centre",
    "hours": "Open· Closes 18:00",
    "image_url": "https://www.bing.com/maps/geoplat/REST/v1/Imagery/Map/RoadVibrant?ms=92,134&key=AnTcaqBi2ypp0xI-OZNi4W_ik2KhjgpqioTAtXLC8GzkMBQRMlyxvxyTnd5b73im&c=en-US&ur=in&da=n&logo=n&fmt=png&od=1&shading=hill&pp=26.321032,94.514717;dfp"
  },
  {
    "name": "Dr Piyush Agarwal",
    "address": "P.P. Orthocare, Jail Rd, Opposite Motiram Bora High School, Near Daccapatty, Nagaon, Assam",
    "phone": "Dr Piyush Agarwal",
    "hours": null,
    "image_url": "https://www.bing.com/maps/geoplat/REST/v1/Imagery/Map/RoadVibrant?ms=92,112&key=AnTcaqBi2ypp0xI-OZNi4W_ik2KhjgpqioTAtXLC8GzkMBQRMlyxvxyTnd5b73im&c=en-US&ur=in&da=n&logo=n&fmt=png&od=1&shading=hill&pp=26.741318,94.215889;dfp"
  },
  {
    "name": "Shuddhi Clinic By Guru Manish Ji - Best Ayurveda Doctor & Ayurvedic Treatment",
    "address": "3, 857, Chandi Bhavan, Rupahi Ali, East Jorhat, Assam 785001",
    "phone": "Shuddhi Clinic By Guru Manish Ji - Best Ayurveda Doctor & Ayurvedic Treatment",
    "hours": null,
    "image_url": null
  },
  {
    "name": "Dr. Bishal Agarwalla- Nephrologist",
    "address": "Sanjivani Hospital, Q53V+P3R, Assam Trunk Rd, Sonali Jayanti Nagar, Bapuji Nagar, Jorhat, Assam 785001",
    "phone": "Dr. Bishal Agarwalla- Nephrologist",
    "hours": "Closed· Opens Wed 09:00",
    "image_url": "https://www.bing.com/maps/geoplat/REST/v1/Imagery/Map/RoadVibrant?ms=92,134&key=AnTcaqBi2ypp0xI-OZNi4W_ik2KhjgpqioTAtXLC8GzkMBQRMlyxvxyTnd5b73im&c=en-US&ur=in&da=n&logo=n&fmt=png&od=1&shading=hill&pp=26.754335,94.192619;dfp"
  },
  {
    "name": "Drug House(Poddar's Doctors' Clinic & Pharmacy)",
    "address": "A.T. Road, Morigaon Syndicate, Khutikatia, Haibargaon, Nagaon, Assam",
    "phone": "Drug House(Poddar's Doctors' Clinic & Pharmacy)",
    "hours": null,
    "image_url": null
  },
  {
    "name": "Orthocare & Rehab clinic - A Dr. Swapna Pran Saikia's Orthopedic and joint replacement clinic",
    "address": "Zenith Drugs, New Balibat BG Rd, Babupatty, Jorhat, Assam",
    "phone": "Orthocare & Rehab clinic - A Dr. Swapna Pran Saikia's Orthopedic and joint replacement clinic",
    "hours": null,
    "image_url": "https://www.bing.com/maps/geoplat/REST/v1/Imagery/Map/RoadVibrant?ms=92,112&key=AnTcaqBi2ypp0xI-OZNi4W_ik2KhjgpqioTAtXLC8GzkMBQRMlyxvxyTnd5b73im&c=en-US&ur=in&da=n&logo=n&fmt=png&od=1&shading=hill&pp=26.759409,94.212311;dfp"
  },
  {
    "name": "Dr. Pragya Bora | Obstetrician And Gynaecologist",
    "address": "Near old Public bus Stop, Jorhat, Assam, India, 785001, Jorhat, Madhya Pradesh 785001",
    "phone": "Dr. Pragya Bora | Obstetrician And Gynaecologist",
    "hours": "Open· Closes 18:00",
    "image_url": null
  },
  {
    "name": "Physio Rehab Clinic",
    "address": "2ND Floor, Kichuchar Building, Mokokchung, Alongmen Ward, Mokokchung, Nagaland 798601",
    "phone": "Physio Rehab Clinic",
    "hours": null,
    "image_url": "https://www.bing.com/maps/geoplat/REST/v1/Imagery/Map/RoadVibrant?ms=92,112&key=AnTcaqBi2ypp0xI-OZNi4W_ik2KhjgpqioTAtXLC8GzkMBQRMlyxvxyTnd5b73im&c=en-US&ur=in&da=n&logo=n&fmt=png&od=1&shading=hill&pp=26.326336,94.522949;dfp"
  },
  {
    "name": "CNS Clinic",
    "address": "Choladhara, Jorhat, Assam",
    "phone": "CNS Clinic",
    "hours": null,
    "image_url": "https://www.bing.com/maps/geoplat/REST/v1/Imagery/Map/RoadVibrant?ms=92,112&key=AnTcaqBi2ypp0xI-OZNi4W_ik2KhjgpqioTAtXLC8GzkMBQRMlyxvxyTnd5b73im&c=en-US&ur=in&da=n&logo=n&fmt=png&od=1&shading=hill&pp=26.763582,94.195747;dfp"
  },
  {
    "name": "Aarogya Ent Clinic",
    "address": "Ambari, Pavoi Road, Biswanath Chariali, Assam, Assam 784176",
    "phone": "Aarogya Ent Clinic",
    "hours": "Open· Closes 13:00",
    "image_url": null
  },
  {
    "name": "Apollo Dialysis Clinics",
    "address": "Jorhat Medical College & Hospital, Jorhat, Borbheta, Jail Road, Jorhat, Assam 785001",
    "phone": "Apollo Dialysis Clinics",
    "hours": "Open· Closes 21:00",
    "image_url": "https://www.bing.com/maps/geoplat/REST/v1/Imagery/Map/RoadVibrant?ms=92,134&key=AnTcaqBi2ypp0xI-OZNi4W_ik2KhjgpqioTAtXLC8GzkMBQRMlyxvxyTnd5b73im&c=en-US&ur=in&da=n&logo=n&fmt=png&od=1&shading=hill&pp=26.741776,94.197235;dfp"
  },
  {
    "name": "Apollo Dialysis Clinics, Sibsagar",
    "address": "Civil Hospital, Sivasagar, Assam 785640",
    "phone": "Apollo Dialysis Clinics, Sibsagar",
    "hours": "Open· Closes 21:00",
    "image_url": "https://www.bing.com/maps/geoplat/REST/v1/Imagery/Map/RoadVibrant?ms=92,134&key=AnTcaqBi2ypp0xI-OZNi4W_ik2KhjgpqioTAtXLC8GzkMBQRMlyxvxyTnd5b73im&c=en-US&ur=in&da=n&logo=n&fmt=png&od=1&shading=hill&pp=26.955118,94.610954;dfp"
  }
]