[
  {
    "name": "Dr P K Gupta",
    "address": "Pat Pat Sarai, Moradabad, Uttar Pradesh 244001, India, Moradabad, Uttar Pradesh 244001",
    "phone": "Dr P K Gupta",
    "hours": null,
    "image_url": "https://www.bing.com/maps/geoplat/REST/v1/Imagery/Map/RoadVibrant?ms=92,112&key=AnTcaqBi2ypp0xI-OZNi4W_ik2KhjgpqioTAtXLC8GzkMBQRMlyxvxyTnd5b73im&c=en-US&ur=in&da=n&logo=n&fmt=png&od=1&shading=hill&pp=28.837576,78.768745;dfp"
  },
  {
    "name": "Dr. Hans Raj Clinic",
    "address": "Court Road Near Bala Ji Mandir, Moradabad, Uttar Pradesh 244001",
    "phone": "Dr. Hans Raj Clinic",
    "hours": null,
    "image_url": "/th?id=OLC.NxFJxMSiy6XZkQ480x360&w=92&h=112&c=8&rs=1&qlt=80&cdv=1&pid=Local"
  },
  {
    "name": "Shuddhi Clinic By Acharya Manish - Best Ayurveda Doctor & Ayurvedic Treatment",
    "address": "Kirtika Healthcare 2/3 First Floor, Shopping Complex, Near Sai Hospital and SBI Bank Dehli Road, Moradaba…",
    "phone": "Shuddhi Clinic By Acharya Manish - Best Ayurveda Doctor & Ayurvedic Treatment",
    "hours": "Open· Closes 18:00",
    "image_url": "/th?id=OLC.mfQBurkhgk1cyQ480x360&w=92&h=134&c=8&rs=1&qlt=80&cdv=1&pid=Local"
  },
  {
    "name": "Dr. K R Singh",
    "address": "Delhi Road, Moradabad, Uttar Pradesh",
    "phone": "Dr. K R Singh",
    "hours": "Open· Closes 14:00",
    "image_url": "/th?id=OLC.yPKnfLdN0HcDOg480x360&w=92&h=112&c=8&rs=1&qlt=80&cdv=1&pid=Local"
  },
  {
    "name": "Dr Arvind Mohan",
    "address": "Station Road, Moradabad 244001",
    "phone": "Dr Arvind Mohan",
    "hours": null,
    "image_url": "https://www.bing.com/maps/geoplat/REST/v1/Imagery/Map/RoadVibrant?ms=92,112&key=AnTcaqBi2ypp0xI-OZNi4W_ik2KhjgpqioTAtXLC8GzkMBQRMlyxvxyTnd5b73im&c=en-US&ur=in&da=n&logo=n&fmt=png&od=1&shading=hill&pp=28.832611,78.769936;dfp"
  },
  {
    "name": "Dr. Ankur Goel",
    "address": "Delhi Road, Landmark: Opposite Om Sons Hotel, Moradabad 244001",
    "phone": "Dr. Ankur Goel",
    "hours": "Open· Closes 14:00",
    "image_url": "/th?id=OLC.%2bXfj6AX0GeG0tw480x360&w=92&h=112&c=8&rs=1&qlt=80&cdv=1&pid=Local"
  },
  {
    "name": "Dr. S N Hasan",
    "address": "Delhi Road, Moradabad, Uttar Pradesh",
    "phone": "Dr. S N Hasan",
    "hours": "Open· Closes 14:00",
    "image_url": "https://www.bing.com/maps/geoplat/REST/v1/Imagery/Map/RoadVibrant?ms=92,112&key=AnTcaqBi2ypp0xI-OZNi4W_ik2KhjgpqioTAtXLC8GzkMBQRMlyxvxyTnd5b73im&c=en-US&ur=in&da=n&logo=n&fmt=png&od=1&shading=hill&pp=28.8402,78.7528;dfp"
  },
  {
    "name": "Jumma Clinic",
    "address": "Badi Masjid Rd, Asalatpura, Moradabad, Uttar Pradesh",
    "phone": "Jumma Clinic",
    "hours": "Closed· Opens 13:00",
    "image_url": null
  },
  {
    "name": "Rajani Eye and Dental Clinic - Dr. Goel Plaesthetica",
    "address": "Parker Road, Moradabad, Uttar Pradesh",
    "phone": "Rajani Eye and Dental Clinic - Dr. Goel Plaesthetica",
    "hours": null,
    "image_url": "https://www.bing.com/maps/geoplat/REST/v1/Imagery/Map/RoadVibrant?ms=92,112&key=AnTcaqBi2ypp0xI-OZNi4W_ik2KhjgpqioTAtXLC8GzkMBQRMlyxvxyTnd5b73im&c=en-US&ur=in&da=n&logo=n&fmt=png&od=1&shading=hill&pp=28.834402,78.764343;dfp"
  },
  {
    "name": "Dr Saurabh Gupta Clinic",
    "address": "Gandhi Nagar, Moradabad, Uttar Pradesh, Moradabad 244001",
    "phone": "Dr Saurabh Gupta Clinic",
    "hours": null,
    "image_url": "https://www.bing.com/maps/geoplat/REST/v1/Imagery/Map/RoadVibrant?ms=92,112&key=AnTcaqBi2ypp0xI-OZNi4W_ik2KhjgpqioTAtXLC8GzkMBQRMlyxvxyTnd5b73im&c=en-US&ur=in&da=n&logo=n&fmt=png&od=1&shading=hill&pp=28.827831,78.773232;dfp"
  },
  {
    "name": "Dr S K Menrotra Clinic",
    "address": "Gmd Road, Moradabad 244001",
    "phone": "Dr S K Menrotra Clinic",
    "hours": null,
    "image_url": "https://www.bing.com/maps/geoplat/REST/v1/Imagery/Map/RoadVibrant?ms=92,112&key=AnTcaqBi2ypp0xI-OZNi4W_ik2KhjgpqioTAtXLC8GzkMBQRMlyxvxyTnd5b73im&c=en-US&ur=in&da=n&logo=n&fmt=png&od=1&shading=hill&pp=28.837553,78.768379;dfp"
  },
  {
    "name": "Dr. R.k. Malhotra",
    "address": "Kanth Rd, Near Pac, Naveen Nagar, Adarsh Colony, Moradabad, Uttar Pradesh 244001",
    "phone": "Dr. R.k. Malhotra",
    "hours": null,
    "image_url": null
  },
  {
    "name": "Dr Ashok Kumar Clinic",
    "address": "Peeli Kothi Chauraha, Ganj Bazar, Moradabad, Uttar Pradesh 244001",
    "phone": "Dr Ashok Kumar Clinic",
    "hours": null,
    "image_url": "https://www.bing.com/maps/geoplat/REST/v1/Imagery/Map/RoadVibrant?ms=92,112&key=AnTcaqBi2ypp0xI-OZNi4W_ik2KhjgpqioTAtXLC8GzkMBQRMlyxvxyTnd5b73im&c=en-US&ur=in&da=n&logo=n&fmt=png&od=1&shading=hill&pp=28.847509,78.768845;dfp"
  },
  {
    "name": "Dr. Tarique Naseem",
    "address": "Delhi Road, Moradabad, Uttar Pradesh",
    "phone": "Dr. Tarique Naseem",
    "hours": "Open· Closes 14:00",
    "image_url": null
  },
  {
    "name": "Dr Manoj Kumar Clinic",
    "address": "Bhatti Street, Moradabad, Uttar Pradesh 244001",
    "phone": "Dr Manoj Kumar Clinic",
    "hours": null,
    "image_url": "https://www.bing.com/maps/geoplat/REST/v1/Imagery/Map/RoadVibrant?ms=92,112&key=AnTcaqBi2ypp0xI-OZNi4W_ik2KhjgpqioTAtXLC8GzkMBQRMlyxvxyTnd5b73im&c=en-US&ur=in&da=n&logo=n&fmt=png&od=1&shading=hill&pp=28.834311,78.78083;dfp"
  },
  {
    "name": "Dr V K Sharma Clinic",
    "address": "Gandhi Nagar, Moradabad, Uttar Pradesh 244001",
    "phone": "Dr V K Sharma Clinic",
    "hours": null,
    "image_url": "https://www.bing.com/maps/geoplat/REST/v1/Imagery/Map/RoadVibrant?ms=92,112&key=AnTcaqBi2ypp0xI-OZNi4W_ik2KhjgpqioTAtXLC8GzkMBQRMlyxvxyTnd5b73im&c=en-US&ur=in&da=n&logo=n&fmt=png&od=1&shading=hill&pp=28.827978,78.773544;dfp"
  },
  {
    "name": "Dr. Manoj Prabhakaran MBBS, MD, DM Nephrologist",
    "address": "TMU Medical College, Hospital, Moradabad, Uttar Pradesh",
    "phone": "Dr. Manoj Prabhakaran MBBS, MD, DM Nephrologist",
    "hours": null,
    "image_url": "https://www.bing.com/maps/geoplat/REST/v1/Imagery/Map/RoadVibrant?ms=92,112&key=AnTcaqBi2ypp0xI-OZNi4W_ik2KhjgpqioTAtXLC8GzkMBQRMlyxvxyTnd5b73im&c=en-US&ur=in&da=n&logo=n&fmt=png&od=1&shading=hill&pp=28.832024,78.754379;dfp"
  },
  {
    "name": "Dr H N Tiwari Clinic",
    "address": "Majhola Road, Majholi Chowk, Moradabad, Uttar Pradesh 244001",
    "phone": "Dr H N Tiwari Clinic",
    "hours": null,
    "image_url": "https://www.bing.com/maps/geoplat/REST/v1/Imagery/Map/RoadVibrant?ms=92,112&key=AnTcaqBi2ypp0xI-OZNi4W_ik2KhjgpqioTAtXLC8GzkMBQRMlyxvxyTnd5b73im&c=en-US&ur=in&da=n&logo=n&fmt=png&od=1&shading=hill&pp=28.834551,78.756981;dfp"
  }
]