[
  {
    "name": "Dr. Pradeep bhatt | General Physician | Anuj health care clinic, Sanala road, MORBI.",
    "address": "Anuj Health Care Clinic, Sanala Road, Morbi, Gujarat, India, 363641, Morbi, Madhya Pradesh 363641",
    "phone": "Dr. Pradeep bhatt | General Physician | Anuj health care clinic, Sanala road, MORBI.",
    "hours": "Open· Closes 20:00",
    "image_url": "/th?id=OLC.SIDcYTx1d%2fqD4A480x360&w=92&h=134&c=8&rs=1&qlt=80&cdv=1&pid=Local"
  },
  {
    "name": "Dr Ravi Kotecha DNB General Surgeon & Laparoscopic Surgeon",
    "address": "Prabhukrupa Township, Shivam Multi-Speciality Hospital, &, Mahendranagar Rd, Near Subhash Park, opp. Ramd…",
    "phone": "Dr Ravi Kotecha DNB General Surgeon & Laparoscopic Surgeon",
    "hours": null,
    "image_url": "https://www.bing.com/maps/geoplat/REST/v1/Imagery/Map/RoadVibrant?ms=92,112&key=AnTcaqBi2ypp0xI-OZNi4W_ik2KhjgpqioTAtXLC8GzkMBQRMlyxvxyTnd5b73im&c=en-US&ur=in&da=n&logo=n&fmt=png&od=1&shading=hill&pp=22.826614,70.849052;dfp"
  },
  {
    "name": "Dr Bharat Kaila",
    "address": "Krishna Multispeciality Hospital, Morbi, Gujarat 363641",
    "phone": "Dr Bharat Kaila",
    "hours": null,
    "image_url": "https://www.bing.com/maps/geoplat/REST/v1/Imagery/Map/RoadVibrant?ms=92,112&key=AnTcaqBi2ypp0xI-OZNi4W_ik2KhjgpqioTAtXLC8GzkMBQRMlyxvxyTnd5b73im&c=en-US&ur=in&da=n&logo=n&fmt=png&od=1&shading=hill&pp=22.825575,70.822449;dfp"
  },
  {
    "name": "Nakhatrana Aayush Hospital Llp",
    "address": "Savsar Plot, Street No 2, Near Old Bus Stand, Ayodhyapuri Road, Morbi, Gujarat 363641",
    "phone": "Nakhatrana Aayush Hospital Llp",
    "hours": null,
    "image_url": "/th?id=OLC.oJtCxpj2FSl1BQ480x360&w=92&h=112&c=8&rs=1&qlt=80&cdv=1&pid=Local"
  },
  {
    "name": "Dr Ankitkumar C. Sinojia Pediatrician",
    "address": "Bachpan Hospital, Savsar Plot Main Road, Near Ram Chowk, Morbi, Gujarat 363641",
    "phone": "Dr Ankitkumar C. Sinojia Pediatrician",
    "hours": "Open· Closes 13:00",
    "image_url": "/th?id=OLC.rDy%2fsp1mdXEDsA480x360&w=92&h=134&c=8&rs=1&qlt=80&cdv=1&pid=Local"
  },
  {
    "name": "Dhaval CLINIC-DR.Hansa Bhatt, DR.Chandresh Bhatt",
    "address": "B/H Bhavani Soda, Ravapar Rd, opp. Sony TV Showroom, Morbi, Gujarat",
    "phone": "Dhaval CLINIC-DR.Hansa Bhatt, DR.Chandresh Bhatt",
    "hours": null,
    "image_url": "https://www.bing.com/maps/geoplat/REST/v1/Imagery/Map/RoadVibrant?ms=92,112&key=AnTcaqBi2ypp0xI-OZNi4W_ik2KhjgpqioTAtXLC8GzkMBQRMlyxvxyTnd5b73im&c=en-US&ur=in&da=n&logo=n&fmt=png&od=1&shading=hill&pp=22.802938,70.827301;dfp"
  },
  {
    "name": "Om Clinic and Occupational Health center",
    "address": "Shiv Shakti Complex, Opposite Prakruti Society, Mahendra Nagar Chokdi, Morbi, Gujarat 363642",
    "phone": "Om Clinic and Occupational Health center",
    "hours": "Open· Closes 20:00",
    "image_url": null
  },
  {
    "name": "Dr. Prashant Gohil'S Lung care, allergy clinic & Sleep study centre",
    "address": "Medico Hospital, 3rd Floor, Shubh Laxmi Avenue Handloom Road, Gujarat",
    "phone": "Dr. Prashant Gohil'S Lung care, allergy clinic & Sleep study centre",
    "hours": null,
    "image_url": null
  },
  {
    "name": "Shree Ram Clinic (Dr. Rajpara's Clinic)",
    "address": "Morbi - Halvad Highway, opp. Shiv Petroleum, Parishram Complex, Nichimandal, Gujarat",
    "phone": "Shree Ram Clinic (Dr. Rajpara's Clinic)",
    "hours": null,
    "image_url": "https://www.bing.com/maps/geoplat/REST/v1/Imagery/Map/RoadVibrant?ms=92,112&key=AnTcaqBi2ypp0xI-OZNi4W_ik2KhjgpqioTAtXLC8GzkMBQRMlyxvxyTnd5b73im&c=en-US&ur=in&da=n&logo=n&fmt=png&od=1&shading=hill&pp=22.810184,70.825485;dfp"
  },
  {
    "name": "Dr Hitesh Patel (Aum ENT Hospital & Vertigo Center)",
    "address": "Bus Station, Savsar Plot 6, Nr. Mangalam Hospital b/h. Krishna Travels Nr. Old, Morbi, Gujarat",
    "phone": "Dr Hitesh Patel (Aum ENT Hospital & Vertigo Center)",
    "hours": null,
    "image_url": "https://www.bing.com/maps/geoplat/REST/v1/Imagery/Map/RoadVibrant?ms=92,112&key=AnTcaqBi2ypp0xI-OZNi4W_ik2KhjgpqioTAtXLC8GzkMBQRMlyxvxyTnd5b73im&c=en-US&ur=in&da=n&logo=n&fmt=png&od=1&shading=hill&pp=22.8167,70.833298;dfp"
  },
  {
    "name": "Manasvi homoeopathic clinic morbi/Gujarat",
    "address": "Suryakirti Society Near Rushikesh Vidhyalay Morbi-2 Gujrat, Morbi, Gujarat, Gujarat 363642",
    "phone": "Manasvi homoeopathic clinic morbi/Gujarat",
    "hours": null,
    "image_url": null
  },
  {
    "name": "Aastha Orthopaedic & Eye Hospital",
    "address": "Opposite Sardar Baug, Near Petrol Pump, Sanala Road, Morbi, Gujarat, Gujarat 363641",
    "phone": "Aastha Orthopaedic & Eye Hospital",
    "hours": null,
    "image_url": null
  },
  {
    "name": "DR. Milankumar Gordhanbhai Ughareja",
    "address": "First Floor Madhuram Shopping B/H Madhav Market Shanala Road, Morbi, Gujarat 363641",
    "phone": "DR. Milankumar Gordhanbhai Ughareja",
    "hours": null,
    "image_url": null
  },
  {
    "name": "Metropolis Healthcare Limited - Pathology Lab, Diagnostic Centre",
    "address": "Ground Floor, Ravapar Road, Opposite Nilkanth School, Morbi, Gujarat 363641",
    "phone": "Metropolis Healthcare Limited - Pathology Lab, Diagnostic Centre",
    "hours": "Open· Closes 20:00",
    "image_url": "https://www.bing.com/maps/geoplat/REST/v1/Imagery/Map/RoadVibrant?ms=92,134&key=AnTcaqBi2ypp0xI-OZNi4W_ik2KhjgpqioTAtXLC8GzkMBQRMlyxvxyTnd5b73im&c=en-US&ur=in&da=n&logo=n&fmt=png&od=1&shading=hill&pp=22.815775,70.829651;dfp"
  },
  {
    "name": "Radhe Ent Hospital & Laser Centre",
    "address": "Vedant Hospital, 3RD Floor, Besides DR Kananisir Hospital, Sanala Rd, opp. Mahesh Hotel, Morbi, Gujarat",
    "phone": "Radhe Ent Hospital & Laser Centre",
    "hours": null,
    "image_url": "https://www.bing.com/maps/geoplat/REST/v1/Imagery/Map/RoadVibrant?ms=92,112&key=AnTcaqBi2ypp0xI-OZNi4W_ik2KhjgpqioTAtXLC8GzkMBQRMlyxvxyTnd5b73im&c=en-US&ur=in&da=n&logo=n&fmt=png&od=1&shading=hill&pp=22.812746,70.828819;dfp"
  },
  {
    "name": "Kamya Skin Clinic - Morbi ( Dr. Dixit R. Kasundra)",
    "address": "Savsar Plot\\11, Above Sundeep Eye Hospital, Savsar Plot Main Road, Morbi, Gujarat 363641",
    "phone": "Kamya Skin Clinic - Morbi ( Dr. Dixit R. Kasundra)",
    "hours": null,
    "image_url": null
  },
  {
    "name": "Saumya Skin Clinic ( Dr. Ajay Chhatrola)",
    "address": "10, Opp. Ashirwad Hospital, Near Amrutam Hospital, Savsar Plot, Sardar Nagar, Gujarat 363641",
    "phone": "Saumya Skin Clinic ( Dr. Ajay Chhatrola)",
    "hours": null,
    "image_url": "https://www.bing.com/maps/geoplat/REST/v1/Imagery/Map/RoadVibrant?ms=92,112&key=AnTcaqBi2ypp0xI-OZNi4W_ik2KhjgpqioTAtXLC8GzkMBQRMlyxvxyTnd5b73im&c=en-US&ur=in&da=n&logo=n&fmt=png&od=1&shading=hill&pp=22.80681,70.828842;dfp"
  },
  {
    "name": "Radhe 3D Sonography",
    "address": "Main Rd, Savsar Plot, Sardar Nagar, Morbi, Gujarat",
    "phone": "Radhe 3D Sonography",
    "hours": null,
    "image_url": null
  }
]