[
  {
    "name": "Dr.Ramgopal Bansal Clinic",
    "address": "Gote Nagar dr Ramgopal Bansalramnagar, Uttam Pura Rd, Ramnagar, Morena, Madhya Pradesh",
    "phone": "Dr.Ramgopal Bansal Clinic",
    "hours": null,
    "image_url": "https://www.bing.com/maps/geoplat/REST/v1/Imagery/Map/RoadVibrant?ms=92,112&key=AnTcaqBi2ypp0xI-OZNi4W_ik2KhjgpqioTAtXLC8GzkMBQRMlyxvxyTnd5b73im&c=en-US&ur=in&da=n&logo=n&fmt=png&od=1&shading=hill&pp=26.502439,78.00032;dfp"
  },
  {
    "name": "Dr Rakesh Gupta",
    "address": "Nehru Park Road, Mill Area Morenam P), Morena-476001, Morena, Madhya Pradesh 476001",
    "phone": "Dr Rakesh Gupta",
    "hours": null,
    "image_url": "https://www.bing.com/maps/geoplat/REST/v1/Imagery/Map/RoadVibrant?ms=92,112&key=AnTcaqBi2ypp0xI-OZNi4W_ik2KhjgpqioTAtXLC8GzkMBQRMlyxvxyTnd5b73im&c=en-US&ur=in&da=n&logo=n&fmt=png&od=1&shading=hill&pp=26.497974,77.996887;dfp"
  },
  {
    "name": "Dr. Yogendra Singh Yadav | Sanjeevani Hospital",
    "address": "Fatak Bahar Ambah Road Morena, Morena, Madhya Pradesh, India, 476001, Morena, Madhya Pradesh 476…",
    "phone": "Dr. Yogendra Singh Yadav | Sanjeevani Hospital",
    "hours": "Closed· Opens 11:00",
    "image_url": "/th?id=OLC.LzmQ8tsj9cbDwQ480x360&w=92&h=112&c=8&rs=1&qlt=80&cdv=1&pid=Local"
  },
  {
    "name": "Dr P.S.Pendharkar",
    "address": "M.S. Road, Morena, Madhya Pradesh 476001",
    "phone": "Dr P.S.Pendharkar",
    "hours": null,
    "image_url": "https://www.bing.com/maps/geoplat/REST/v1/Imagery/Map/RoadVibrant?ms=92,112&key=AnTcaqBi2ypp0xI-OZNi4W_ik2KhjgpqioTAtXLC8GzkMBQRMlyxvxyTnd5b73im&c=en-US&ur=in&da=n&logo=n&fmt=png&od=1&shading=hill&pp=26.49794,77.994965;dfp"
  },
  {
    "name": "Adarsh Clinic",
    "address": "Bali Gali, Near Shiv Mandir ke Shamane, Runaha, Madhya Pradesh",
    "phone": "Adarsh Clinic",
    "hours": null,
    "image_url": "https://www.bing.com/maps/geoplat/REST/v1/Imagery/Map/RoadVibrant?ms=92,112&key=AnTcaqBi2ypp0xI-OZNi4W_ik2KhjgpqioTAtXLC8GzkMBQRMlyxvxyTnd5b73im&c=en-US&ur=in&da=n&logo=n&fmt=png&od=1&shading=hill&pp=26.499607,78.000923;dfp"
  },
  {
    "name": "Dr. Lila Dhar Garg",
    "address": "Rui Ki Mandi, Purani Jeen, Gali Number 2, Morena, Madhya Pradesh",
    "phone": "Dr. Lila Dhar Garg",
    "hours": "Open· Closes 13:00",
    "image_url": "https://www.bing.com/maps/geoplat/REST/v1/Imagery/Map/RoadVibrant?ms=92,112&key=AnTcaqBi2ypp0xI-OZNi4W_ik2KhjgpqioTAtXLC8GzkMBQRMlyxvxyTnd5b73im&c=en-US&ur=in&da=n&logo=n&fmt=png&od=1&shading=hill&pp=26.504236,77.999786;dfp"
  },
  {
    "name": "Rathore Clinic",
    "address": "Bhumiya Baba Temple, Mahavirpura, Morena, Madhya Pradesh 476001",
    "phone": "Rathore Clinic",
    "hours": null,
    "image_url": "https://www.bing.com/maps/geoplat/REST/v1/Imagery/Map/RoadVibrant?ms=92,112&key=AnTcaqBi2ypp0xI-OZNi4W_ik2KhjgpqioTAtXLC8GzkMBQRMlyxvxyTnd5b73im&c=en-US&ur=in&da=n&logo=n&fmt=png&od=1&shading=hill&pp=26.505209,77.996727;dfp"
  },
  {
    "name": "Dr Seetaram Dandotiya Chikitsalaya",
    "address": "M S Road, Janpad Panchayat, H B Colony, Morena, Madhya Pradesh 476001",
    "phone": "Dr Seetaram Dandotiya Chikitsalaya",
    "hours": null,
    "image_url": "https://www.bing.com/maps/geoplat/REST/v1/Imagery/Map/RoadVibrant?ms=92,112&key=AnTcaqBi2ypp0xI-OZNi4W_ik2KhjgpqioTAtXLC8GzkMBQRMlyxvxyTnd5b73im&c=en-US&ur=in&da=n&logo=n&fmt=png&od=1&shading=hill&pp=26.493473,77.991257;dfp"
  },
  {
    "name": "Dr. Rahul Gupta",
    "address": "B L Medical Centre, Near District Hospital, In Front of Nagar Nigam, M S Road, Morena, Madhya Pradesh",
    "phone": "Dr. Rahul Gupta",
    "hours": "Open· Closes 14:30",
    "image_url": null
  },
  {
    "name": "Dr. Siddharth Bakrania | M.D. Medicine | Shashwat hospital and ICU",
    "address": "Opp. Government Hospital, Navagadh, Taleti Road, Palitana, Madhya Pradesh 364270",
    "phone": "Dr. Siddharth Bakrania | M.D. Medicine | Shashwat hospital and ICU",
    "hours": "Open· Closes 13:00",
    "image_url": "https://www.bing.com/maps/geoplat/REST/v1/Imagery/Map/RoadVibrant?ms=92,134&key=AnTcaqBi2ypp0xI-OZNi4W_ik2KhjgpqioTAtXLC8GzkMBQRMlyxvxyTnd5b73im&c=en-US&ur=in&da=n&logo=n&fmt=png&od=1&shading=hill&pp=26.496695,77.997879;dfp"
  },
  {
    "name": "Dr. K.k. Gupta Hospital",
    "address": "Nehru Park, Mill Area Rd, Near, Morena, Madhya Pradesh 476001, India, Morena, Madhya Pradesh 4760…",
    "phone": "Dr. K.k. Gupta Hospital",
    "hours": null,
    "image_url": "https://www.bing.com/maps/geoplat/REST/v1/Imagery/Map/RoadVibrant?ms=92,112&key=AnTcaqBi2ypp0xI-OZNi4W_ik2KhjgpqioTAtXLC8GzkMBQRMlyxvxyTnd5b73im&c=en-US&ur=in&da=n&logo=n&fmt=png&od=1&shading=hill&pp=26.499731,77.996475;dfp"
  },
  {
    "name": "Sharma Clinic",
    "address": "Housing Board Colony, Morena, Madhya Pradesh 476001",
    "phone": "Sharma Clinic",
    "hours": null,
    "image_url": "https://www.bing.com/maps/geoplat/REST/v1/Imagery/Map/RoadVibrant?ms=92,112&key=AnTcaqBi2ypp0xI-OZNi4W_ik2KhjgpqioTAtXLC8GzkMBQRMlyxvxyTnd5b73im&c=en-US&ur=in&da=n&logo=n&fmt=png&od=1&shading=hill&pp=26.50392,77.996651;dfp"
  },
  {
    "name": "Dr K.L.Bhavla",
    "address": "Dutta Pura, Morena, Madhya Pradesh 476001",
    "phone": "Dr K.L.Bhavla",
    "hours": null,
    "image_url": "https://www.bing.com/maps/geoplat/REST/v1/Imagery/Map/RoadVibrant?ms=92,112&key=AnTcaqBi2ypp0xI-OZNi4W_ik2KhjgpqioTAtXLC8GzkMBQRMlyxvxyTnd5b73im&c=en-US&ur=in&da=n&logo=n&fmt=png&od=1&shading=hill&pp=26.499712,77.996475;dfp"
  },
  {
    "name": "Jain Clinic",
    "address": "Ambah Road, Shree Mahaveer Digambar Jain Temple, Ramnagar, Morena, Madhya Pradesh 476001",
    "phone": "Jain Clinic",
    "hours": null,
    "image_url": "https://www.bing.com/maps/geoplat/REST/v1/Imagery/Map/RoadVibrant?ms=92,112&key=AnTcaqBi2ypp0xI-OZNi4W_ik2KhjgpqioTAtXLC8GzkMBQRMlyxvxyTnd5b73im&c=en-US&ur=in&da=n&logo=n&fmt=png&od=1&shading=hill&pp=26.504696,78.005432;dfp"
  },
  {
    "name": "Dr. Neeta Kushwaha- Obstetrician & Gynecologist",
    "address": "Women's Healthcare, Jail Road, Near Sharma Pathology, Morena, Madhya Pradesh 476001",
    "phone": "Dr. Neeta Kushwaha- Obstetrician & Gynecologist",
    "hours": "Closed· Opens 14:00",
    "image_url": "https://www.bing.com/maps/geoplat/REST/v1/Imagery/Map/RoadVibrant?ms=92,134&key=AnTcaqBi2ypp0xI-OZNi4W_ik2KhjgpqioTAtXLC8GzkMBQRMlyxvxyTnd5b73im&c=en-US&ur=in&da=n&logo=n&fmt=png&od=1&shading=hill&pp=26.49596,77.98896;dfp"
  },
  {
    "name": "Bhatnagar Clinic",
    "address": "Joura Road, Berial Chauraha, Galetha, Morena, Madhya Pradesh 476001",
    "phone": "Bhatnagar Clinic",
    "hours": null,
    "image_url": null
  },
  {
    "name": "Dr. Raghav Singhal (DM Gastroenterology) - Best Liver Specialist & Gastroenterologist",
    "address": "Singhal Nursing Home, Mill Area Road, Morena, Madhya Pradesh 476001",
    "phone": "Dr. Raghav Singhal (DM Gastroenterology) - Best Liver Specialist & Gastroenterologist",
    "hours": "Open· Closes 12:00",
    "image_url": "https://www.bing.com/maps/geoplat/REST/v1/Imagery/Map/RoadVibrant?ms=92,134&key=AnTcaqBi2ypp0xI-OZNi4W_ik2KhjgpqioTAtXLC8GzkMBQRMlyxvxyTnd5b73im&c=en-US&ur=in&da=n&logo=n&fmt=png&od=1&shading=hill&pp=26.49753,77.996819;dfp"
  },
  {
    "name": "Dr. Sunil Tomar",
    "address": "27/1124, Sikshak Colony, Ramnagar Morena, Morena, Madhya Pradesh",
    "phone": "Dr. Sunil Tomar",
    "hours": "Closed· Opens 19:00",
    "image_url": "https://www.bing.com/maps/geoplat/REST/v1/Imagery/Map/RoadVibrant?ms=92,112&key=AnTcaqBi2ypp0xI-OZNi4W_ik2KhjgpqioTAtXLC8GzkMBQRMlyxvxyTnd5b73im&c=en-US&ur=in&da=n&logo=n&fmt=png&od=1&shading=hill&pp=26.50592,78.007851;dfp"
  }
]