[
  {
    "name": "DR. Harwinder Clinic",
    "address": "C\\O Harwinder Singh, S\\O Jagdev Singh, Muktsar, Punjab 152025",
    "phone": "DR. Harwinder Clinic",
    "hours": null,
    "image_url": "https://www.bing.com/maps/geoplat/REST/v1/Imagery/Map/RoadVibrant?ms=92,112&key=AnTcaqBi2ypp0xI-OZNi4W_ik2KhjgpqioTAtXLC8GzkMBQRMlyxvxyTnd5b73im&c=en-US&ur=in&da=n&logo=n&fmt=png&od=1&shading=hill&pp=30.470499,74.5093;dfp"
  },
  {
    "name": "Dr Pruthis Clinic",
    "address": "Bhandari Hospital, Sh 16, Muktsar, Punjab 152026",
    "phone": "Dr Pruthis Clinic",
    "hours": null,
    "image_url": "https://www.bing.com/maps/geoplat/REST/v1/Imagery/Map/RoadVibrant?ms=92,112&key=AnTcaqBi2ypp0xI-OZNi4W_ik2KhjgpqioTAtXLC8GzkMBQRMlyxvxyTnd5b73im&c=en-US&ur=in&da=n&logo=n&fmt=png&od=1&shading=hill&pp=30.464865,74.526405;dfp"
  },
  {
    "name": "DR. Sukhjeet Ayurveda",
    "address": "Malout Road, Malout Road Opp. Taj Palace, Muktsar, Punjab 152026",
    "phone": "DR. Sukhjeet Ayurveda",
    "hours": null,
    "image_url": "https://www.bing.com/maps/geoplat/REST/v1/Imagery/Map/RoadVibrant?ms=92,112&key=AnTcaqBi2ypp0xI-OZNi4W_ik2KhjgpqioTAtXLC8GzkMBQRMlyxvxyTnd5b73im&c=en-US&ur=in&da=n&logo=n&fmt=png&od=1&shading=hill&pp=30.467199,74.518188;dfp"
  },
  {
    "name": "Malwa Ortho Hospital",
    "address": "Kotkapura Rd, Deep Nagar, Sri Muktsar Sahib, Punjab 152026, India, Sri Muktsar Sahib, Punjab 152026",
    "phone": "Malwa Ortho Hospital",
    "hours": null,
    "image_url": "/th?id=OLC.mpaVG8XFiz80ag480x360&w=92&h=112&c=8&rs=1&qlt=80&cdv=1&pid=Local"
  },
  {
    "name": "Dr Pooja Dixit Clinic",
    "address": "Adarsh Nagar, Malout, Punjab 152107",
    "phone": "Dr Pooja Dixit Clinic",
    "hours": null,
    "image_url": "https://www.bing.com/maps/geoplat/REST/v1/Imagery/Map/RoadVibrant?ms=92,112&key=AnTcaqBi2ypp0xI-OZNi4W_ik2KhjgpqioTAtXLC8GzkMBQRMlyxvxyTnd5b73im&c=en-US&ur=in&da=n&logo=n&fmt=png&od=1&shading=hill&pp=30.189669,74.504555;dfp"
  },
  {
    "name": "Sukhpreet Homoeopathic Clinic. Sri Muktsar Sahib",
    "address": "House No. B-6/1214, Namdev Nagar, Street No.4, Katcha Thande Wala Road, Muktsar 152026",
    "phone": "Sukhpreet Homoeopathic Clinic. Sri Muktsar Sahib",
    "hours": "Closed路 Opens 15:30",
    "image_url": "/th?id=OLC.vIN8wI24zgulPQ480x360&w=92&h=134&c=8&rs=1&qlt=80&cdv=1&pid=Local"
  },
  {
    "name": "Dr. Yogita Singla at singla homeopathic clinic",
    "address": "Dr.Yogita Singla, Singla Homeopathic Clinic, Near Daula Gate, Giddarbaha 152101",
    "phone": "Dr. Yogita Singla at singla homeopathic clinic",
    "hours": "Open路 Closes 14:00",
    "image_url": null
  },
  {
    "name": "Garg Clinic",
    "address": "Station Road, Mandi Harjiram, Malout, Punjab 152107",
    "phone": "Garg Clinic",
    "hours": null,
    "image_url": "https://www.bing.com/maps/geoplat/REST/v1/Imagery/Map/RoadVibrant?ms=92,112&key=AnTcaqBi2ypp0xI-OZNi4W_ik2KhjgpqioTAtXLC8GzkMBQRMlyxvxyTnd5b73im&c=en-US&ur=in&da=n&logo=n&fmt=png&od=1&shading=hill&pp=30.186501,74.49601;dfp"
  },
  {
    "name": "Parnami Ortho Hospital Dr. Piyus Singh",
    "address": "Jalabad Road, Near Truck Union, Muktsar, Punjab Region 152026",
    "phone": "Parnami Ortho Hospital Dr. Piyus Singh",
    "hours": null,
    "image_url": null
  },
  {
    "name": "Dasrshan Clinic",
    "address": "Dabwali G. T. Road, Gurunanak Nagar, Malout, Punjab 152107",
    "phone": "Dasrshan Clinic",
    "hours": null,
    "image_url": "https://www.bing.com/maps/geoplat/REST/v1/Imagery/Map/RoadVibrant?ms=92,112&key=AnTcaqBi2ypp0xI-OZNi4W_ik2KhjgpqioTAtXLC8GzkMBQRMlyxvxyTnd5b73im&c=en-US&ur=in&da=n&logo=n&fmt=png&od=1&shading=hill&pp=30.195101,74.495026;dfp"
  },
  {
    "name": "Guru Nanak Ayurvedic Medical College & Hospital",
    "address": "Barkandi Road, Sri Muktsar Sahib, Punjab 152026",
    "phone": "Guru Nanak Ayurvedic Medical College & Hospital",
    "hours": null,
    "image_url": null
  },
  {
    "name": "Dr. Satpal Singh Narula E.n.t. Allergy Clinic",
    "address": "Court Road, Sarabha Nagar, Malout, Punjab 152107, India, Malaut, Punjab 152107",
    "phone": "Dr. Satpal Singh Narula E.n.t. Allergy Clinic",
    "hours": null,
    "image_url": "https://www.bing.com/maps/geoplat/REST/v1/Imagery/Map/RoadVibrant?ms=92,112&key=AnTcaqBi2ypp0xI-OZNi4W_ik2KhjgpqioTAtXLC8GzkMBQRMlyxvxyTnd5b73im&c=en-US&ur=in&da=n&logo=n&fmt=png&od=1&shading=hill&pp=30.190342,74.500839;dfp"
  },
  {
    "name": "Sharma Clinic",
    "address": "Nh10, Ajit Nagar, Malout, Punjab 152107",
    "phone": "Sharma Clinic",
    "hours": null,
    "image_url": "https://www.bing.com/maps/geoplat/REST/v1/Imagery/Map/RoadVibrant?ms=92,112&key=AnTcaqBi2ypp0xI-OZNi4W_ik2KhjgpqioTAtXLC8GzkMBQRMlyxvxyTnd5b73im&c=en-US&ur=in&da=n&logo=n&fmt=png&od=1&shading=hill&pp=30.187914,74.489563;dfp"
  },
  {
    "name": "Dr. Ajay kumar",
    "address": "Axis Bank, National Highway 9, Lambi, Punjab 152113",
    "phone": "Dr. Ajay kumar",
    "hours": "Open路 Closes 19:00",
    "image_url": null
  },
  {
    "name": "Saint Kabir Super Speciality Homoeopathic Clinic",
    "address": "Abohar Road, Sri Muktsar Sahib, Punjab 152026",
    "phone": "Saint Kabir Super Speciality Homoeopathic Clinic",
    "hours": null,
    "image_url": "https://www.bing.com/maps/geoplat/REST/v1/Imagery/Map/RoadVibrant?ms=92,112&key=AnTcaqBi2ypp0xI-OZNi4W_ik2KhjgpqioTAtXLC8GzkMBQRMlyxvxyTnd5b73im&c=en-US&ur=in&da=n&logo=n&fmt=png&od=1&shading=hill&pp=30.461988,74.502205;dfp"
  },
  {
    "name": "Dr. Atin Gupta",
    "address": "Mata Rani Gali, Bathinda, Punjab",
    "phone": "Dr. Atin Gupta",
    "hours": "Open路 Closes 15:00",
    "image_url": "https://www.bing.com/maps/geoplat/REST/v1/Imagery/Map/RoadVibrant?ms=92,112&key=AnTcaqBi2ypp0xI-OZNi4W_ik2KhjgpqioTAtXLC8GzkMBQRMlyxvxyTnd5b73im&c=en-US&ur=in&da=n&logo=n&fmt=png&od=1&shading=hill&pp=30.211006,74.943275;dfp"
  }
]