[
  {
    "name": "Dr. Aneesa Kapadia",
    "address": "15/17, Maharshi Karve Marg, Girgaon, Charni Road, Mumbai, Mumbai 400007",
    "phone": "Dr. Aneesa Kapadia",
    "hours": "Closed· Opens tomorrow 08:30",
    "image_url": "https://www.bing.com/maps/geoplat/REST/v1/Imagery/Map/RoadVibrant?ms=92,134&key=AnTcaqBi2ypp0xI-OZNi4W_ik2KhjgpqioTAtXLC8GzkMBQRMlyxvxyTnd5b73im&c=en-US&ur=in&da=n&logo=n&fmt=png&od=1&shading=hill&pp=18.952488,72.818192;dfp"
  },
  {
    "name": "Dr. Kusum Agarwal",
    "address": "205, Doctor House, Pedder Road, Opp. Jaslok Hospital, Mumbai, Maharashtra 400026",
    "phone": "Dr. Kusum Agarwal",
    "hours": "Closed· Opens 14:00",
    "image_url": "/th?id=OLC.Vnfl26pH667LNQ480x360&w=92&h=134&c=8&rs=1&qlt=80&cdv=1&pid=Local"
  },
  {
    "name": "Dr.akhtar A. Ansari",
    "address": "Shop No.13a, Ksa Royal, 2nd Sankli Street Cross Lane. Byculla(w), Mumbai, Maharashtra, Maharashtra 400008",
    "phone": "Dr.akhtar A. Ansari",
    "hours": "Closed· Opens 11:00",
    "image_url": "/th?id=OLC.BifiooHNwzVlIA480x360&w=92&h=134&c=8&rs=1&qlt=80&cdv=1&pid=Local"
  },
  {
    "name": "Dr. Tushar Thorat - Consultant Plastic, Cosmetic and Reconstructive Surgeon",
    "address": "Raja Ram Mohan Roy Road, Prathna Samaj, Girgaon, Mumbai, Mumbai 400004",
    "phone": "Dr. Tushar Thorat - Consultant Plastic, Cosmetic and Reconstructive Surgeon",
    "hours": "Open· Closes 18:00",
    "image_url": "/th?id=OLC.VPhRY6FyloCzjw480x360&w=92&h=134&c=8&rs=1&qlt=80&cdv=1&pid=Local"
  },
  {
    "name": "Dr. Chasanal Rathod",
    "address": "1a, Haji Ali Park K Khadye Marg, Mumbai, Mumbai 400034",
    "phone": "Dr. Chasanal Rathod",
    "hours": "Closed· Opens tomorrow 12:00",
    "image_url": "/th?id=OLC.Je%2b22PHttTyqxQ480x360&w=92&h=112&c=8&rs=1&qlt=80&cdv=1&pid=Local"
  },
  {
    "name": "Dr. Nitin Gupta",
    "address": "Grant Road, Mumbai, Maharashtra 400007",
    "phone": "Dr. Nitin Gupta",
    "hours": "Closed· Opens 14:00",
    "image_url": "https://www.bing.com/maps/geoplat/REST/v1/Imagery/Map/RoadVibrant?ms=92,112&key=AnTcaqBi2ypp0xI-OZNi4W_ik2KhjgpqioTAtXLC8GzkMBQRMlyxvxyTnd5b73im&c=en-US&ur=in&da=n&logo=n&fmt=png&od=1&shading=hill&pp=18.96557,72.813423;dfp"
  },
  {
    "name": "Dr. Anup Ramani",
    "address": "5, Pedder Rd, Cumbala Hill, Mumbai, Maharashtra",
    "phone": "Dr. Anup Ramani",
    "hours": "Open· Closes 16:00",
    "image_url": "https://www.bing.com/maps/geoplat/REST/v1/Imagery/Map/RoadVibrant?ms=92,112&key=AnTcaqBi2ypp0xI-OZNi4W_ik2KhjgpqioTAtXLC8GzkMBQRMlyxvxyTnd5b73im&c=en-US&ur=in&da=n&logo=n&fmt=png&od=1&shading=hill&pp=18.96744,72.807198;dfp"
  },
  {
    "name": "Dr. Mitul Bhatt",
    "address": "Bhatia Hospital Lane, Grant Road West, Mumbai, Mumbai 400007",
    "phone": "Dr. Mitul Bhatt",
    "hours": "Open· Closes 20:00",
    "image_url": null
  },
  {
    "name": "Dr. Amyn Rajani",
    "address": "No. 15/17, Maharshi Karve Road, Opposite Charni Road Railway Station, Mumbai, Maharashtra 400004, Mumba…",
    "phone": "Dr. Amyn Rajani",
    "hours": "Closed· Opens Wed 14:00",
    "image_url": null
  },
  {
    "name": "Dr. Asma Shaikh",
    "address": "Mazgaon, Mumbai, Maharashtra",
    "phone": "Dr. Asma Shaikh",
    "hours": "Open· Closes 13:00",
    "image_url": "https://www.bing.com/maps/geoplat/REST/v1/Imagery/Map/RoadVibrant?ms=92,112&key=AnTcaqBi2ypp0xI-OZNi4W_ik2KhjgpqioTAtXLC8GzkMBQRMlyxvxyTnd5b73im&c=en-US&ur=in&da=n&logo=n&fmt=png&od=1&shading=hill&pp=18.965591,72.843285;dfp"
  },
  {
    "name": "Dr. Mehul Shah",
    "address": "Huges, 33, 3RD Floor, N S Patkar Marg, OPP Prempuri Asharam, Grant Road West, Mumbai, Maharashtra 400…",
    "phone": "Dr. Mehul Shah",
    "hours": "Closed· Opens 18:00",
    "image_url": null
  },
  {
    "name": "Dr. Mehul Shah",
    "address": "23, Kailas Darshan, Kennedy Bridge Road, Above Idbi Bank, Nana Chowk, Mumbai, Maharashtra",
    "phone": "Dr. Mehul Shah",
    "hours": "Closed· Opens 14:30",
    "image_url": null
  },
  {
    "name": "Dr. Khojasteh S. Dastoor's Website",
    "address": "Bhatia Hospital, Tardeo, Mumbai, Maharashtra, Maharashtra 400007",
    "phone": "Dr. Khojasteh S. Dastoor's Website",
    "hours": "Closed· Opens 13:00",
    "image_url": null
  },
  {
    "name": "Dr. Farooque Zaveri",
    "address": "58 ME Sarang rd Bawa Gali Dongri, Mumbai, Maharashtra, India, 401106, Mumbai, Madhya Prades…",
    "phone": "Dr. Farooque Zaveri",
    "hours": "Closed· Opens 12:00",
    "image_url": null
  },
  {
    "name": "Dr. Jafferhusein Sura",
    "address": "No. 15/17, Maharshi Karve Rd, Charni Road East, Opera House, Girgaon, Mumbai, Mumbai 400004",
    "phone": "Dr. Jafferhusein Sura",
    "hours": "Closed· Opens 19:00",
    "image_url": "https://www.bing.com/maps/geoplat/REST/v1/Imagery/Map/RoadVibrant?ms=92,134&key=AnTcaqBi2ypp0xI-OZNi4W_ik2KhjgpqioTAtXLC8GzkMBQRMlyxvxyTnd5b73im&c=en-US&ur=in&da=n&logo=n&fmt=png&od=1&shading=hill&pp=18.952511,72.818199;dfp"
  },
  {
    "name": "Dr Shilpa Verma",
    "address": "4th Floor, Bombay Mutual Terrace, Warekar Bridge, Chowpatty, Mumbai, Mumbai 400007",
    "phone": "Dr Shilpa Verma",
    "hours": "Closed· Opens tomorrow 07:05",
    "image_url": null
  },
  {
    "name": "Dr. A R Chavan",
    "address": "B-Helal Building, Dr Mascarenhas Rd, Byculla, Mumbai, Maharashtra 400010, Mumbai, Maharashtra",
    "phone": "Dr. A R Chavan",
    "hours": "Closed· Opens 17:00",
    "image_url": null
  },
  {
    "name": "Dr. Mazda Turel",
    "address": "1877, Dr Anand Rao Nair Road Near Agripada Police Station, Mumbai, Mumbai 400011",
    "phone": "Dr. Mazda Turel",
    "hours": "Closed· Opens 15:00",
    "image_url": null
  }
]