[
  {
    "name": "Dr. Rajeev Ranjan- General & Laparoscopic Surgeon",
    "address": "Ashirwad Hospital, Neelam Cinema Road, Shah Family, Dilawer Pur, Munger, Bihar 811201",
    "phone": "Dr. Rajeev Ranjan- General & Laparoscopic Surgeon",
    "hours": "Open 24 hours",
    "image_url": "https://www.bing.com/maps/geoplat/REST/v1/Imagery/Map/RoadVibrant?ms=92,134&key=AnTcaqBi2ypp0xI-OZNi4W_ik2KhjgpqioTAtXLC8GzkMBQRMlyxvxyTnd5b73im&c=en-US&ur=in&da=n&logo=n&fmt=png&od=1&shading=hill&pp=25.374905,86.474258;dfp"
  },
  {
    "name": "Dr. Barish Baran Bose- General Physician",
    "address": "Sevayan Hospital Neelam Road, Sevayan Street, Near Neelam Cinema, Subhash Nagar, Munger, Bihar 811201",
    "phone": "Dr. Barish Baran Bose- General Physician",
    "hours": "Open· Closes 15:00",
    "image_url": "https://www.bing.com/maps/geoplat/REST/v1/Imagery/Map/RoadVibrant?ms=92,134&key=AnTcaqBi2ypp0xI-OZNi4W_ik2KhjgpqioTAtXLC8GzkMBQRMlyxvxyTnd5b73im&c=en-US&ur=in&da=n&logo=n&fmt=png&od=1&shading=hill&pp=25.375015,86.474831;dfp"
  },
  {
    "name": "Dr. Md Firdaus Alam- General Physician",
    "address": "Mahi Clinic, Bari Bazar Road, Shah Family, Dilawer Pur, Opposite Phadi, Munger, Bihar 811201",
    "phone": "Dr. Md Firdaus Alam- General Physician",
    "hours": "Closed· Opens 13:00",
    "image_url": "https://www.bing.com/maps/geoplat/REST/v1/Imagery/Map/RoadVibrant?ms=92,134&key=AnTcaqBi2ypp0xI-OZNi4W_ik2KhjgpqioTAtXLC8GzkMBQRMlyxvxyTnd5b73im&c=en-US&ur=in&da=n&logo=n&fmt=png&od=1&shading=hill&pp=25.377348,86.470711;dfp"
  },
  {
    "name": "Gupta Clinic",
    "address": "State Bank Of India, Nh 80, Bara Bazar, Munger, Bihar 811201",
    "phone": "Gupta Clinic",
    "hours": null,
    "image_url": "https://www.bing.com/maps/geoplat/REST/v1/Imagery/Map/RoadVibrant?ms=92,112&key=AnTcaqBi2ypp0xI-OZNi4W_ik2KhjgpqioTAtXLC8GzkMBQRMlyxvxyTnd5b73im&c=en-US&ur=in&da=n&logo=n&fmt=png&od=1&shading=hill&pp=25.383301,86.466698;dfp"
  },
  {
    "name": "Dr. Shishir Kumar",
    "address": "Pharma, Bekapur Road, Shah Family, Dilawer Pur, Munger, Shah Family, Dilawer Pur, Bihar 811201",
    "phone": "Dr. Shishir Kumar",
    "hours": null,
    "image_url": "https://www.bing.com/maps/geoplat/REST/v1/Imagery/Map/RoadVibrant?ms=92,112&key=AnTcaqBi2ypp0xI-OZNi4W_ik2KhjgpqioTAtXLC8GzkMBQRMlyxvxyTnd5b73im&c=en-US&ur=in&da=n&logo=n&fmt=png&od=1&shading=hill&pp=25.373547,86.474854;dfp"
  },
  {
    "name": "Dr Subhash Chandra clinic",
    "address": "Subhas Chowk, Munger, Bihar 811202",
    "phone": "Dr Subhash Chandra clinic",
    "hours": null,
    "image_url": "/th?id=OLC.%2bm52K4ThHrpxrQ480x360&w=92&h=112&c=8&rs=1&qlt=80&cdv=1&pid=Local"
  },
  {
    "name": "Dr. Sima Rastogi- Gynecologist And Fertility Specialist",
    "address": "J K Memorial, Nilam Road, Near Hdfc Bank, Munger, Bihar 811201",
    "phone": "Dr. Sima Rastogi- Gynecologist And Fertility Specialist",
    "hours": "Closed· Opens 11:00",
    "image_url": "https://www.bing.com/maps/geoplat/REST/v1/Imagery/Map/RoadVibrant?ms=92,134&key=AnTcaqBi2ypp0xI-OZNi4W_ik2KhjgpqioTAtXLC8GzkMBQRMlyxvxyTnd5b73im&c=en-US&ur=in&da=n&logo=n&fmt=png&od=1&shading=hill&pp=25.3799,86.466476;dfp"
  },
  {
    "name": "Dr Rajkumar Mehta",
    "address": "Mangal Bazar Rd, Paman, Bihar",
    "phone": "Dr Rajkumar Mehta",
    "hours": null,
    "image_url": "https://www.bing.com/maps/geoplat/REST/v1/Imagery/Map/RoadVibrant?ms=92,112&key=AnTcaqBi2ypp0xI-OZNi4W_ik2KhjgpqioTAtXLC8GzkMBQRMlyxvxyTnd5b73im&c=en-US&ur=in&da=n&logo=n&fmt=png&od=1&shading=hill&pp=25.378342,86.474266;dfp"
  },
  {
    "name": "Dr.y.k.diwakar Clinic",
    "address": "Bari Bazar Road, Shah Family, Dilawer Pur, Munger, Bihar 811201",
    "phone": "Dr.y.k.diwakar Clinic",
    "hours": null,
    "image_url": "https://www.bing.com/maps/geoplat/REST/v1/Imagery/Map/RoadVibrant?ms=92,112&key=AnTcaqBi2ypp0xI-OZNi4W_ik2KhjgpqioTAtXLC8GzkMBQRMlyxvxyTnd5b73im&c=en-US&ur=in&da=n&logo=n&fmt=png&od=1&shading=hill&pp=25.373436,86.472984;dfp"
  },
  {
    "name": "Surya Clinic",
    "address": "Bari Bazar Road, Munger, Bihar 811202",
    "phone": "Surya Clinic",
    "hours": null,
    "image_url": "https://www.bing.com/maps/geoplat/REST/v1/Imagery/Map/RoadVibrant?ms=92,112&key=AnTcaqBi2ypp0xI-OZNi4W_ik2KhjgpqioTAtXLC8GzkMBQRMlyxvxyTnd5b73im&c=en-US&ur=in&da=n&logo=n&fmt=png&od=1&shading=hill&pp=25.374393,86.472664;dfp"
  },
  {
    "name": "Dr. Ranjit Kumar- Urologist",
    "address": "Belan Bazar Main Road, P.C.Dutta Colony, Munger, Bihar 811201",
    "phone": "Dr. Ranjit Kumar- Urologist",
    "hours": "Open· Closes 13:00",
    "image_url": null
  },
  {
    "name": "KUMAR PATHOLOGY & X-RAY/Dr Govind Kr. Roy(MBBS FCGP DGO)",
    "address": "Bari Bazar Rd, Shah Family, Dilawer Pur, Munger, Bihar",
    "phone": "KUMAR PATHOLOGY & X-RAY/Dr Govind Kr. Roy(MBBS FCGP DGO)",
    "hours": null,
    "image_url": "https://www.bing.com/maps/geoplat/REST/v1/Imagery/Map/RoadVibrant?ms=92,112&key=AnTcaqBi2ypp0xI-OZNi4W_ik2KhjgpqioTAtXLC8GzkMBQRMlyxvxyTnd5b73im&c=en-US&ur=in&da=n&logo=n&fmt=png&od=1&shading=hill&pp=25.372528,86.472038;dfp"
  },
  {
    "name": "Skin specialist in Rawalpindi - Dr. Ali Rao",
    "address": "Ground Floor Al-Hafeez Plaza College Chowk, Saidpur Rd, Rawalpindi, 46300, Pakistan, مونگیر 811201",
    "phone": "Skin specialist in Rawalpindi - Dr. Ali Rao",
    "hours": null,
    "image_url": "https://www.bing.com/maps/geoplat/REST/v1/Imagery/Map/RoadVibrant?ms=92,112&key=AnTcaqBi2ypp0xI-OZNi4W_ik2KhjgpqioTAtXLC8GzkMBQRMlyxvxyTnd5b73im&c=en-US&ur=in&da=n&logo=n&fmt=png&od=1&shading=hill&pp=25.377018,86.486038;dfp"
  },
  {
    "name": "Dr Lal Pathlabs Jhajha",
    "address": "Dr Lal Pathlabs, dr Abid Hussain Clinic, Naaz Medical Hall, Pipradih, Jhajha, Jhajha, Bihar, Bihar 811308",
    "phone": "Dr Lal Pathlabs Jhajha",
    "hours": null,
    "image_url": "https://www.bing.com/maps/geoplat/REST/v1/Imagery/Map/RoadVibrant?ms=92,112&key=AnTcaqBi2ypp0xI-OZNi4W_ik2KhjgpqioTAtXLC8GzkMBQRMlyxvxyTnd5b73im&c=en-US&ur=in&da=n&logo=n&fmt=png&od=1&shading=hill&pp=24.769724,86.379501;dfp"
  },
  {
    "name": "Jerath Path Labs & Allergy Testing Centre",
    "address": "Neelam Cinema Near Estarn Pharmacy, 2 NO. Gumti Road, Munger, Bihar",
    "phone": "Jerath Path Labs & Allergy Testing Centre",
    "hours": null,
    "image_url": "https://www.bing.com/maps/geoplat/REST/v1/Imagery/Map/RoadVibrant?ms=92,112&key=AnTcaqBi2ypp0xI-OZNi4W_ik2KhjgpqioTAtXLC8GzkMBQRMlyxvxyTnd5b73im&c=en-US&ur=in&da=n&logo=n&fmt=png&od=1&shading=hill&pp=25.378954,86.475655;dfp"
  }
]