[
  {
    "name": "Dr. Abhra Chandra Chowdhury",
    "address": "73/G/3 R N Thakur Road, Berhampore Laldighi, Murshidabad, West Bengal",
    "phone": "Dr. Abhra Chandra Chowdhury",
    "hours": null,
    "image_url": "/th?id=OLC.cWNMGL9KVxWXQg480x360&w=92&h=112&c=8&rs=1&qlt=80&cdv=1&pid=Local"
  },
  {
    "name": "Dr Arindam Chakraborty",
    "address": "C1 Ganga Housing Berhampore, Berhampore, West Bengal",
    "phone": "Dr Arindam Chakraborty",
    "hours": null,
    "image_url": "https://www.bing.com/maps/geoplat/REST/v1/Imagery/Map/RoadVibrant?ms=92,112&key=AnTcaqBi2ypp0xI-OZNi4W_ik2KhjgpqioTAtXLC8GzkMBQRMlyxvxyTnd5b73im&c=en-US&ur=in&da=n&logo=n&fmt=png&od=1&shading=hill&pp=24.105974,88.285828;dfp"
  },
  {
    "name": "MedConnectPlus eClinic - Physician and Diabetes Center",
    "address": "Naginabag (Sirajuddoula, Road, Lalbagh, Murshidabad, West Bengal",
    "phone": "MedConnectPlus eClinic - Physician and Diabetes Center",
    "hours": null,
    "image_url": "https://www.bing.com/maps/geoplat/REST/v1/Imagery/Map/RoadVibrant?ms=92,112&key=AnTcaqBi2ypp0xI-OZNi4W_ik2KhjgpqioTAtXLC8GzkMBQRMlyxvxyTnd5b73im&c=en-US&ur=in&da=n&logo=n&fmt=png&od=1&shading=hill&pp=24.162037,88.290291;dfp"
  },
  {
    "name": "MANMOHINI",
    "address": "24/A/B/15 Kalikapore Road, Shilpataluk, Berhampore, West Bengal 742101",
    "phone": "MANMOHINI",
    "hours": "Open 24 hours",
    "image_url": "/th?id=OLC.ghuVKFfQ7WAokA480x360&w=92&h=134&c=8&rs=1&qlt=80&cdv=1&pid=Local"
  },
  {
    "name": "Mandal Clinic",
    "address": "N0121, Gajnipur Bajar, Gajnipur, Hariharpara, Near Primary School, Berhampore, Murshidabad, West Beng…",
    "phone": "Mandal Clinic",
    "hours": null,
    "image_url": "https://www.bing.com/maps/geoplat/REST/v1/Imagery/Map/RoadVibrant?ms=92,112&key=AnTcaqBi2ypp0xI-OZNi4W_ik2KhjgpqioTAtXLC8GzkMBQRMlyxvxyTnd5b73im&c=en-US&ur=in&da=n&logo=n&fmt=png&od=1&shading=hill&pp=24.121244,88.292374;dfp"
  },
  {
    "name": "Dr Amarendra Nath Roy",
    "address": "Plasma, R.N Tagor Road, Berhampore, Murshidabad, West Bengal 742101",
    "phone": "Dr Amarendra Nath Roy",
    "hours": null,
    "image_url": "/th?id=OLC.w9ozdqHXqsw9dg480x360&w=92&h=112&c=8&rs=1&qlt=80&cdv=1&pid=Local"
  },
  {
    "name": "Dr Joydeep Ganguly, pulmonologist, berhampore",
    "address": "91/2 Pilkhana Road, Ranibagan, Berhampore, District Murshidabad, Berhampore, Madhya Pradesh 742149",
    "phone": "Dr Joydeep Ganguly, pulmonologist, berhampore",
    "hours": "Open· Closes 13:00",
    "image_url": null
  },
  {
    "name": "Dr. P.G.Dutta | Child Specialist, General Physician",
    "address": "Berhampore Near Passport Office, Berhampore, West Bengal, India, 742102, Berhampore, Madhya Pradesh …",
    "phone": "Dr. P.G.Dutta | Child Specialist, General Physician",
    "hours": "Open· Closes 18:00",
    "image_url": null
  },
  {
    "name": "Murshidabad Medical College & Hospital",
    "address": "Swarnamayee Market, Raninagar, Gora Bazar, Berhampore, West Bengal 742101",
    "phone": "Murshidabad Medical College & Hospital",
    "hours": null,
    "image_url": null
  },
  {
    "name": "Dr. Ranjit Kumar Raychowdhury",
    "address": "100 Pilkhana Road Ranibagan, Berhampore, West Bengal 743101, India, Murshidabad, West Bengal 743101",
    "phone": "Dr. Ranjit Kumar Raychowdhury",
    "hours": null,
    "image_url": "https://www.bing.com/maps/geoplat/REST/v1/Imagery/Map/RoadVibrant?ms=92,112&key=AnTcaqBi2ypp0xI-OZNi4W_ik2KhjgpqioTAtXLC8GzkMBQRMlyxvxyTnd5b73im&c=en-US&ur=in&da=n&logo=n&fmt=png&od=1&shading=hill&pp=24.102177,88.256065;dfp"
  },
  {
    "name": "Apollo Clinic",
    "address": "Pilkhana Road 88, Murshidabad 742101",
    "phone": "Apollo Clinic",
    "hours": null,
    "image_url": null
  },
  {
    "name": "Dr Sovonjit Kundu Clinic",
    "address": "Berhampore, Baharampur, West Bengal 742101",
    "phone": "Dr Sovonjit Kundu Clinic",
    "hours": null,
    "image_url": null
  },
  {
    "name": "Seba Clinic",
    "address": "Berhampora To Jalangi Road, बेर्हम्पोरे, West Bengal 742102",
    "phone": "Seba Clinic",
    "hours": null,
    "image_url": "https://www.bing.com/maps/geoplat/REST/v1/Imagery/Map/RoadVibrant?ms=92,112&key=AnTcaqBi2ypp0xI-OZNi4W_ik2KhjgpqioTAtXLC8GzkMBQRMlyxvxyTnd5b73im&c=en-US&ur=in&da=n&logo=n&fmt=png&od=1&shading=hill&pp=24.1255,88.308601;dfp"
  },
  {
    "name": "Dr. Debabrata Sarkar",
    "address": "Medconnectplus Eclinic, 91/ 1 A Pilkhana Road Ranibagan, Berhampore, West Bengal 742101",
    "phone": "Dr. Debabrata Sarkar",
    "hours": "Closed· Opens 13:00",
    "image_url": null
  },
  {
    "name": "MedConnectPlus eClinic",
    "address": "2 1 A Pilkhana Road, Berhampore, West Bengal 742101",
    "phone": "MedConnectPlus eClinic",
    "hours": "Open· Closes 14:00",
    "image_url": null
  },
  {
    "name": "Homoeopathic Clinic (Dr. S. Sarbajna)",
    "address": "Near Khadi Showroom, Towerpara, Bishnupur, West Bengal",
    "phone": "Homoeopathic Clinic (Dr. S. Sarbajna)",
    "hours": null,
    "image_url": "https://www.bing.com/maps/geoplat/REST/v1/Imagery/Map/RoadVibrant?ms=92,112&key=AnTcaqBi2ypp0xI-OZNi4W_ik2KhjgpqioTAtXLC8GzkMBQRMlyxvxyTnd5b73im&c=en-US&ur=in&da=n&logo=n&fmt=png&od=1&shading=hill&pp=24.101734,88.26564;dfp"
  },
  {
    "name": "Dr Uttiya Brahmachari",
    "address": "Nightingale, Pilkhana Road, Ranibagan, Berhampore, Berhampore, West Bengal, West Bengal 742103",
    "phone": "Dr Uttiya Brahmachari",
    "hours": "Open· Closes 11:00",
    "image_url": null
  },
  {
    "name": "Dr. Joydeep Adhikari Homoeopathy Clinic",
    "address": "24/32/4/1, Joychand Rd, Jodhpur Estate, Khagra, Berhampore, West Bengal",
    "phone": "Dr. Joydeep Adhikari Homoeopathy Clinic",
    "hours": null,
    "image_url": "https://www.bing.com/maps/geoplat/REST/v1/Imagery/Map/RoadVibrant?ms=92,112&key=AnTcaqBi2ypp0xI-OZNi4W_ik2KhjgpqioTAtXLC8GzkMBQRMlyxvxyTnd5b73im&c=en-US&ur=in&da=n&logo=n&fmt=png&od=1&shading=hill&pp=24.109619,88.26107;dfp"
  }
]