[
  {
    "name": "Dr. Mushtaq's Mercy Health Clinic",
    "address": "25, Laddhawala Road, Laddhawala, Muzaffarnagar, Uttar Pradesh 251002",
    "phone": "Dr. Mushtaq's Mercy Health Clinic",
    "hours": "Closed· Opens 15:00",
    "image_url": "/th?id=OLC.zEVQUPJy%2b740Eg480x360&w=92&h=134&c=8&rs=1&qlt=80&cdv=1&pid=Local"
  },
  {
    "name": "Shuddhi Clinic Muzaffarnagar",
    "address": "Shop No. 4, First Floor, Kamal Complex, Railway Road, Opposite Railway Station, Muzaffarnagar, Uttar Prades…",
    "phone": "Shuddhi Clinic Muzaffarnagar",
    "hours": "Open· Closes 18:00",
    "image_url": "/th?id=OLC.jdtaCF%2bLwrg7JA480x360&w=92&h=134&c=8&rs=1&qlt=80&cdv=1&pid=Local"
  },
  {
    "name": "Dr Manish Aggarwal",
    "address": "Prakash Chowk, Muzaffarnagar, Uttar Pradesh 251001",
    "phone": "Dr Manish Aggarwal",
    "hours": null,
    "image_url": "https://www.bing.com/maps/geoplat/REST/v1/Imagery/Map/RoadVibrant?ms=92,112&key=AnTcaqBi2ypp0xI-OZNi4W_ik2KhjgpqioTAtXLC8GzkMBQRMlyxvxyTnd5b73im&c=en-US&ur=in&da=n&logo=n&fmt=png&od=1&shading=hill&pp=29.466051,77.704254;dfp"
  },
  {
    "name": "Dr Mukesh Tyagi Clinic",
    "address": "34/50, South Civil Lines, Muzaffarnagar, Uttar Pradesh 251001",
    "phone": "Dr Mukesh Tyagi Clinic",
    "hours": null,
    "image_url": "https://www.bing.com/maps/geoplat/REST/v1/Imagery/Map/RoadVibrant?ms=92,112&key=AnTcaqBi2ypp0xI-OZNi4W_ik2KhjgpqioTAtXLC8GzkMBQRMlyxvxyTnd5b73im&c=en-US&ur=in&da=n&logo=n&fmt=png&od=1&shading=hill&pp=29.466257,77.703964;dfp"
  },
  {
    "name": "Dr Neelam Agarwal Clinic",
    "address": "Arya Samaj Road, Opp. DAV Degree College, Muzaffarnagar, Uttar Pradesh 251001",
    "phone": "Dr Neelam Agarwal Clinic",
    "hours": "Open 24 hours",
    "image_url": "/th?id=OLC.bLtoHQBmP3Q3fQ480x360&w=92&h=134&c=8&rs=1&qlt=80&cdv=1&pid=Local"
  },
  {
    "name": "Pooja Clinic, Dr Sompal Sharma",
    "address": "111/09, Gaushala, Muzaffarnagar, Uttar Pradesh, Uttar Pradesh 251002",
    "phone": "Pooja Clinic, Dr Sompal Sharma",
    "hours": null,
    "image_url": "/th?id=OLC.jsiMsOgHgH2VSQ480x360&w=92&h=112&c=8&rs=1&qlt=80&cdv=1&pid=Local"
  },
  {
    "name": "Dr Hari Prakash Gupta Clinic",
    "address": "Ansari Road, Vimal Memorial Hospital, Civil Lines North, Muzaffarnagar, Uttar Pradesh 251001",
    "phone": "Dr Hari Prakash Gupta Clinic",
    "hours": null,
    "image_url": "https://www.bing.com/maps/geoplat/REST/v1/Imagery/Map/RoadVibrant?ms=92,112&key=AnTcaqBi2ypp0xI-OZNi4W_ik2KhjgpqioTAtXLC8GzkMBQRMlyxvxyTnd5b73im&c=en-US&ur=in&da=n&logo=n&fmt=png&od=1&shading=hill&pp=29.474562,77.70134;dfp"
  },
  {
    "name": "Dr Dinesh Garg Clinic",
    "address": "Mata Vali Mandir Road, Vishnu Kamal Hospital, New Mandi Muzaffarnagar, Muzaffarnagar, Uttar Pradesh 25…",
    "phone": "Dr Dinesh Garg Clinic",
    "hours": null,
    "image_url": "https://www.bing.com/maps/geoplat/REST/v1/Imagery/Map/RoadVibrant?ms=92,112&key=AnTcaqBi2ypp0xI-OZNi4W_ik2KhjgpqioTAtXLC8GzkMBQRMlyxvxyTnd5b73im&c=en-US&ur=in&da=n&logo=n&fmt=png&od=1&shading=hill&pp=29.466915,77.711014;dfp"
  },
  {
    "name": "Vardhman Hospital",
    "address": "3RD Jansath Road, Muzaffarnagar, Uttar Pradesh 251001",
    "phone": "Vardhman Hospital",
    "hours": "Closed· Opens tomorrow 08:00",
    "image_url": null
  },
  {
    "name": "Dr. Mahendra Kumar Taneja",
    "address": "281, Civil Lines, North Railway Road, Muzaffarnagar, Uttar Pradesh",
    "phone": "Dr. Mahendra Kumar Taneja",
    "hours": "Open· Closes 14:30",
    "image_url": null
  },
  {
    "name": "Dr. V.k Mittal",
    "address": "Ansari Rd, Muzaffarnagar, Uttar Pradesh 251001",
    "phone": "Dr. V.k Mittal",
    "hours": null,
    "image_url": "https://www.bing.com/maps/geoplat/REST/v1/Imagery/Map/RoadVibrant?ms=92,112&key=AnTcaqBi2ypp0xI-OZNi4W_ik2KhjgpqioTAtXLC8GzkMBQRMlyxvxyTnd5b73im&c=en-US&ur=in&da=n&logo=n&fmt=png&od=1&shading=hill&pp=29.475023,77.699684;dfp"
  },
  {
    "name": "Dr. Rakesh Agarwal | Best Sexologist  | Ayurvedic Doctor",
    "address": "31/10, Arya Samaj Road, Siddharth Colony, Civil Lines South, Muzaffarnagar, Uttar Pradesh 251001",
    "phone": "Dr. Rakesh Agarwal | Best Sexologist  | Ayurvedic Doctor",
    "hours": "Open· Closes 22:00",
    "image_url": null
  },
  {
    "name": "Dr Anil Kumar Clinic",
    "address": "308/2, Shivlok Colony, Muzaffarnagar 251001",
    "phone": "Dr Anil Kumar Clinic",
    "hours": null,
    "image_url": "https://www.bing.com/maps/geoplat/REST/v1/Imagery/Map/RoadVibrant?ms=92,112&key=AnTcaqBi2ypp0xI-OZNi4W_ik2KhjgpqioTAtXLC8GzkMBQRMlyxvxyTnd5b73im&c=en-US&ur=in&da=n&logo=n&fmt=png&od=1&shading=hill&pp=29.478109,77.70507;dfp"
  },
  {
    "name": "Dr. Mohit Madan",
    "address": "ILA Hospital North Civil Lines, Muzaffarnagar, Uttar Pradesh",
    "phone": "Dr. Mohit Madan",
    "hours": "Closed· Opens tomorrow 13:00",
    "image_url": "https://www.bing.com/maps/geoplat/REST/v1/Imagery/Map/RoadVibrant?ms=92,112&key=AnTcaqBi2ypp0xI-OZNi4W_ik2KhjgpqioTAtXLC8GzkMBQRMlyxvxyTnd5b73im&c=en-US&ur=in&da=n&logo=n&fmt=png&od=1&shading=hill&pp=29.473513,77.705162;hp"
  },
  {
    "name": "Manushree Clinic",
    "address": "Shanti Nagar, T Point, Gali Number 1, Muzaffarnagar, Uttar Pradesh 251001",
    "phone": "Manushree Clinic",
    "hours": "Open· Closes 13:30",
    "image_url": null
  },
  {
    "name": "Dr Batra’s Homeopathy, Hair & Skin Clinic",
    "address": "Shop No 20/21, 1st Floor, Mission Market, Court Road, Saharanpur, Uttar Pradesh 247001",
    "phone": "Dr Batra’s Homeopathy, Hair & Skin Clinic",
    "hours": "Closed· Opens 11:00",
    "image_url": null
  },
  {
    "name": "Dr. Hemi Soneja",
    "address": "147, Civil Lines, Meerut Road, Muzaffar Nagar, Muzaffarnagar, Uttar Pradesh",
    "phone": "Dr. Hemi Soneja",
    "hours": null,
    "image_url": null
  },
  {
    "name": "Dr. Yogendra Kumar (E.N.T specialist)",
    "address": "41/92, Gali No. 2, Main Road Sadar Bazar Opposite Dr. R. B. Singh, Near Wine Shop, Muzaffarnagar, Uttar Pra…",
    "phone": "Dr. Yogendra Kumar (E.N.T specialist)",
    "hours": null,
    "image_url": null
  }
]