[
  {
    "name": "Dr. Tauseef Nissar",
    "address": "Juran Chapra, Besides Ramco Medicine, Muzaffarpur, Bihar",
    "phone": "Dr. Tauseef Nissar",
    "hours": "Closed· Opens 11:00",
    "image_url": "https://www.bing.com/maps/geoplat/REST/v1/Imagery/Map/RoadVibrant?ms=92,112&key=AnTcaqBi2ypp0xI-OZNi4W_ik2KhjgpqioTAtXLC8GzkMBQRMlyxvxyTnd5b73im&c=en-US&ur=in&da=n&logo=n&fmt=png&od=1&shading=hill&pp=26.127996,85.375175;dfp"
  },
  {
    "name": "Dr Sanjeev Memorial clinic",
    "address": "Juran Chapra, Zila Parishad Market, Near Vishal Mega Mart, HS Mall, Opposite Bjp Office, Muzaffarpur, Bihar",
    "phone": "Dr Sanjeev Memorial clinic",
    "hours": null,
    "image_url": "/th?id=OLC.%2fW86a3qC2oTpPw480x360&w=92&h=112&c=8&rs=1&qlt=80&cdv=1&pid=Local"
  },
  {
    "name": "Dr. Chandan Parashar- General And Laparoscopic Surgery, Infertility",
    "address": "Mishra Hospital And Test Tube Baby Centre, Road No 4, Juran Chapra, Muzaffarpur, Bihar 842001",
    "phone": "Dr. Chandan Parashar- General And Laparoscopic Surgery, Infertility",
    "hours": "Open· Closes 17:00",
    "image_url": "https://www.bing.com/maps/geoplat/REST/v1/Imagery/Map/RoadVibrant?ms=92,134&key=AnTcaqBi2ypp0xI-OZNi4W_ik2KhjgpqioTAtXLC8GzkMBQRMlyxvxyTnd5b73im&c=en-US&ur=in&da=n&logo=n&fmt=png&od=1&shading=hill&pp=26.129732,85.372154;dfp"
  },
  {
    "name": "Dr. Rana Rajesh Singh",
    "address": "NH-77, Muzaffarpur, Bihar 842001",
    "phone": "Dr. Rana Rajesh Singh",
    "hours": "Open· Closes 14:00",
    "image_url": "https://www.bing.com/maps/geoplat/REST/v1/Imagery/Map/RoadVibrant?ms=92,112&key=AnTcaqBi2ypp0xI-OZNi4W_ik2KhjgpqioTAtXLC8GzkMBQRMlyxvxyTnd5b73im&c=en-US&ur=in&da=n&logo=n&fmt=png&od=1&shading=hill&pp=26.14665,85.388649;dfp"
  },
  {
    "name": "Sana Clinic Bochahan Muzaffarpur",
    "address": "Indraprastha International School, Muzaffarpur, Bihar",
    "phone": "Sana Clinic Bochahan Muzaffarpur",
    "hours": null,
    "image_url": "/th?id=OLC.UzUcrwltCgMu3A480x360&w=92&h=112&c=8&rs=1&qlt=80&cdv=1&pid=Local"
  },
  {
    "name": "Dr. B N Sharma",
    "address": "Brahampura Main Road, Muzaffarpur, Bihar",
    "phone": "Dr. B N Sharma",
    "hours": "Open· Closes 18:00",
    "image_url": "/th?id=OLC.d5sSDMkuq0fOiQ480x360&w=92&h=112&c=8&rs=1&qlt=80&cdv=1&pid=Local"
  },
  {
    "name": "Dr P K Mishra Clinic",
    "address": "Juran Chapra Main Road, Muzaffarpur, Purba Muzaffarpur, Bihar 843146",
    "phone": "Dr P K Mishra Clinic",
    "hours": null,
    "image_url": "https://www.bing.com/maps/geoplat/REST/v1/Imagery/Map/RoadVibrant?ms=92,112&key=AnTcaqBi2ypp0xI-OZNi4W_ik2KhjgpqioTAtXLC8GzkMBQRMlyxvxyTnd5b73im&c=en-US&ur=in&da=n&logo=n&fmt=png&od=1&shading=hill&pp=26.128075,85.37439;dfp"
  },
  {
    "name": "Dr Mohammad Aftab Alam Clinic",
    "address": "Pakki Sarai Road, Chandwara, Muzaffarpur, Purba Muzaffarpur, Bihar 842001",
    "phone": "Dr Mohammad Aftab Alam Clinic",
    "hours": null,
    "image_url": "https://www.bing.com/maps/geoplat/REST/v1/Imagery/Map/RoadVibrant?ms=92,112&key=AnTcaqBi2ypp0xI-OZNi4W_ik2KhjgpqioTAtXLC8GzkMBQRMlyxvxyTnd5b73im&c=en-US&ur=in&da=n&logo=n&fmt=png&od=1&shading=hill&pp=26.124861,85.399376;dfp"
  },
  {
    "name": "Dr. Ranvijay- Orthopedics",
    "address": "Ranvijay Clinic, Juran Chapra Road, Number 3, Near Krishna Health Care, Muzaffarpur, Bihar 842001",
    "phone": "Dr. Ranvijay- Orthopedics",
    "hours": "Open· Closes 12:00",
    "image_url": null
  },
  {
    "name": "Cutis Bliss Skin and Maternity Hospital | Dermatologist | Cosmetologist | Gynaecologist | Lady Doctor",
    "address": "Middle School Rd, in Front of M.I.T. Telephone Exchange, Jaiprakash Nagar, Muzaffarpur, Bihar",
    "phone": "Cutis Bliss Skin and Maternity Hospital | Dermatologist | Cosmetologist | Gynaecologist | Lady Doctor",
    "hours": null,
    "image_url": null
  },
  {
    "name": "Heart Clinic",
    "address": "Road Number 4, Juran Chapra, Brahmapura, Muzaffarpur, Madhya Pradesh 842003",
    "phone": "Heart Clinic",
    "hours": "Open· Closes 23:30",
    "image_url": null
  },
  {
    "name": "Dr. Smita Singh",
    "address": "Sherpur, NH-28, Muzaffarpur, Bihar",
    "phone": "Dr. Smita Singh",
    "hours": "Open· Closes 13:00",
    "image_url": "https://www.bing.com/maps/geoplat/REST/v1/Imagery/Map/RoadVibrant?ms=92,112&key=AnTcaqBi2ypp0xI-OZNi4W_ik2KhjgpqioTAtXLC8GzkMBQRMlyxvxyTnd5b73im&c=en-US&ur=in&da=n&logo=n&fmt=png&od=1&shading=hill&pp=26.129381,85.362602;dfp"
  },
  {
    "name": "Dr.Abhishek Kumar-Nayan jyoti eye care",
    "address": "Road No-3, Juran Chhapra, Muzaffarpur, Bihar 842001",
    "phone": "Dr.Abhishek Kumar-Nayan jyoti eye care",
    "hours": null,
    "image_url": "https://www.bing.com/maps/geoplat/REST/v1/Imagery/Map/RoadVibrant?ms=92,112&key=AnTcaqBi2ypp0xI-OZNi4W_ik2KhjgpqioTAtXLC8GzkMBQRMlyxvxyTnd5b73im&c=en-US&ur=in&da=n&logo=n&fmt=png&od=1&shading=hill&pp=26.129032,85.374527;dfp"
  },
  {
    "name": "Dr. Barunesh Kishore Dermatologist",
    "address": "Zila Parishad Market, Opposite Juran Chhapra Road Number 1, Muzaffarpur, Bihar",
    "phone": "Dr. Barunesh Kishore Dermatologist",
    "hours": "Closed· Opens 11:00",
    "image_url": null
  },
  {
    "name": "Jaya Gynaec Clinic",
    "address": "In Front of Paras Mall Purani Motihari Road, Muzaffarpur, Bihar",
    "phone": "Jaya Gynaec Clinic",
    "hours": null,
    "image_url": "https://www.bing.com/maps/geoplat/REST/v1/Imagery/Map/RoadVibrant?ms=92,112&key=AnTcaqBi2ypp0xI-OZNi4W_ik2KhjgpqioTAtXLC8GzkMBQRMlyxvxyTnd5b73im&c=en-US&ur=in&da=n&logo=n&fmt=png&od=1&shading=hill&pp=26.149719,85.358391;dfp"
  },
  {
    "name": "Al-Shifa Homoeo Clinic",
    "address": "Batlar Road Near Jama Masjid Maripur Muzaffarpur Bihar India, Muzaffarpur, Bihar, Bihar 842001",
    "phone": "Al-Shifa Homoeo Clinic",
    "hours": null,
    "image_url": null
  },
  {
    "name": "Dr. Barunesh Kishore",
    "address": "1st Floor, Timuhani, Kalambagh Road, Muzaffarpur, Bihar",
    "phone": "Dr. Barunesh Kishore",
    "hours": "Open· Closes 12:00",
    "image_url": "https://www.bing.com/maps/geoplat/REST/v1/Imagery/Map/RoadVibrant?ms=92,112&key=AnTcaqBi2ypp0xI-OZNi4W_ik2KhjgpqioTAtXLC8GzkMBQRMlyxvxyTnd5b73im&c=en-US&ur=in&da=n&logo=n&fmt=png&od=1&shading=hill&pp=26.110102,85.395264;dfp"
  },
  {
    "name": "Dr Ashish Kumar Digital Clinic",
    "address": "Arvind Medico Mahadeo Market, Akharghat, Muzaffarpur, Bihar",
    "phone": "Dr Ashish Kumar Digital Clinic",
    "hours": null,
    "image_url": "https://www.bing.com/maps/geoplat/REST/v1/Imagery/Map/RoadVibrant?ms=92,112&key=AnTcaqBi2ypp0xI-OZNi4W_ik2KhjgpqioTAtXLC8GzkMBQRMlyxvxyTnd5b73im&c=en-US&ur=in&da=n&logo=n&fmt=png&od=1&shading=hill&pp=26.148129,85.357735;dfp"
  }
]