[
  {
    "name": "JSS Hospital",
    "address": "Mahathma Gandhi Road, Mysore, Mysuru, Karnataka 570004",
    "phone": "JSS Hospital",
    "hours": null,
    "image_url": "/th?id=OLC.9pEnNMRaPRoKjA480x360&w=92&h=112&c=8&rs=1&qlt=80&cdv=1&pid=Local"
  },
  {
    "name": "Dr. Janardhan G S",
    "address": "Narayan Shastri Road, Mysore, Karnataka 570004",
    "phone": "Dr. Janardhan G S",
    "hours": "Closed· Opens 11:00",
    "image_url": "/th?id=OLC.%2fvaAUDFLOWnJTQ480x360&w=92&h=134&c=8&rs=1&qlt=80&cdv=1&pid=Local"
  },
  {
    "name": "Dr. NARAHARI M G - Best General Practitioner in Mysore",
    "address": "Apollo BGS Hospitals, Adichunchanagiri Road, Block K, Kuvempu Nagara, Mysuru, Karnataka",
    "phone": "Dr. NARAHARI M G - Best General Practitioner in Mysore",
    "hours": null,
    "image_url": "https://www.bing.com/maps/geoplat/REST/v1/Imagery/Map/RoadVibrant?ms=92,112&key=AnTcaqBi2ypp0xI-OZNi4W_ik2KhjgpqioTAtXLC8GzkMBQRMlyxvxyTnd5b73im&c=en-US&ur=in&da=n&logo=n&fmt=png&od=1&shading=hill&pp=12.296017,76.631874;dfp"
  },
  {
    "name": "Dr. Krishna R- Ayurvedic physician (Panchakarma) in Srirangapatna",
    "address": "Shree Ayurvedalaya & Panchakarma Center, #780/a, New No.f22/1, 8th Cross, Near Andolana Office, Rama…",
    "phone": "Dr. Krishna R- Ayurvedic physician (Panchakarma) in Srirangapatna",
    "hours": "Open· Closes 13:00",
    "image_url": "https://www.bing.com/maps/geoplat/REST/v1/Imagery/Map/RoadVibrant?ms=92,134&key=AnTcaqBi2ypp0xI-OZNi4W_ik2KhjgpqioTAtXLC8GzkMBQRMlyxvxyTnd5b73im&c=en-US&ur=in&da=n&logo=n&fmt=png&od=1&shading=hill&pp=12.293864,76.653519;dfp"
  },
  {
    "name": "Dr. Anish Behl",
    "address": "Apollo Clinic Mysore, 23, Kalidasa Road, Above Aircel, VV Mohlla, Mysore, Karnataka 570002",
    "phone": "Dr. Anish Behl",
    "hours": "Closed· Opens 18:00",
    "image_url": "/th?id=OLC.hq8IlzNdXH1zuw480x360&w=92&h=134&c=8&rs=1&qlt=80&cdv=1&pid=Local"
  },
  {
    "name": "Avati Ramaseshaiah & Lakshmi Devamma Multi Speciality Clinic",
    "address": "Vinoba Road 1, Mysuru, Karnataka 570001",
    "phone": "Avati Ramaseshaiah & Lakshmi Devamma Multi Speciality Clinic",
    "hours": null,
    "image_url": "/th?id=OLC.r%2f9leUfVqLxUWw480x360&w=92&h=112&c=8&rs=1&qlt=80&cdv=1&pid=Local"
  },
  {
    "name": "Dr. Anish Behl - Best Endocrinologist in Mysore",
    "address": "Adichunchanagiri Road, M-Block, Kuvempu Nagara, Mysuru, Karnataka",
    "phone": "Dr. Anish Behl - Best Endocrinologist in Mysore",
    "hours": "Open· Closes 18:00",
    "image_url": null
  },
  {
    "name": "Dr. Jyothirmai. I",
    "address": "DRM Multi Speciality Hospital, Vontikoppal, Mysuru, Karnataka",
    "phone": "Dr. Jyothirmai. I",
    "hours": null,
    "image_url": "https://www.bing.com/maps/geoplat/REST/v1/Imagery/Map/RoadVibrant?ms=92,112&key=AnTcaqBi2ypp0xI-OZNi4W_ik2KhjgpqioTAtXLC8GzkMBQRMlyxvxyTnd5b73im&c=en-US&ur=in&da=n&logo=n&fmt=png&od=1&shading=hill&pp=12.325771,76.630737;dfp"
  },
  {
    "name": "Dr. Karthik Udupa N",
    "address": "1615, 5th Cross, Narayana Shastri Road, KR Mohalla, Mysuru, Karnataka",
    "phone": "Dr. Karthik Udupa N",
    "hours": "Closed· Opens 18:30",
    "image_url": null
  },
  {
    "name": "Dr. Anish Behl",
    "address": "Refah Complex, 1st Floor, New Saijirao Road, Mysuru, Karnataka",
    "phone": "Dr. Anish Behl",
    "hours": "Closed· Opens 19:00",
    "image_url": null
  },
  {
    "name": "Dr NP Shivkumar",
    "address": "Irwin Road, Mandi Mohalla, Mysuru, Karnataka 570021",
    "phone": "Dr NP Shivkumar",
    "hours": null,
    "image_url": "https://www.bing.com/maps/geoplat/REST/v1/Imagery/Map/RoadVibrant?ms=92,112&key=AnTcaqBi2ypp0xI-OZNi4W_ik2KhjgpqioTAtXLC8GzkMBQRMlyxvxyTnd5b73im&c=en-US&ur=in&da=n&logo=n&fmt=png&od=1&shading=hill&pp=12.314535,76.652206;dfp"
  },
  {
    "name": "Dr. Harindra M.N",
    "address": "20, Andal Mandir Complex, 4th Main, Mysore, Karnataka 570002",
    "phone": "Dr. Harindra M.N",
    "hours": "Closed· Opens 11:30",
    "image_url": null
  },
  {
    "name": "Sukumar Dr M Clinic",
    "address": "134, Siddartha Layout, Mysuru, Karnataka 570011",
    "phone": "Sukumar Dr M Clinic",
    "hours": null,
    "image_url": "https://www.bing.com/maps/geoplat/REST/v1/Imagery/Map/RoadVibrant?ms=92,112&key=AnTcaqBi2ypp0xI-OZNi4W_ik2KhjgpqioTAtXLC8GzkMBQRMlyxvxyTnd5b73im&c=en-US&ur=in&da=n&logo=n&fmt=png&od=1&shading=hill&pp=12.306051,76.6838;dfp"
  },
  {
    "name": "Dr. L V Vanitha",
    "address": "23, Adhichunchanagiri Road, Landmark: Near Shyam Studio, Mysore 570023",
    "phone": "Dr. L V Vanitha",
    "hours": "Open· Closes 18:00",
    "image_url": "https://www.bing.com/maps/geoplat/REST/v1/Imagery/Map/RoadVibrant?ms=92,134&key=AnTcaqBi2ypp0xI-OZNi4W_ik2KhjgpqioTAtXLC8GzkMBQRMlyxvxyTnd5b73im&c=en-US&ur=in&da=n&logo=n&fmt=png&od=1&shading=hill&pp=12.295628,76.631996;dfp"
  },
  {
    "name": "Dr. Madhuri - Gynaecologist in Mysore",
    "address": "A and B Complex, 452, Paduvana Road, Kuvempunagara North, Kuvempu Nagara, Mysuru, Karnataka",
    "phone": "Dr. Madhuri - Gynaecologist in Mysore",
    "hours": null,
    "image_url": "https://www.bing.com/maps/geoplat/REST/v1/Imagery/Map/RoadVibrant?ms=92,112&key=AnTcaqBi2ypp0xI-OZNi4W_ik2KhjgpqioTAtXLC8GzkMBQRMlyxvxyTnd5b73im&c=en-US&ur=in&da=n&logo=n&fmt=png&od=1&shading=hill&pp=12.315649,76.652626;dfp"
  },
  {
    "name": "Dr. Poornima K",
    "address": "6/A, T N Pura Main Road, Mysuru, Karnataka",
    "phone": "Dr. Poornima K",
    "hours": "Open· Closes 14:00",
    "image_url": null
  },
  {
    "name": "Dr. K M Govinde Gowda",
    "address": "Chamaraja Double Road, K R Mohalla, Mysuru, Karnataka",
    "phone": "Dr. K M Govinde Gowda",
    "hours": "Closed· Opens 13:00",
    "image_url": "https://www.bing.com/maps/geoplat/REST/v1/Imagery/Map/RoadVibrant?ms=92,134&key=AnTcaqBi2ypp0xI-OZNi4W_ik2KhjgpqioTAtXLC8GzkMBQRMlyxvxyTnd5b73im&c=en-US&ur=in&da=n&logo=n&fmt=png&od=1&shading=hill&pp=12.301643,76.65049;dfp"
  },
  {
    "name": "Chirayu Health Care Center",
    "address": "Dr B R Ambedkar Road, Mysuru, Karnataka 570023",
    "phone": "Chirayu Health Care Center",
    "hours": null,
    "image_url": null
  }
]