[
  {
    "name": "Dr. S Priyadharshini | MBBS",
    "address": "Pudupalli, Palathadi Rd, Vilunthamavadi, Vettaikkaraniruppu, Velankanni, Tamil Nadu",
    "phone": "Dr. S Priyadharshini | MBBS",
    "hours": null,
    "image_url": "https://www.bing.com/maps/geoplat/REST/v1/Imagery/Map/RoadVibrant?ms=92,112&key=AnTcaqBi2ypp0xI-OZNi4W_ik2KhjgpqioTAtXLC8GzkMBQRMlyxvxyTnd5b73im&c=en-US&ur=in&da=n&logo=n&fmt=png&od=1&shading=hill&pp=10.676146,79.834473;dfp"
  },
  {
    "name": "Dr. Angatha Kumar Nagapattinam",
    "address": "11, Perumal Sannathi Street, Nagapattinam, Tamil Nadu 611001",
    "phone": "Dr. Angatha Kumar Nagapattinam",
    "hours": null,
    "image_url": "/th?id=OLC.8xTXms4UtwlBmA480x360&w=92&h=112&c=8&rs=1&qlt=80&cdv=1&pid=Local"
  },
  {
    "name": "Dr Vignehwaran Clinic",
    "address": "Sh200, Pattukottai Thiruthuraipoondi Road East Coast Road, Velankanni, Tamil Nadu 611111",
    "phone": "Dr Vignehwaran Clinic",
    "hours": null,
    "image_url": "https://www.bing.com/maps/geoplat/REST/v1/Imagery/Map/RoadVibrant?ms=92,112&key=AnTcaqBi2ypp0xI-OZNi4W_ik2KhjgpqioTAtXLC8GzkMBQRMlyxvxyTnd5b73im&c=en-US&ur=in&da=n&logo=n&fmt=png&od=1&shading=hill&pp=10.685218,79.837585;dfp"
  },
  {
    "name": "Sai Clinic., Dr. Pandiyaraj Ms., (laser Piles/fistula)",
    "address": "Kaariyankudi Chetti St, Voc Nagar, Nagapattinam, Tamil Nadu 611001, India, Nagapattinam, Tamil Nadu 611001",
    "phone": "Sai Clinic., Dr. Pandiyaraj Ms., (laser Piles/fistula)",
    "hours": null,
    "image_url": "/th?id=OLC.2VemgmxvXlLD6A480x360&w=92&h=112&c=8&rs=1&qlt=80&cdv=1&pid=Local"
  },
  {
    "name": "DR.A.Ansari Hospital",
    "address": "15/826, Neela West Street, Nagapattinam, Tamil Nadu 611001",
    "phone": "DR.A.Ansari Hospital",
    "hours": null,
    "image_url": "https://www.bing.com/maps/geoplat/REST/v1/Imagery/Map/RoadVibrant?ms=92,112&key=AnTcaqBi2ypp0xI-OZNi4W_ik2KhjgpqioTAtXLC8GzkMBQRMlyxvxyTnd5b73im&c=en-US&ur=in&da=n&logo=n&fmt=png&od=1&shading=hill&pp=10.762123,79.840729;dfp"
  },
  {
    "name": "Anbu Hospital",
    "address": "1, Sikkal, Main Road, Nagapattnam, Nagapattinam, Tamil Nadu 611108",
    "phone": "Anbu Hospital",
    "hours": null,
    "image_url": "https://www.bing.com/maps/geoplat/REST/v1/Imagery/Map/RoadVibrant?ms=92,112&key=AnTcaqBi2ypp0xI-OZNi4W_ik2KhjgpqioTAtXLC8GzkMBQRMlyxvxyTnd5b73im&c=en-US&ur=in&da=n&logo=n&fmt=png&od=1&shading=hill&pp=10.756925,79.824379;dfp"
  },
  {
    "name": "Dr Nandagopalan Clinic",
    "address": "Sh64, Kumbakonam Sirkali Road, Mayiladuturai, Tamil Nadu 609001",
    "phone": "Dr Nandagopalan Clinic",
    "hours": null,
    "image_url": "https://www.bing.com/maps/geoplat/REST/v1/Imagery/Map/RoadVibrant?ms=92,112&key=AnTcaqBi2ypp0xI-OZNi4W_ik2KhjgpqioTAtXLC8GzkMBQRMlyxvxyTnd5b73im&c=en-US&ur=in&da=n&logo=n&fmt=png&od=1&shading=hill&pp=11.099071,79.652847;dfp"
  },
  {
    "name": "GP Siddha Ayurveda Clinic",
    "address": "PDK Building, Mannargudi, Tamil Nadu 614001",
    "phone": "GP Siddha Ayurveda Clinic",
    "hours": "ClosedÂ· Opens 15:00",
    "image_url": "https://www.bing.com/maps/geoplat/REST/v1/Imagery/Map/RoadVibrant?ms=92,134&key=AnTcaqBi2ypp0xI-OZNi4W_ik2KhjgpqioTAtXLC8GzkMBQRMlyxvxyTnd5b73im&c=en-US&ur=in&da=n&logo=n&fmt=png&od=1&shading=hill&pp=10.664869,79.450714;dfp"
  },
  {
    "name": "Dr.m.c.surgical Clinic",
    "address": "Voc Nagar, Nagapattinam, Tamil Nadu 611001, India, Nagapattinam, Tamil Nadu 611001",
    "phone": "Dr.m.c.surgical Clinic",
    "hours": null,
    "image_url": null
  },
  {
    "name": "Dr. A. Rajarethinam's Homoeopathic Clinic & Diet Clinic",
    "address": "No 6, Poornanam Tower, Neela South Street, Nagapatinam, Nagapattinam, Tamil Nadu 611001",
    "phone": "Dr. A. Rajarethinam's Homoeopathic Clinic & Diet Clinic",
    "hours": null,
    "image_url": "https://www.bing.com/maps/geoplat/REST/v1/Imagery/Map/RoadVibrant?ms=92,112&key=AnTcaqBi2ypp0xI-OZNi4W_ik2KhjgpqioTAtXLC8GzkMBQRMlyxvxyTnd5b73im&c=en-US&ur=in&da=n&logo=n&fmt=png&od=1&shading=hill&pp=10.764375,79.844536;dfp"
  },
  {
    "name": "Dr Padmarajan Clinic",
    "address": "Sh23, Mayiladuthurai Thiruthuraipoondi Road, Mayiladuturai, Tamil Nadu 609001",
    "phone": "Dr Padmarajan Clinic",
    "hours": null,
    "image_url": "https://www.bing.com/maps/geoplat/REST/v1/Imagery/Map/RoadVibrant?ms=92,112&key=AnTcaqBi2ypp0xI-OZNi4W_ik2KhjgpqioTAtXLC8GzkMBQRMlyxvxyTnd5b73im&c=en-US&ur=in&da=n&logo=n&fmt=png&od=1&shading=hill&pp=11.09507,79.650902;dfp"
  },
  {
    "name": "Dr Narayanan Clinic",
    "address": "Pattamangalam Street, Mayiladuthurai Clock Tower, Kamarajar Salai, Mayiladuturai, Tamil Nadu 609001",
    "phone": "Dr Narayanan Clinic",
    "hours": null,
    "image_url": "https://www.bing.com/maps/geoplat/REST/v1/Imagery/Map/RoadVibrant?ms=92,112&key=AnTcaqBi2ypp0xI-OZNi4W_ik2KhjgpqioTAtXLC8GzkMBQRMlyxvxyTnd5b73im&c=en-US&ur=in&da=n&logo=n&fmt=png&od=1&shading=hill&pp=11.101222,79.652451;dfp"
  },
  {
    "name": "Nakshatra Skin and Surgery Clinic",
    "address": "46 a, East Street, Thanjai Salai, Vasan Nagar, Pulivalam, Thiruvarur, Tamil Nadu",
    "phone": "Nakshatra Skin and Surgery Clinic",
    "hours": null,
    "image_url": "https://www.bing.com/maps/geoplat/REST/v1/Imagery/Map/RoadVibrant?ms=92,112&key=AnTcaqBi2ypp0xI-OZNi4W_ik2KhjgpqioTAtXLC8GzkMBQRMlyxvxyTnd5b73im&c=en-US&ur=in&da=n&logo=n&fmt=png&od=1&shading=hill&pp=10.661043,79.459618;dfp"
  },
  {
    "name": "Dr Sowmithya Banu Clinic",
    "address": "Mahadhana Street, Mayiladuthurai Municipality Office, Kamarajar Salai, Mayiladuturai, Tamil Nadu 609001",
    "phone": "Dr Sowmithya Banu Clinic",
    "hours": null,
    "image_url": "https://www.bing.com/maps/geoplat/REST/v1/Imagery/Map/RoadVibrant?ms=92,112&key=AnTcaqBi2ypp0xI-OZNi4W_ik2KhjgpqioTAtXLC8GzkMBQRMlyxvxyTnd5b73im&c=en-US&ur=in&da=n&logo=n&fmt=png&od=1&shading=hill&pp=11.099813,79.6548;dfp"
  },
  {
    "name": "Dr Singh's Super Speciality Bone and Joint Clinic",
    "address": "Rhaman Complex, 12 M.A, Pattamangala St, Kamarajar Salai, Mayiladuthurai, Tamil Nadu",
    "phone": "Dr Singh's Super Speciality Bone and Joint Clinic",
    "hours": null,
    "image_url": "https://www.bing.com/maps/geoplat/REST/v1/Imagery/Map/RoadVibrant?ms=92,112&key=AnTcaqBi2ypp0xI-OZNi4W_ik2KhjgpqioTAtXLC8GzkMBQRMlyxvxyTnd5b73im&c=en-US&ur=in&da=n&logo=n&fmt=png&od=1&shading=hill&pp=11.09434,79.653893;dfp"
  },
  {
    "name": "Paneer Selvam Clinic",
    "address": "Sh64, Kumbakonam Sirkali Road, Mayiladuturai, Tamil Nadu 609001",
    "phone": "Paneer Selvam Clinic",
    "hours": null,
    "image_url": "https://www.bing.com/maps/geoplat/REST/v1/Imagery/Map/RoadVibrant?ms=92,112&key=AnTcaqBi2ypp0xI-OZNi4W_ik2KhjgpqioTAtXLC8GzkMBQRMlyxvxyTnd5b73im&c=en-US&ur=in&da=n&logo=n&fmt=png&od=1&shading=hill&pp=11.108706,79.653458;dfp"
  },
  {
    "name": "Deepam Homoeo Clinic",
    "address": "52/2., M.A.Aziz Complex, (Opp: Sundaram Theatre), No:2 Road (or) Gandhiji Road, Mayiladuthurai 609001",
    "phone": "Deepam Homoeo Clinic",
    "hours": null,
    "image_url": "https://www.bing.com/maps/geoplat/REST/v1/Imagery/Map/RoadVibrant?ms=92,112&key=AnTcaqBi2ypp0xI-OZNi4W_ik2KhjgpqioTAtXLC8GzkMBQRMlyxvxyTnd5b73im&c=en-US&ur=in&da=n&logo=n&fmt=png&od=1&shading=hill&pp=11.097525,79.642685;dfp"
  },
  {
    "name": "Siva Clinic",
    "address": "City Union Bank, Sh28, Thalaiyari Street, Pattukottai, Pattukkottai, Tamil Nadu 614601",
    "phone": "Siva Clinic",
    "hours": null,
    "image_url": "https://www.bing.com/maps/geoplat/REST/v1/Imagery/Map/RoadVibrant?ms=92,112&key=AnTcaqBi2ypp0xI-OZNi4W_ik2KhjgpqioTAtXLC8GzkMBQRMlyxvxyTnd5b73im&c=en-US&ur=in&da=n&logo=n&fmt=png&od=1&shading=hill&pp=10.422334,79.3181;dfp"
  }
]