[
  {
    "name": "Dr Ranveer Navjeevan Hospital Nagaur",
    "address": "Near Sugan Singh Circle, Nagaur, Rajasthan 341001",
    "phone": "Dr Ranveer Navjeevan Hospital Nagaur",
    "hours": null,
    "image_url": "https://www.bing.com/maps/geoplat/REST/v1/Imagery/Map/RoadVibrant?ms=92,112&key=AnTcaqBi2ypp0xI-OZNi4W_ik2KhjgpqioTAtXLC8GzkMBQRMlyxvxyTnd5b73im&c=en-US&ur=in&da=n&logo=n&fmt=png&od=1&shading=hill&pp=27.203642,73.724167;dfp"
  },
  {
    "name": "Dr Surendra Bhakal Clinic",
    "address": "Nagaur Road, Near Hindustan Gas Agency, Ward No 12, Nagaur, Rajasthan 341001",
    "phone": "Dr Surendra Bhakal Clinic",
    "hours": null,
    "image_url": "/th?id=OLC.Pc8yYroeAc587A480x360&w=92&h=112&c=8&rs=1&qlt=80&cdv=1&pid=Local"
  },
  {
    "name": "Dr Praveen Prajapat",
    "address": "Sainik Basti, Nagaur, Rajasthan",
    "phone": "Dr Praveen Prajapat",
    "hours": null,
    "image_url": "https://www.bing.com/maps/geoplat/REST/v1/Imagery/Map/RoadVibrant?ms=92,112&key=AnTcaqBi2ypp0xI-OZNi4W_ik2KhjgpqioTAtXLC8GzkMBQRMlyxvxyTnd5b73im&c=en-US&ur=in&da=n&logo=n&fmt=png&od=1&shading=hill&pp=27.205458,73.722488;dfp"
  },
  {
    "name": "Dr.laxman Singh Rathore Herbal Poly Clinic Kuchaman City",
    "address": "Vishwakarma Marg, Nagaur, Rajasthan 341508",
    "phone": "Dr.laxman Singh Rathore Herbal Poly Clinic Kuchaman City",
    "hours": null,
    "image_url": "/th?id=OLC.aG8XbqM7VIY0Og480x360&w=92&h=112&c=8&rs=1&qlt=80&cdv=1&pid=Local"
  },
  {
    "name": "Gujrat Clinic",
    "address": "143, Amaravato KA Mohalla, Merta, Mokala, Nagaur, Rajasthan 341510",
    "phone": "Gujrat Clinic",
    "hours": null,
    "image_url": "https://www.bing.com/maps/geoplat/REST/v1/Imagery/Map/RoadVibrant?ms=92,112&key=AnTcaqBi2ypp0xI-OZNi4W_ik2KhjgpqioTAtXLC8GzkMBQRMlyxvxyTnd5b73im&c=en-US&ur=in&da=n&logo=n&fmt=png&od=1&shading=hill&pp=27.201033,73.737778;dfp"
  },
  {
    "name": "Gurukripa Clinic",
    "address": "Gurukripa Clinic Aajad Chowk Pipali Gali, Nagaur, Rajasthan 341001",
    "phone": "Gurukripa Clinic",
    "hours": null,
    "image_url": "https://www.bing.com/maps/geoplat/REST/v1/Imagery/Map/RoadVibrant?ms=92,112&key=AnTcaqBi2ypp0xI-OZNi4W_ik2KhjgpqioTAtXLC8GzkMBQRMlyxvxyTnd5b73im&c=en-US&ur=in&da=n&logo=n&fmt=png&od=1&shading=hill&pp=27.197227,73.760925;dfp"
  },
  {
    "name": "Agarwal Ayurvedic Hopital",
    "address": "Agarwal Ayurvedic Hospital & Research Centre Shiv Colony Merta, Nagaur, Rajasthan 341510",
    "phone": "Agarwal Ayurvedic Hopital",
    "hours": null,
    "image_url": "https://www.bing.com/maps/geoplat/REST/v1/Imagery/Map/RoadVibrant?ms=92,112&key=AnTcaqBi2ypp0xI-OZNi4W_ik2KhjgpqioTAtXLC8GzkMBQRMlyxvxyTnd5b73im&c=en-US&ur=in&da=n&logo=n&fmt=png&od=1&shading=hill&pp=27.199642,73.730301;dfp"
  },
  {
    "name": "Shuddhi Clinic By Guru Manish Ji - Best Ayurveda Doctor & Ayurvedic Treatment",
    "address": "H.No 58, Ishwar Kunj, Sainik Colony, Gaurav Path, Near Life Line Hospital, Nagaur, Rajasthan 341001",
    "phone": "Shuddhi Clinic By Guru Manish Ji - Best Ayurveda Doctor & Ayurvedic Treatment",
    "hours": null,
    "image_url": null
  },
  {
    "name": "G. S. Clinic and Home Care",
    "address": "Shop NO.4 G. S. Clinic AND Home Care, Masjid Chhimpan Mahi Darwaja, Nagaur, Rajasthan 341001",
    "phone": "G. S. Clinic and Home Care",
    "hours": null,
    "image_url": "https://www.bing.com/maps/geoplat/REST/v1/Imagery/Map/RoadVibrant?ms=92,112&key=AnTcaqBi2ypp0xI-OZNi4W_ik2KhjgpqioTAtXLC8GzkMBQRMlyxvxyTnd5b73im&c=en-US&ur=in&da=n&logo=n&fmt=png&od=1&shading=hill&pp=27.197626,73.735504;dfp"
  },
  {
    "name": "Dr. Bhimrow Ambedakar Social Welfare Mission of India",
    "address": "Bhim Jyot Goup, Kodinar, Nagaur, Rajasthan 341001",
    "phone": "Dr. Bhimrow Ambedakar Social Welfare Mission of India",
    "hours": null,
    "image_url": "https://www.bing.com/maps/geoplat/REST/v1/Imagery/Map/RoadVibrant?ms=92,112&key=AnTcaqBi2ypp0xI-OZNi4W_ik2KhjgpqioTAtXLC8GzkMBQRMlyxvxyTnd5b73im&c=en-US&ur=in&da=n&logo=n&fmt=png&od=1&shading=hill&pp=27.200001,73.733299;dfp"
  },
  {
    "name": "Aayush Homeopathic Clinic",
    "address": "Nagaur Road, Near Nagaur Medical Store, Ward No 12, Nagaur, Rajasthan 341001",
    "phone": "Aayush Homeopathic Clinic",
    "hours": null,
    "image_url": "https://www.bing.com/maps/geoplat/REST/v1/Imagery/Map/RoadVibrant?ms=92,112&key=AnTcaqBi2ypp0xI-OZNi4W_ik2KhjgpqioTAtXLC8GzkMBQRMlyxvxyTnd5b73im&c=en-US&ur=in&da=n&logo=n&fmt=png&od=1&shading=hill&pp=27.203341,73.726585;dfp"
  },
  {
    "name": "Ankur ENT Hospital",
    "address": "Cisf Link Rd, Near Peer Baba, Ward Number 15, Deoli, Rajasthan",
    "phone": "Ankur ENT Hospital",
    "hours": null,
    "image_url": "https://www.bing.com/maps/geoplat/REST/v1/Imagery/Map/RoadVibrant?ms=92,112&key=AnTcaqBi2ypp0xI-OZNi4W_ik2KhjgpqioTAtXLC8GzkMBQRMlyxvxyTnd5b73im&c=en-US&ur=in&da=n&logo=n&fmt=png&od=1&shading=hill&pp=27.196831,73.737206;dfp"
  },
  {
    "name": "Dr. Shri Gopal Goyal, Neuro-psychiatrist In Bikaner",
    "address": "Ambedkar Circle, Near X-ray Gali House No. 75, Karni Colony, Shardul Colony, Rajasthan 334001",
    "phone": "Dr. Shri Gopal Goyal, Neuro-psychiatrist In Bikaner",
    "hours": null,
    "image_url": null
  },
  {
    "name": "Bhutra Diagnostic Centre",
    "address": "Naya Darwja Road Soni JI KI Badi K Pass, Nagaur, Rajasthan 341001",
    "phone": "Bhutra Diagnostic Centre",
    "hours": null,
    "image_url": null
  },
  {
    "name": "Hisar Diagnostic Center",
    "address": "Nehra House W NO.26 Near Bharat Sainik School Bhadra, Hanumangarh, Rajasthan 335501",
    "phone": "Hisar Diagnostic Center",
    "hours": null,
    "image_url": "https://www.bing.com/maps/geoplat/REST/v1/Imagery/Map/RoadVibrant?ms=92,112&key=AnTcaqBi2ypp0xI-OZNi4W_ik2KhjgpqioTAtXLC8GzkMBQRMlyxvxyTnd5b73im&c=en-US&ur=in&da=n&logo=n&fmt=png&od=1&shading=hill&pp=27.197363,73.742142;dfp"
  },
  {
    "name": "Samarth Sonography and Diagnostic Centre",
    "address": "Plot NO 16 Near Vedanta School Soni JI KI Bari, Nagaur, Rajasthan 341001",
    "phone": "Samarth Sonography and Diagnostic Centre",
    "hours": null,
    "image_url": "https://www.bing.com/maps/geoplat/REST/v1/Imagery/Map/RoadVibrant?ms=92,112&key=AnTcaqBi2ypp0xI-OZNi4W_ik2KhjgpqioTAtXLC8GzkMBQRMlyxvxyTnd5b73im&c=en-US&ur=in&da=n&logo=n&fmt=png&od=1&shading=hill&pp=27.198811,73.733185;dfp"
  }
]