[
  {
    "name": "Dr. Mukibur Rahman | Health and Humanity",
    "address": "Kutaini Path, Nagaon, Assam, India, 782003, Nagaon, Madhya Pradesh 782003",
    "phone": "Dr. Mukibur Rahman | Health and Humanity",
    "hours": "Open· Closes 14:00",
    "image_url": "/th?id=OLC.F4paPdOcwcXFeQ480x360&w=92&h=134&c=8&rs=1&qlt=80&cdv=1&pid=Local"
  },
  {
    "name": "Dr Ajit Bora- General & Laproscopic surgery",
    "address": "Nagaon Nursing & Maternity Home No 2 Mullapatty, Haibargaon, Nagaon, Assam 782002",
    "phone": "Dr Ajit Bora- General & Laproscopic surgery",
    "hours": "Open· Closes 15:00",
    "image_url": "https://www.bing.com/maps/geoplat/REST/v1/Imagery/Map/RoadVibrant?ms=92,134&key=AnTcaqBi2ypp0xI-OZNi4W_ik2KhjgpqioTAtXLC8GzkMBQRMlyxvxyTnd5b73im&c=en-US&ur=in&da=n&logo=n&fmt=png&od=1&shading=hill&pp=26.34424,92.681076;dfp"
  },
  {
    "name": "Doctors Clinic",
    "address": "LNB Rd, Near Assam Gramin Bikash Bank, Mangaldoi, Assam",
    "phone": "Doctors Clinic",
    "hours": null,
    "image_url": "https://www.bing.com/maps/geoplat/REST/v1/Imagery/Map/RoadVibrant?ms=92,112&key=AnTcaqBi2ypp0xI-OZNi4W_ik2KhjgpqioTAtXLC8GzkMBQRMlyxvxyTnd5b73im&c=en-US&ur=in&da=n&logo=n&fmt=png&od=1&shading=hill&pp=26.341249,92.681015;dfp"
  },
  {
    "name": "Dr. Arunima Mahanta- Nephrologist",
    "address": "DR Sorma's X-RAY Clinic & LAB, Kamekhya Medical Hall, NH-37, Assam Trunk Rd, Kenyapatty, Nagaon, As…",
    "phone": "Dr. Arunima Mahanta- Nephrologist",
    "hours": "Closed· Opens Wed 09:00",
    "image_url": "https://www.bing.com/maps/geoplat/REST/v1/Imagery/Map/RoadVibrant?ms=92,134&key=AnTcaqBi2ypp0xI-OZNi4W_ik2KhjgpqioTAtXLC8GzkMBQRMlyxvxyTnd5b73im&c=en-US&ur=in&da=n&logo=n&fmt=png&od=1&shading=hill&pp=26.352627,92.687424;dfp"
  },
  {
    "name": "Dr. Sujoy Debnath- Gynecology And Fertility",
    "address": "Zygosis | Women and Fertility Centre, Dr. Huze Road, Christian Patty, Professors Colony, Nagaon, Assam 78…",
    "phone": "Dr. Sujoy Debnath- Gynecology And Fertility",
    "hours": "Closed· Opens 13:30",
    "image_url": "https://www.bing.com/maps/geoplat/REST/v1/Imagery/Map/RoadVibrant?ms=92,134&key=AnTcaqBi2ypp0xI-OZNi4W_ik2KhjgpqioTAtXLC8GzkMBQRMlyxvxyTnd5b73im&c=en-US&ur=in&da=n&logo=n&fmt=png&od=1&shading=hill&pp=26.350821,92.687798;dfp"
  },
  {
    "name": "Dr AMEEN’s Homoeopathy CARE & Research Centre",
    "address": "Dhing Rd, Nagaon, Assam 782002, India, Nagaon, Nagaon 782002",
    "phone": "Dr AMEEN’s Homoeopathy CARE & Research Centre",
    "hours": null,
    "image_url": "/th?id=OLC.%2futICl%2fFH9iNaQ480x360&w=92&h=112&c=8&rs=1&qlt=80&cdv=1&pid=Local"
  },
  {
    "name": "Dr. Khira Kanta Das | Best Internal medicine specialist near me Fauzdaripatty Nagaon",
    "address": "Satabdi Medical Haladhar, Dr SK Bhuyan Rd, in Front of DC Office, Haibargaon, Fauzdaripatty, Nagaon, Assam",
    "phone": "Dr. Khira Kanta Das | Best Internal medicine specialist near me Fauzdaripatty Nagaon",
    "hours": null,
    "image_url": "https://www.bing.com/maps/geoplat/REST/v1/Imagery/Map/RoadVibrant?ms=92,112&key=AnTcaqBi2ypp0xI-OZNi4W_ik2KhjgpqioTAtXLC8GzkMBQRMlyxvxyTnd5b73im&c=en-US&ur=in&da=n&logo=n&fmt=png&od=1&shading=hill&pp=26.348967,92.681351;dfp"
  },
  {
    "name": "Dr. Pramesh Kumar Sarma",
    "address": "Rk Road Itachali Town Medical House, Nagaon, Assam, India, 782001, Nagaon, Madhya Pradesh 782001",
    "phone": "Dr. Pramesh Kumar Sarma",
    "hours": "Open· Closes 18:00",
    "image_url": null
  },
  {
    "name": "Shuddhi Clinic By Guru Manish Ji - Best Ayurveda Doctor & Ayurvedic Treatment",
    "address": "A T Road Khutikatia, Post Office Haibargaon, 1st Floor of Maruti Suzuki Commerical Show Room, Opposite FCI …",
    "phone": "Shuddhi Clinic By Guru Manish Ji - Best Ayurveda Doctor & Ayurvedic Treatment",
    "hours": null,
    "image_url": null
  },
  {
    "name": "DR. Haque Ent Care",
    "address": "Bhuyanpatty, South Haibargaon, C/O Nurul Haque, A J B Road, Haibargaon, Nagaon, Assam 782002",
    "phone": "DR. Haque Ent Care",
    "hours": null,
    "image_url": null
  },
  {
    "name": "Dr. Rajib Gayan- Diabetology",
    "address": "Trinayan Health Care and Research Center, Nagaon, Assam 782001",
    "phone": "Dr. Rajib Gayan- Diabetology",
    "hours": "Open· Closes 22:00",
    "image_url": "https://www.bing.com/maps/geoplat/REST/v1/Imagery/Map/RoadVibrant?ms=92,134&key=AnTcaqBi2ypp0xI-OZNi4W_ik2KhjgpqioTAtXLC8GzkMBQRMlyxvxyTnd5b73im&c=en-US&ur=in&da=n&logo=n&fmt=png&od=1&shading=hill&pp=26.340891,92.703362;dfp"
  },
  {
    "name": "Dr Piyush Agarwal",
    "address": "Opposite Motiram Bora High School, Nagaon, Assam 782001",
    "phone": "Dr Piyush Agarwal",
    "hours": null,
    "image_url": "https://www.bing.com/maps/geoplat/REST/v1/Imagery/Map/RoadVibrant?ms=92,112&key=AnTcaqBi2ypp0xI-OZNi4W_ik2KhjgpqioTAtXLC8GzkMBQRMlyxvxyTnd5b73im&c=en-US&ur=in&da=n&logo=n&fmt=png&od=1&shading=hill&pp=26.30965,92.694397;dfp"
  },
  {
    "name": "RAMP Multispeciality Clinic & Diagnostics",
    "address": "Tanz Building, BB Rd, Kayakuchi Bazar, Barpeta, Assam",
    "phone": "RAMP Multispeciality Clinic & Diagnostics",
    "hours": null,
    "image_url": "https://www.bing.com/maps/geoplat/REST/v1/Imagery/Map/RoadVibrant?ms=92,112&key=AnTcaqBi2ypp0xI-OZNi4W_ik2KhjgpqioTAtXLC8GzkMBQRMlyxvxyTnd5b73im&c=en-US&ur=in&da=n&logo=n&fmt=png&od=1&shading=hill&pp=26.357927,92.698517;dfp"
  },
  {
    "name": "Dr Lal Pathlabs",
    "address": "Mr. Pranab Das, Near Civil Hospital, P.O.-Lumding, Dist.- Nagaon, (Assam) Pin-782447, Nagaon, Assam 782447",
    "phone": "Dr Lal Pathlabs",
    "hours": "Open· Closes 19:30",
    "image_url": "https://www.bing.com/maps/geoplat/REST/v1/Imagery/Map/RoadVibrant?ms=92,134&key=AnTcaqBi2ypp0xI-OZNi4W_ik2KhjgpqioTAtXLC8GzkMBQRMlyxvxyTnd5b73im&c=en-US&ur=in&da=n&logo=n&fmt=png&od=1&shading=hill&pp=26.352757,92.687218;dfp"
  },
  {
    "name": "Metropolis Healthcare Limited - Pathology Lab, Diagnostic Centre",
    "address": "Ground Floor, North Haibargaon, MCG Road, Chariali, Near Lovers Bridge, Nagaon, Assam 782001",
    "phone": "Metropolis Healthcare Limited - Pathology Lab, Diagnostic Centre",
    "hours": "Open· Closes 20:00",
    "image_url": "https://www.bing.com/maps/geoplat/REST/v1/Imagery/Map/RoadVibrant?ms=92,134&key=AnTcaqBi2ypp0xI-OZNi4W_ik2KhjgpqioTAtXLC8GzkMBQRMlyxvxyTnd5b73im&c=en-US&ur=in&da=n&logo=n&fmt=png&od=1&shading=hill&pp=26.359049,92.686325;dfp"
  },
  {
    "name": "DR. Baishya's Niramoy Diagnostic Centre",
    "address": "C\\o\\ Dr M Baishya, Ward No\\7, Amolapatty, Khagorijan, Bimala Bora Road, Nagaon, Assam 782001",
    "phone": "DR. Baishya's Niramoy Diagnostic Centre",
    "hours": null,
    "image_url": "https://www.bing.com/maps/geoplat/REST/v1/Imagery/Map/RoadVibrant?ms=92,112&key=AnTcaqBi2ypp0xI-OZNi4W_ik2KhjgpqioTAtXLC8GzkMBQRMlyxvxyTnd5b73im&c=en-US&ur=in&da=n&logo=n&fmt=png&od=1&shading=hill&pp=26.334005,92.683647;dfp"
  },
  {
    "name": "Dr Anjan's Path Lab and Diagnostic Centre",
    "address": "MG Rd, Christianpatty, Nagaon, Assam",
    "phone": "Dr Anjan's Path Lab and Diagnostic Centre",
    "hours": null,
    "image_url": null
  },
  {
    "name": "Metropolis Healthcare Limited - Pathology Lab, Diagnostic Centre",
    "address": "Sankar Road, Amolapatty, Near Hotel Bidisha, Nagaon, Assam 782001",
    "phone": "Metropolis Healthcare Limited - Pathology Lab, Diagnostic Centre",
    "hours": "Open· Closes 19:00",
    "image_url": "https://www.bing.com/maps/geoplat/REST/v1/Imagery/Map/RoadVibrant?ms=92,134&key=AnTcaqBi2ypp0xI-OZNi4W_ik2KhjgpqioTAtXLC8GzkMBQRMlyxvxyTnd5b73im&c=en-US&ur=in&da=n&logo=n&fmt=png&od=1&shading=hill&pp=26.347946,92.687553;dfp"
  }
]