[
  {
    "name": "Kingsway Hospitals",
    "address": "44, Kingsway Hospitals, Kasturchand Park Area, Kingsway Rd, Mohan Nagar, Nagpur, Maharashtra",
    "phone": "Kingsway Hospitals",
    "hours": null,
    "image_url": "/th?id=OLC.j1Fh2oZLyZO7Jw480x360&w=92&h=112&c=8&rs=1&qlt=80&cdv=1&pid=Local"
  },
  {
    "name": "Dr. Rajesh Swarnakar",
    "address": "Dr Khare Marg, Dhantoli, Nagpur, Maharashtra 440012",
    "phone": "Dr. Rajesh Swarnakar",
    "hours": null,
    "image_url": "/th?id=OLC.tCywP8nR1ocQnQ480x360&w=92&h=112&c=8&rs=1&qlt=80&cdv=1&pid=Local"
  },
  {
    "name": "Dr. Amit Agrawal",
    "address": "1st Floor, Shar-Hari Complex, opp. Somalwar High School, Central Bazaar Road, Ramdaspeth, Nagpur, M…",
    "phone": "Dr. Amit Agrawal",
    "hours": "Open· Closes 17:30",
    "image_url": "https://www.bing.com/maps/geoplat/REST/v1/Imagery/Map/RoadVibrant?ms=92,112&key=AnTcaqBi2ypp0xI-OZNi4W_ik2KhjgpqioTAtXLC8GzkMBQRMlyxvxyTnd5b73im&c=en-US&ur=in&da=n&logo=n&fmt=png&od=1&shading=hill&pp=21.133783,79.074722;dfp"
  },
  {
    "name": "Dr. Romil Rathi",
    "address": "Ground Floor Ramdas Peth Road, Nagpur, Maharashtra 440012",
    "phone": "Dr. Romil Rathi",
    "hours": "Open· Closes 20:00",
    "image_url": "/th?id=OLC.rp1i7rVHJwgh3w480x360&w=92&h=134&c=8&rs=1&qlt=80&cdv=1&pid=Local"
  },
  {
    "name": "Dr. Sanjay Ramteke",
    "address": "Wardha Road, Nagpur, Maharashtra 440012",
    "phone": "Dr. Sanjay Ramteke",
    "hours": "Closed· Opens 14:00",
    "image_url": "/th?id=OLC.LkrQmXwmx0rFVg480x360&w=92&h=134&c=8&rs=1&qlt=80&cdv=1&pid=Local"
  },
  {
    "name": "Dr. Nawaid Ahmed",
    "address": "2nd Floor, Shri Govindraj Heights, Gitanjali Chowk, Nagpur, Maharashtra",
    "phone": "Dr. Nawaid Ahmed",
    "hours": "Closed· Opens 11:00",
    "image_url": "/th?id=OLC.U6q61TgfbJKHFA480x360&w=92&h=112&c=8&rs=1&qlt=80&cdv=1&pid=Local"
  },
  {
    "name": "Dr. Darakshan Parveen",
    "address": "2nd Floor, Shri Govindraj Heights, Gitanjali Chowk, Nagpur, Maharashtra",
    "phone": "Dr. Darakshan Parveen",
    "hours": "Closed· Opens 13:00",
    "image_url": null
  },
  {
    "name": "Dr. Dinesh Sarda Child Surgery & Child Urology",
    "address": "Kamalprabha Building, Mb Khare Marg, Dhantoli Nagpur-440012, Nagpur, Maharashtra, Maharashtra 440012",
    "phone": "Dr. Dinesh Sarda Child Surgery & Child Urology",
    "hours": "Open· Closes 16:00",
    "image_url": null
  },
  {
    "name": "Dr. Sanjay Sood",
    "address": "Fidvi Complex, Sadar, Landmark: Behind Saraf Chambers, Nagpur, Maharashtra",
    "phone": "Dr. Sanjay Sood",
    "hours": "Closed· Opens 11:00",
    "image_url": null
  },
  {
    "name": "Dr. Ritesh H Girde",
    "address": "51/52, Dilip Priti Plaza, Khamla Road, Nagpur, Maharashtra",
    "phone": "Dr. Ritesh H Girde",
    "hours": "Open· Closes 13:00",
    "image_url": null
  },
  {
    "name": "Dr. Abhijeet Ambhaikar Clinic",
    "address": "House Number 431 Joshiwadi Sitabuldi Nagpur Maharashtra, Nagpur, Madhya Pradesh 440012",
    "phone": "Dr. Abhijeet Ambhaikar Clinic",
    "hours": "Open· Closes 11:30",
    "image_url": "https://www.bing.com/maps/geoplat/REST/v1/Imagery/Map/RoadVibrant?ms=92,112&key=AnTcaqBi2ypp0xI-OZNi4W_ik2KhjgpqioTAtXLC8GzkMBQRMlyxvxyTnd5b73im&c=en-US&ur=in&da=n&logo=n&fmt=png&od=1&shading=hill&pp=21.129705,79.083282;clcp"
  },
  {
    "name": "Dr. Saurabh Prasad",
    "address": "Kingsway Hospital, 44 Kingsway Road Near Kasturchand Park, Mohan, Nagpur, Maharashtra",
    "phone": "Dr. Saurabh Prasad",
    "hours": "Closed· Opens 12:30",
    "image_url": null
  },
  {
    "name": "Dr. Sudhir Bhatnagar",
    "address": "Kamal Chowk, Naya Nakasha, Nagpur, Nagpur 440017",
    "phone": "Dr. Sudhir Bhatnagar",
    "hours": "Open· Closes 14:00",
    "image_url": "https://www.bing.com/maps/geoplat/REST/v1/Imagery/Map/RoadVibrant?ms=92,134&key=AnTcaqBi2ypp0xI-OZNi4W_ik2KhjgpqioTAtXLC8GzkMBQRMlyxvxyTnd5b73im&c=en-US&ur=in&da=n&logo=n&fmt=png&od=1&shading=hill&pp=21.16811,79.100952;dfp"
  },
  {
    "name": "Dr. Dinesh Sarda",
    "address": "Kamalprabha Building, Nagpur, Maharashtra",
    "phone": "Dr. Dinesh Sarda",
    "hours": "Open· Closes 16:00",
    "image_url": null
  },
  {
    "name": "Dr. Vinit Niranjane",
    "address": "Archana Midas, Nagpur, Maharashtra 440010",
    "phone": "Dr. Vinit Niranjane",
    "hours": "Closed· Opens 11:00",
    "image_url": null
  },
  {
    "name": "Dr. M Shams Khan",
    "address": "G-11, Achraj Tower, Chhaoni, Sadar Bazar, Landmark: Near Raj Bhandar, Nagpur, Maharashtra",
    "phone": "Dr. M Shams Khan",
    "hours": "Open· Closes 13:30",
    "image_url": null
  },
  {
    "name": "Dr. Nita Joshi",
    "address": "462/a, Sai Complex, Nagpur, Nagpur 440033",
    "phone": "Dr. Nita Joshi",
    "hours": "Open· Closes 13:00",
    "image_url": "https://www.bing.com/maps/geoplat/REST/v1/Imagery/Map/RoadVibrant?ms=92,134&key=AnTcaqBi2ypp0xI-OZNi4W_ik2KhjgpqioTAtXLC8GzkMBQRMlyxvxyTnd5b73im&c=en-US&ur=in&da=n&logo=n&fmt=png&od=1&shading=hill&pp=21.147476,79.0522;dfp"
  },
  {
    "name": "Dr. Girdhar Heda",
    "address": "23, Mehar Prasad Buidling, Central Bazar Road, New Ramdaspeth, Landmark: Near Hotel Centre Point, Nag…",
    "phone": "Dr. Girdhar Heda",
    "hours": "Closed· Opens 12:00",
    "image_url": "https://www.bing.com/maps/geoplat/REST/v1/Imagery/Map/RoadVibrant?ms=92,112&key=AnTcaqBi2ypp0xI-OZNi4W_ik2KhjgpqioTAtXLC8GzkMBQRMlyxvxyTnd5b73im&c=en-US&ur=in&da=n&logo=n&fmt=png&od=1&shading=hill&pp=21.134724,79.076775;dfp"
  }
]