[
  {
    "name": "Dr Trilochan Clinic",
    "address": "Bareilly Nainital Road, Railway Crossing, Banbhoolpura, Haldwani-Kathgodam, Uttarakhand 263139",
    "phone": "Dr Trilochan Clinic",
    "hours": null,
    "image_url": "https://www.bing.com/maps/geoplat/REST/v1/Imagery/Map/RoadVibrant?ms=92,112&key=AnTcaqBi2ypp0xI-OZNi4W_ik2KhjgpqioTAtXLC8GzkMBQRMlyxvxyTnd5b73im&c=en-US&ur=in&da=n&logo=n&fmt=png&od=1&shading=hill&pp=29.218172,79.529968;dfp"
  },
  {
    "name": "Kailash Multispeciality Clinic",
    "address": "Bachidharma, Halduchaur, Lalkuan, Uttarakhand 262402",
    "phone": "Kailash Multispeciality Clinic",
    "hours": null,
    "image_url": "/th?id=OLC.y7VFsvdlCuz6hA480x360&w=92&h=112&c=8&rs=1&qlt=80&cdv=1&pid=Local"
  },
  {
    "name": "Dr Pankaj Gupta",
    "address": "Rudrapur Road, Mangal Parao Chauraha, Indira Nagar, Haldwani-Kathgodam, Uttarakhand 263139",
    "phone": "Dr Pankaj Gupta",
    "hours": null,
    "image_url": "https://www.bing.com/maps/geoplat/REST/v1/Imagery/Map/RoadVibrant?ms=92,112&key=AnTcaqBi2ypp0xI-OZNi4W_ik2KhjgpqioTAtXLC8GzkMBQRMlyxvxyTnd5b73im&c=en-US&ur=in&da=n&logo=n&fmt=png&od=1&shading=hill&pp=29.204592,79.527206;dfp"
  },
  {
    "name": "Dr Vijay Pant",
    "address": "Kaladungi Road, Haldwani-Kathgodam, Uttarakhand 263139",
    "phone": "Dr Vijay Pant",
    "hours": null,
    "image_url": "https://www.bing.com/maps/geoplat/REST/v1/Imagery/Map/RoadVibrant?ms=92,112&key=AnTcaqBi2ypp0xI-OZNi4W_ik2KhjgpqioTAtXLC8GzkMBQRMlyxvxyTnd5b73im&c=en-US&ur=in&da=n&logo=n&fmt=png&od=1&shading=hill&pp=29.219612,79.512459;dfp"
  },
  {
    "name": "Dr. Binod Joshi Ayurvedic Chikitsalaya",
    "address": "Ratanpur Isai, Haldwani, Nainital, Uttarakhand 263139",
    "phone": "Dr. Binod Joshi Ayurvedic Chikitsalaya",
    "hours": null,
    "image_url": "/th?id=OLC.7mq7mybOH9QZCA480x360&w=92&h=112&c=8&rs=1&qlt=80&cdv=1&pid=Local"
  },
  {
    "name": "Dr Yash Pandey",
    "address": "Kaladungi Road, Haldwani, Uttarakhand 263139",
    "phone": "Dr Yash Pandey",
    "hours": null,
    "image_url": "https://www.bing.com/maps/geoplat/REST/v1/Imagery/Map/RoadVibrant?ms=92,112&key=AnTcaqBi2ypp0xI-OZNi4W_ik2KhjgpqioTAtXLC8GzkMBQRMlyxvxyTnd5b73im&c=en-US&ur=in&da=n&logo=n&fmt=png&od=1&shading=hill&pp=29.215349,79.525505;dfp"
  },
  {
    "name": "Sai Homoeopathic Clinic - Dr. Lalit Mohan",
    "address": "Gangapur Road Daksh Chauraha Theen Pani Road Rudrapur, Rudrapur, Uttarakhand",
    "phone": "Sai Homoeopathic Clinic - Dr. Lalit Mohan",
    "hours": null,
    "image_url": null
  },
  {
    "name": "Dr Akshay Golwalkar - Best Pediatrician | Neonatologist | Child Vaccination Expert",
    "address": "Neelkanth Hospital, New, ITI Rd, Near Susheela Tiwari Government Hospital, Haldwani, Uttarakhand",
    "phone": "Dr Akshay Golwalkar - Best Pediatrician | Neonatologist | Child Vaccination Expert",
    "hours": null,
    "image_url": "https://www.bing.com/maps/geoplat/REST/v1/Imagery/Map/RoadVibrant?ms=92,112&key=AnTcaqBi2ypp0xI-OZNi4W_ik2KhjgpqioTAtXLC8GzkMBQRMlyxvxyTnd5b73im&c=en-US&ur=in&da=n&logo=n&fmt=png&od=1&shading=hill&pp=29.191856,79.507042;dfp"
  },
  {
    "name": "Dr. Vaibhav Kumar",
    "address": "Rampur Road, Haldwani, Uttarakhand, India, 263139, Haldwani, Madhya Pradesh 263139",
    "phone": "Dr. Vaibhav Kumar",
    "hours": "Open· Closes 18:00",
    "image_url": null
  },
  {
    "name": "Anorectal surgery by ksharsutra",
    "address": "Ashok Vihar Colony Teenpani, Nainital, Uttarakhand 263139",
    "phone": "Anorectal surgery by ksharsutra",
    "hours": "Closed· Opens Sep 29 at 09:00",
    "image_url": null
  },
  {
    "name": "Dr. Amrita Makhija- Obstretician and Gynaecologist",
    "address": "Sanjivani Hospital, Rampur Rd, Opposite Cancer Hospital, Haldwani, Uttarakhand",
    "phone": "Dr. Amrita Makhija- Obstretician and Gynaecologist",
    "hours": null,
    "image_url": "https://www.bing.com/maps/geoplat/REST/v1/Imagery/Map/RoadVibrant?ms=92,112&key=AnTcaqBi2ypp0xI-OZNi4W_ik2KhjgpqioTAtXLC8GzkMBQRMlyxvxyTnd5b73im&c=en-US&ur=in&da=n&logo=n&fmt=png&od=1&shading=hill&pp=29.205248,79.518158;dfp"
  },
  {
    "name": "Dr Brijwasi: Modern Homoeo Clinic",
    "address": "6th Lane, Rampur Rd, Haldwani, Uttarakhand",
    "phone": "Dr Brijwasi: Modern Homoeo Clinic",
    "hours": null,
    "image_url": "https://www.bing.com/maps/geoplat/REST/v1/Imagery/Map/RoadVibrant?ms=92,112&key=AnTcaqBi2ypp0xI-OZNi4W_ik2KhjgpqioTAtXLC8GzkMBQRMlyxvxyTnd5b73im&c=en-US&ur=in&da=n&logo=n&fmt=png&od=1&shading=hill&pp=29.224262,79.525795;dfp"
  },
  {
    "name": "Dr. Bhanu P. S. Pangtey",
    "address": "Durga City Centre, Nainital",
    "phone": "Dr. Bhanu P. S. Pangtey",
    "hours": "Open· Closes 13:00",
    "image_url": "https://www.bing.com/maps/geoplat/REST/v1/Imagery/Map/RoadVibrant?ms=92,112&key=AnTcaqBi2ypp0xI-OZNi4W_ik2KhjgpqioTAtXLC8GzkMBQRMlyxvxyTnd5b73im&c=en-US&ur=in&da=n&logo=n&fmt=png&od=1&shading=hill&pp=29.229572,79.529945;dfp"
  },
  {
    "name": "Star Diagnostic Centre",
    "address": "Star Diagnostic Centre Heera Nagar, Haldwani, Uttarakhand, Uttarakhand 263139",
    "phone": "Star Diagnostic Centre",
    "hours": "Open· Closes 20:00",
    "image_url": null
  },
  {
    "name": "Sarkari Mahila Chikitsalaya",
    "address": "National Highway 87, Rampur, Haldwani, Uttarakhand 263139, India, Haldwani, Uttarakhand 263139",
    "phone": "Sarkari Mahila Chikitsalaya",
    "hours": null,
    "image_url": "https://www.bing.com/maps/geoplat/REST/v1/Imagery/Map/RoadVibrant?ms=92,112&key=AnTcaqBi2ypp0xI-OZNi4W_ik2KhjgpqioTAtXLC8GzkMBQRMlyxvxyTnd5b73im&c=en-US&ur=in&da=n&logo=n&fmt=png&od=1&shading=hill&pp=29.219839,79.529442;dfp"
  },
  {
    "name": "Dr. M.S.Nohra | Paediatrics",
    "address": "Near Ananda Acadamy Dahariya Haldwani, Nainital, Uttarakhand, India, 263139, Nainital, Madhya Pradesh …",
    "phone": "Dr. M.S.Nohra | Paediatrics",
    "hours": "Open· Closes 18:00",
    "image_url": null
  },
  {
    "name": "Eye",
    "address": "8 6 Nainital Road, Haldwani, Uttarakhand 263139",
    "phone": "Eye",
    "hours": null,
    "image_url": "https://www.bing.com/maps/geoplat/REST/v1/Imagery/Map/RoadVibrant?ms=92,112&key=AnTcaqBi2ypp0xI-OZNi4W_ik2KhjgpqioTAtXLC8GzkMBQRMlyxvxyTnd5b73im&c=en-US&ur=in&da=n&logo=n&fmt=png&od=1&shading=hill&pp=29.228962,79.530952;dfp"
  },
  {
    "name": "Citydent Clinic",
    "address": "12/4 Kalyani View, Near Kanchan Tara Hotel, Rudrapur, Uttarakhand, Uttarakhand 263153",
    "phone": "Citydent Clinic",
    "hours": null,
    "image_url": null
  }
]