[
  {
    "name": "Aligarh Poly Clinic",
    "address": "Nala Road, Near Maroof Gunj Masjid, Gaya, Bihar, Bihar 823001",
    "phone": "Aligarh Poly Clinic",
    "hours": null,
    "image_url": "/th?id=OLC.2sX8%2fF0WT00CaQ480x360&w=92&h=112&c=8&rs=1&qlt=80&cdv=1&pid=Local"
  },
  {
    "name": "Dr. Ajay Kumar",
    "address": "Nalanda Market Mangla Asthan Road Biharsharif, Nalanda, Bihar",
    "phone": "Dr. Ajay Kumar",
    "hours": "Open· Closes 13:00",
    "image_url": "https://www.bing.com/maps/geoplat/REST/v1/Imagery/Map/RoadVibrant?ms=92,112&key=AnTcaqBi2ypp0xI-OZNi4W_ik2KhjgpqioTAtXLC8GzkMBQRMlyxvxyTnd5b73im&c=en-US&ur=in&da=n&logo=n&fmt=png&od=1&shading=hill&pp=25.192396,85.506767;dfp"
  },
  {
    "name": "Dr. Vipin Kumar MD DM, VELLORE CARDAIC CLINIC",
    "address": "876H+FVC, Hilsa, Bihar",
    "phone": "Dr. Vipin Kumar MD DM, VELLORE CARDAIC CLINIC",
    "hours": null,
    "image_url": "https://www.bing.com/maps/geoplat/REST/v1/Imagery/Map/RoadVibrant?ms=92,112&key=AnTcaqBi2ypp0xI-OZNi4W_ik2KhjgpqioTAtXLC8GzkMBQRMlyxvxyTnd5b73im&c=en-US&ur=in&da=n&logo=n&fmt=png&od=1&shading=hill&pp=25.219835,85.513748;dfp"
  },
  {
    "name": "Anurag Clinic and Operation Ghar",
    "address": "0, Harnaut, Gonawan Road, Niamatpur, Nalanda, Bihar 803110",
    "phone": "Anurag Clinic and Operation Ghar",
    "hours": null,
    "image_url": "https://www.bing.com/maps/geoplat/REST/v1/Imagery/Map/RoadVibrant?ms=92,112&key=AnTcaqBi2ypp0xI-OZNi4W_ik2KhjgpqioTAtXLC8GzkMBQRMlyxvxyTnd5b73im&c=en-US&ur=in&da=n&logo=n&fmt=png&od=1&shading=hill&pp=25.363523,85.522308;dfp"
  },
  {
    "name": "Moti Jarrah. Clinic.",
    "address": "Jalalpur, Bihar Sharif, Bihar, Bihar 803118",
    "phone": "Moti Jarrah. Clinic.",
    "hours": null,
    "image_url": "/th?id=OLC.ZYp2yNGWwx9BuQ480x360&w=92&h=112&c=8&rs=1&qlt=80&cdv=1&pid=Local"
  },
  {
    "name": "Arogyam clinic-Dr Rupam kumari",
    "address": "Paila Pokhar 200m North From, Hospital More Rd, Kaghzi Mohalla, Bihar Sharif, Bihar",
    "phone": "Arogyam clinic-Dr Rupam kumari",
    "hours": null,
    "image_url": "/th?id=OLC.VypGdBr1YNp0XQ480x360&w=92&h=112&c=8&rs=1&qlt=80&cdv=1&pid=Local"
  },
  {
    "name": "Priyanka Clinic",
    "address": "Hospital Road, Near Gandhi Maidan, Chakia, Bihar, Bihar 845412",
    "phone": "Priyanka Clinic",
    "hours": null,
    "image_url": null
  },
  {
    "name": "Magadh Heart Clinic",
    "address": "Professor Colony, In the Road Opposite SAI Mandir, Gewal Bigha More.. Landmark: Red Cross Society., Ga…",
    "phone": "Magadh Heart Clinic",
    "hours": null,
    "image_url": "https://www.bing.com/maps/geoplat/REST/v1/Imagery/Map/RoadVibrant?ms=92,112&key=AnTcaqBi2ypp0xI-OZNi4W_ik2KhjgpqioTAtXLC8GzkMBQRMlyxvxyTnd5b73im&c=en-US&ur=in&da=n&logo=n&fmt=png&od=1&shading=hill&pp=25.201664,85.521629;dfp"
  },
  {
    "name": "Kumar Homoeo",
    "address": "Kathal Tola, Sohsarai Bihar Sharif, Nalanda Bihar, Sohsarai, Nalanda, Bihar 803118",
    "phone": "Kumar Homoeo",
    "hours": "Open· Closes 13:30",
    "image_url": null
  },
  {
    "name": "Dr Neeraj Kumar Clinic",
    "address": "Sherpur, Bihar Sharif, Bihar 803101",
    "phone": "Dr Neeraj Kumar Clinic",
    "hours": null,
    "image_url": "https://www.bing.com/maps/geoplat/REST/v1/Imagery/Map/RoadVibrant?ms=92,112&key=AnTcaqBi2ypp0xI-OZNi4W_ik2KhjgpqioTAtXLC8GzkMBQRMlyxvxyTnd5b73im&c=en-US&ur=in&da=n&logo=n&fmt=png&od=1&shading=hill&pp=25.199133,85.529076;dfp"
  },
  {
    "name": "Medishala Digital Clinic",
    "address": "Main Market Narhan, Narhan, Bihar",
    "phone": "Medishala Digital Clinic",
    "hours": null,
    "image_url": "https://www.bing.com/maps/geoplat/REST/v1/Imagery/Map/RoadVibrant?ms=92,112&key=AnTcaqBi2ypp0xI-OZNi4W_ik2KhjgpqioTAtXLC8GzkMBQRMlyxvxyTnd5b73im&c=en-US&ur=in&da=n&logo=n&fmt=png&od=1&shading=hill&pp=25.222162,85.514694;dfp"
  },
  {
    "name": "Sanjeevani Ortho Clinic - Dr. Sumit Kumar Singh",
    "address": "Gosala Road, Pakri More, Near Hanuman Mandir, Habibnagar, Bihar, Bihar 841226",
    "phone": "Sanjeevani Ortho Clinic - Dr. Sumit Kumar Singh",
    "hours": null,
    "image_url": null
  },
  {
    "name": "Dr. Ramchandra Prasad Gupta Memorial Trust",
    "address": "Raja Ram Sah College, Raxaul, Bihar, Bihar 845305",
    "phone": "Dr. Ramchandra Prasad Gupta Memorial Trust",
    "hours": null,
    "image_url": null
  },
  {
    "name": "Calcutta Homeo Clinic",
    "address": "Suryawanshi Radhika Complex, Hospital Rd, Near Fatehpur Durga Mandir, Babhnauli, Siwan, Bihar",
    "phone": "Calcutta Homeo Clinic",
    "hours": null,
    "image_url": "https://www.bing.com/maps/geoplat/REST/v1/Imagery/Map/RoadVibrant?ms=92,112&key=AnTcaqBi2ypp0xI-OZNi4W_ik2KhjgpqioTAtXLC8GzkMBQRMlyxvxyTnd5b73im&c=en-US&ur=in&da=n&logo=n&fmt=png&od=1&shading=hill&pp=25.210081,85.517036;dfp"
  },
  {
    "name": "Popular Homoeo clinic",
    "address": "Master Colony, Ramchandrapur, Bihar Sharif, Bihar",
    "phone": "Popular Homoeo clinic",
    "hours": null,
    "image_url": null
  },
  {
    "name": "Dr.ranjan Kumar Thakur",
    "address": "2gwj+482 Jamghat, Munger, Bihar, Bihar 811213",
    "phone": "Dr.ranjan Kumar Thakur",
    "hours": null,
    "image_url": "https://www.bing.com/maps/geoplat/REST/v1/Imagery/Map/RoadVibrant?ms=92,112&key=AnTcaqBi2ypp0xI-OZNi4W_ik2KhjgpqioTAtXLC8GzkMBQRMlyxvxyTnd5b73im&c=en-US&ur=in&da=n&logo=n&fmt=png&od=1&shading=hill&pp=25.201174,85.524307;dfp"
  },
  {
    "name": "Dr Ashwini Ent Hospital",
    "address": "Doctors’ Colony Khandakpar, Bihar Sharif, Bihar, Bihar 803101",
    "phone": "Dr Ashwini Ent Hospital",
    "hours": null,
    "image_url": null
  },
  {
    "name": "Dr. Rushmika's Cornea Clinic",
    "address": "Chandigarh Eye Care, Bhoothnath Road, Opp Shani Mandir, New Patna Colony, Bihar, Bihar 800020",
    "phone": "Dr. Rushmika's Cornea Clinic",
    "hours": null,
    "image_url": "https://www.bing.com/maps/geoplat/REST/v1/Imagery/Map/RoadVibrant?ms=92,112&key=AnTcaqBi2ypp0xI-OZNi4W_ik2KhjgpqioTAtXLC8GzkMBQRMlyxvxyTnd5b73im&c=en-US&ur=in&da=n&logo=n&fmt=png&od=1&shading=hill&pp=25.6,85.116699;dfp"
  }
]