[
  {
    "name": "Dr Arun Ch Deka Clinic",
    "address": "Barma Road, Nalbari, Assam 781335",
    "phone": "Dr Arun Ch Deka Clinic",
    "hours": null,
    "image_url": "https://www.bing.com/maps/geoplat/REST/v1/Imagery/Map/RoadVibrant?ms=92,112&key=AnTcaqBi2ypp0xI-OZNi4W_ik2KhjgpqioTAtXLC8GzkMBQRMlyxvxyTnd5b73im&c=en-US&ur=in&da=n&logo=n&fmt=png&od=1&shading=hill&pp=26.446287,91.436531;dfp"
  },
  {
    "name": "Nalbari Super Speciality Clinic",
    "address": "Bazar Pukhuri, Baruah Road, Nalbari, Assam 781335",
    "phone": "Nalbari Super Speciality Clinic",
    "hours": null,
    "image_url": "https://www.bing.com/maps/geoplat/REST/v1/Imagery/Map/RoadVibrant?ms=92,112&key=AnTcaqBi2ypp0xI-OZNi4W_ik2KhjgpqioTAtXLC8GzkMBQRMlyxvxyTnd5b73im&c=en-US&ur=in&da=n&logo=n&fmt=png&od=1&shading=hill&pp=26.446751,91.441254;dfp"
  },
  {
    "name": "Dr. Ritankur Barkotoky- Interventional Cardiologist",
    "address": "Q Clinic AND Diagnostics Centre, Nalbari Road Bina Baikuntha Annex, Behind Bazar India Hajo, Hajo Rd, N…",
    "phone": "Dr. Ritankur Barkotoky- Interventional Cardiologist",
    "hours": "Closed· Opens Wed 09:00",
    "image_url": "https://www.bing.com/maps/geoplat/REST/v1/Imagery/Map/RoadVibrant?ms=92,134&key=AnTcaqBi2ypp0xI-OZNi4W_ik2KhjgpqioTAtXLC8GzkMBQRMlyxvxyTnd5b73im&c=en-US&ur=in&da=n&logo=n&fmt=png&od=1&shading=hill&pp=26.43935,91.436996;dfp"
  },
  {
    "name": "Dr Imran Hussan Pch",
    "address": "Nalbari Gaon, Nt Road, Nalbari, Assam 781335",
    "phone": "Dr Imran Hussan Pch",
    "hours": null,
    "image_url": "https://www.bing.com/maps/geoplat/REST/v1/Imagery/Map/RoadVibrant?ms=92,112&key=AnTcaqBi2ypp0xI-OZNi4W_ik2KhjgpqioTAtXLC8GzkMBQRMlyxvxyTnd5b73im&c=en-US&ur=in&da=n&logo=n&fmt=png&od=1&shading=hill&pp=26.447193,91.440437;dfp"
  },
  {
    "name": "Bharat Piles Clinic",
    "address": "Hajo Road, Bar Agra, Nalbari, Assam 781335",
    "phone": "Bharat Piles Clinic",
    "hours": null,
    "image_url": "https://www.bing.com/maps/geoplat/REST/v1/Imagery/Map/RoadVibrant?ms=92,112&key=AnTcaqBi2ypp0xI-OZNi4W_ik2KhjgpqioTAtXLC8GzkMBQRMlyxvxyTnd5b73im&c=en-US&ur=in&da=n&logo=n&fmt=png&od=1&shading=hill&pp=26.431673,91.436523;dfp"
  },
  {
    "name": "Atrayee Medicenter and Clinic",
    "address": "Hari Mandhir Chowk Nalbari Gaon, Nt Road, Nalbari, Assam 781335",
    "phone": "Atrayee Medicenter and Clinic",
    "hours": null,
    "image_url": "https://www.bing.com/maps/geoplat/REST/v1/Imagery/Map/RoadVibrant?ms=92,112&key=AnTcaqBi2ypp0xI-OZNi4W_ik2KhjgpqioTAtXLC8GzkMBQRMlyxvxyTnd5b73im&c=en-US&ur=in&da=n&logo=n&fmt=png&od=1&shading=hill&pp=26.448896,91.444099;dfp"
  },
  {
    "name": "Shuddhi Clinic By Guru Manish Ji - Best Ayurveda Doctor & Ayurvedic Treatment",
    "address": "Khatabari, Ward no. 1, Opposite Vishal Mega Mart, Near Petrol Pump, Nalbari, Assam 781335",
    "phone": "Shuddhi Clinic By Guru Manish Ji - Best Ayurveda Doctor & Ayurvedic Treatment",
    "hours": null,
    "image_url": null
  },
  {
    "name": "Dr Rupjyoti Patowary Child Specialist",
    "address": "Shantipur, Hajo Road, Nalbari, Assam 781335",
    "phone": "Dr Rupjyoti Patowary Child Specialist",
    "hours": null,
    "image_url": "https://www.bing.com/maps/geoplat/REST/v1/Imagery/Map/RoadVibrant?ms=92,112&key=AnTcaqBi2ypp0xI-OZNi4W_ik2KhjgpqioTAtXLC8GzkMBQRMlyxvxyTnd5b73im&c=en-US&ur=in&da=n&logo=n&fmt=png&od=1&shading=hill&pp=26.440535,91.437172;dfp"
  },
  {
    "name": "Primary Health Centre",
    "address": "Dakhin Bejera, Sh9 Hajo Nalbari Road, Nalbari, Assam 781334",
    "phone": "Primary Health Centre",
    "hours": null,
    "image_url": "https://www.bing.com/maps/geoplat/REST/v1/Imagery/Map/RoadVibrant?ms=92,112&key=AnTcaqBi2ypp0xI-OZNi4W_ik2KhjgpqioTAtXLC8GzkMBQRMlyxvxyTnd5b73im&c=en-US&ur=in&da=n&logo=n&fmt=png&od=1&shading=hill&pp=26.420687,91.439896;dfp"
  },
  {
    "name": "Apollo Dialysis Clinics",
    "address": "SMK Civil Hospital, Nalbari, Assam 781335",
    "phone": "Apollo Dialysis Clinics",
    "hours": "Open· Closes 21:00",
    "image_url": "https://www.bing.com/maps/geoplat/REST/v1/Imagery/Map/RoadVibrant?ms=92,134&key=AnTcaqBi2ypp0xI-OZNi4W_ik2KhjgpqioTAtXLC8GzkMBQRMlyxvxyTnd5b73im&c=en-US&ur=in&da=n&logo=n&fmt=png&od=1&shading=hill&pp=26.445801,91.4384;dfp"
  },
  {
    "name": "Dr Lal Pathlabs",
    "address": "Hajo Road, Nalbari, Assam-781335, Nalbari, Assam, Assam 781335",
    "phone": "Dr Lal Pathlabs",
    "hours": "Open· Closes 19:30",
    "image_url": "https://www.bing.com/maps/geoplat/REST/v1/Imagery/Map/RoadVibrant?ms=92,134&key=AnTcaqBi2ypp0xI-OZNi4W_ik2KhjgpqioTAtXLC8GzkMBQRMlyxvxyTnd5b73im&c=en-US&ur=in&da=n&logo=n&fmt=png&od=1&shading=hill&pp=26.440165,91.437325;dfp"
  },
  {
    "name": "Dr Anil Talukdar Child Specialist",
    "address": "Islamsupa, Hajo Road, Nalbari, Assam 781335",
    "phone": "Dr Anil Talukdar Child Specialist",
    "hours": null,
    "image_url": "https://www.bing.com/maps/geoplat/REST/v1/Imagery/Map/RoadVibrant?ms=92,112&key=AnTcaqBi2ypp0xI-OZNi4W_ik2KhjgpqioTAtXLC8GzkMBQRMlyxvxyTnd5b73im&c=en-US&ur=in&da=n&logo=n&fmt=png&od=1&shading=hill&pp=26.442577,91.437912;dfp"
  },
  {
    "name": "Dr Sarvepalli Radhakrishnan Academy",
    "address": "Chowk Bazar Shankar Pur Bar Agra, Sh9 Hajo Road, Nalbari, Assam 781334",
    "phone": "Dr Sarvepalli Radhakrishnan Academy",
    "hours": null,
    "image_url": "https://www.bing.com/maps/geoplat/REST/v1/Imagery/Map/RoadVibrant?ms=92,112&key=AnTcaqBi2ypp0xI-OZNi4W_ik2KhjgpqioTAtXLC8GzkMBQRMlyxvxyTnd5b73im&c=en-US&ur=in&da=n&logo=n&fmt=png&od=1&shading=hill&pp=26.432936,91.435852;dfp"
  },
  {
    "name": "Dr Enterprise",
    "address": "Borjhar, Barama Road, Nalbari, Assam 781346",
    "phone": "Dr Enterprise",
    "hours": null,
    "image_url": "https://www.bing.com/maps/geoplat/REST/v1/Imagery/Map/RoadVibrant?ms=92,112&key=AnTcaqBi2ypp0xI-OZNi4W_ik2KhjgpqioTAtXLC8GzkMBQRMlyxvxyTnd5b73im&c=en-US&ur=in&da=n&logo=n&fmt=png&od=1&shading=hill&pp=26.527889,91.387238;dfp"
  }
]