[
  {
    "name": "Dr. Gowri Sree",
    "address": "8-2-77/2/2, Gollagudem, Opp: Government Hospital, Nalgonda, Telangana, Telangana 508001",
    "phone": "Dr. Gowri Sree",
    "hours": null,
    "image_url": "/th?id=OLC.649WEF%2fyuymwcw480x360&w=92&h=112&c=8&rs=1&qlt=80&cdv=1&pid=Local"
  },
  {
    "name": "Sree Sai Siddhartha Speciality Clinic",
    "address": "Panagal Road, Near Nilgiris Degree College, Nalgonda, Telangana 508001",
    "phone": "Sree Sai Siddhartha Speciality Clinic",
    "hours": null,
    "image_url": "/th?id=OLC.yvYuzl6kubTOiQ480x360&w=92&h=112&c=8&rs=1&qlt=80&cdv=1&pid=Local"
  },
  {
    "name": "Dr. Sree Vani Gayathri",
    "address": "Behind Ramalayam, Beside Geeta Vignan School, Nalgonda, Telangana",
    "phone": "Dr. Sree Vani Gayathri",
    "hours": "Open· Closes 19:00",
    "image_url": "/th?id=OLC.MVga2wtrh0rR4A480x360&w=92&h=112&c=8&rs=1&qlt=80&cdv=1&pid=Local"
  },
  {
    "name": "Dr. D Mathru- General-Physician",
    "address": "Padma Devi Clinic, # 6- 3- 124, Vt Talkies Road, Ramagiri, Nalgonda, Telangana 508001",
    "phone": "Dr. D Mathru- General-Physician",
    "hours": "Closed· Opens 11:00",
    "image_url": "https://www.bing.com/maps/geoplat/REST/v1/Imagery/Map/RoadVibrant?ms=92,134&key=AnTcaqBi2ypp0xI-OZNi4W_ik2KhjgpqioTAtXLC8GzkMBQRMlyxvxyTnd5b73im&c=en-US&ur=in&da=n&logo=n&fmt=png&od=1&shading=hill&pp=17.062767,79.266968;dfp"
  },
  {
    "name": "Dr. Br Ambedkar Bhavan",
    "address": "Srinivas Nagar Colony Road, श्रीनिवास कॉलोनी बीटीएस, Telangana 508001",
    "phone": "Dr. Br Ambedkar Bhavan",
    "hours": null,
    "image_url": "https://www.bing.com/maps/geoplat/REST/v1/Imagery/Map/RoadVibrant?ms=92,112&key=AnTcaqBi2ypp0xI-OZNi4W_ik2KhjgpqioTAtXLC8GzkMBQRMlyxvxyTnd5b73im&c=en-US&ur=in&da=n&logo=n&fmt=png&od=1&shading=hill&pp=17.062,79.263702;dfp"
  },
  {
    "name": "Dr. Rajesh Bollam - Oncologist and Hematologist",
    "address": "Manjira Hospitals, Dr.Himavantha Reddy old Homeo Clinic, SBR Garden, Clinic, opp Boyawada, Nalgonda, …",
    "phone": "Dr. Rajesh Bollam - Oncologist and Hematologist",
    "hours": "Open 24 hours",
    "image_url": "/th?id=OLC.XB1YnR8FI8%2b9%2fQ480x360&w=92&h=134&c=8&rs=1&qlt=80&cdv=1&pid=Local"
  },
  {
    "name": "Manjula Clinic",
    "address": "Padmavathi Road, Near Government Hospital, Nalgonda, Telangana 508001",
    "phone": "Manjula Clinic",
    "hours": null,
    "image_url": "https://www.bing.com/maps/geoplat/REST/v1/Imagery/Map/RoadVibrant?ms=92,112&key=AnTcaqBi2ypp0xI-OZNi4W_ik2KhjgpqioTAtXLC8GzkMBQRMlyxvxyTnd5b73im&c=en-US&ur=in&da=n&logo=n&fmt=png&od=1&shading=hill&pp=17.05707,79.276054;dfp"
  },
  {
    "name": "Dr. Shravan's Diabetes Specialities",
    "address": "bus Stand, Road, Beside Ravi Sweets, B K Bazar Colony, Nizampet, Khammam, Telangana",
    "phone": "Dr. Shravan's Diabetes Specialities",
    "hours": null,
    "image_url": "https://www.bing.com/maps/geoplat/REST/v1/Imagery/Map/RoadVibrant?ms=92,112&key=AnTcaqBi2ypp0xI-OZNi4W_ik2KhjgpqioTAtXLC8GzkMBQRMlyxvxyTnd5b73im&c=en-US&ur=in&da=n&logo=n&fmt=png&od=1&shading=hill&pp=17.05368,79.276024;dfp"
  },
  {
    "name": "Dr. Varun Reddy Gundluru - Neurologist",
    "address": "Sri Sai Raksha Multispeciality Hospital, Nalgonda, Telangana 508001",
    "phone": "Dr. Varun Reddy Gundluru - Neurologist",
    "hours": "Open· Closes 17:00",
    "image_url": null
  },
  {
    "name": "Dr. Vijay Kumar Konakanchi- Orthopedist In Nalgonda",
    "address": "Leelavathi Hospital, RTC Colony, Golla Guda Rural, Telangana",
    "phone": "Dr. Vijay Kumar Konakanchi- Orthopedist In Nalgonda",
    "hours": null,
    "image_url": "https://www.bing.com/maps/geoplat/REST/v1/Imagery/Map/RoadVibrant?ms=92,112&key=AnTcaqBi2ypp0xI-OZNi4W_ik2KhjgpqioTAtXLC8GzkMBQRMlyxvxyTnd5b73im&c=en-US&ur=in&da=n&logo=n&fmt=png&od=1&shading=hill&pp=17.05843,79.279907;dfp"
  },
  {
    "name": "Dr. Md. Suhaib Mudabbir- Rheumatologist",
    "address": "Dr. Mudabbir's Clinic, Uroob St, New Prakasham Bazar, Bottu Guda, Nalgonda, Telangana 508001",
    "phone": "Dr. Md. Suhaib Mudabbir- Rheumatologist",
    "hours": "Open· Closes 14:30",
    "image_url": "https://www.bing.com/maps/geoplat/REST/v1/Imagery/Map/RoadVibrant?ms=92,134&key=AnTcaqBi2ypp0xI-OZNi4W_ik2KhjgpqioTAtXLC8GzkMBQRMlyxvxyTnd5b73im&c=en-US&ur=in&da=n&logo=n&fmt=png&od=1&shading=hill&pp=17.051193,79.267303;dfp"
  },
  {
    "name": "Dr. Daivadheenam jella | Paediatrician | Sanjeevini Children's Hospital",
    "address": "Sanjeevini Children's Hospital, Golla Guda Rural, Telangana, India, 508001, Golla Guda Rural, Madhya P…",
    "phone": "Dr. Daivadheenam jella | Paediatrician | Sanjeevini Children's Hospital",
    "hours": "Open· Closes 20:00",
    "image_url": null
  },
  {
    "name": "Dr. Ch Vijay Bhasker Reddy",
    "address": "Shivaji Nagar, opp. TTD Kalyana Mandapam, Nalgonda, Telangana",
    "phone": "Dr. Ch Vijay Bhasker Reddy",
    "hours": null,
    "image_url": null
  },
  {
    "name": "Sri Rama Clinic",
    "address": "8/2/65, Nalgonda Main Road, Nalgonda, Telangana 508001",
    "phone": "Sri Rama Clinic",
    "hours": null,
    "image_url": "https://www.bing.com/maps/geoplat/REST/v1/Imagery/Map/RoadVibrant?ms=92,112&key=AnTcaqBi2ypp0xI-OZNi4W_ik2KhjgpqioTAtXLC8GzkMBQRMlyxvxyTnd5b73im&c=en-US&ur=in&da=n&logo=n&fmt=png&od=1&shading=hill&pp=17.044828,79.266579;dfp"
  },
  {
    "name": "Dr Agarwals Eye Clinic",
    "address": "Door No 6/6/664, Hyderabad Road, Vivekananda Nagar, Opposite Apna Bazaar, Nalgonda, Telangana 508001",
    "phone": "Dr Agarwals Eye Clinic",
    "hours": "Open· Closes 21:00",
    "image_url": "https://www.bing.com/maps/geoplat/REST/v1/Imagery/Map/RoadVibrant?ms=92,134&key=AnTcaqBi2ypp0xI-OZNi4W_ik2KhjgpqioTAtXLC8GzkMBQRMlyxvxyTnd5b73im&c=en-US&ur=in&da=n&logo=n&fmt=png&od=1&shading=hill&pp=17.067657,79.264854;dfp"
  },
  {
    "name": "Vijaya Diagnostic Centre",
    "address": "Nalgonda, Telangana 508001",
    "phone": "Vijaya Diagnostic Centre",
    "hours": "Open· Closes 20:30",
    "image_url": null
  }
]