[
  {
    "name": "Dr. D. Kannan",
    "address": "5, Sri Ram Hospital Tiruchengode Road, Namakkal, Tamil Nadu",
    "phone": "Dr. D. Kannan",
    "hours": "Closed· Opens 17:30",
    "image_url": "/th?id=OLC.jmlmPbTfQSJtdg480x360&w=92&h=112&c=8&rs=1&qlt=80&cdv=1&pid=Local"
  },
  {
    "name": "Dr. Saravana Rajamanickam",
    "address": "54 Dr Sankaran Road, Namakkal, Tamil Nadu 637001",
    "phone": "Dr. Saravana Rajamanickam",
    "hours": "Closed· Opens 15:00",
    "image_url": "/th?id=OLC.86HW0Y5C0HjNMg480x360&w=92&h=134&c=8&rs=1&qlt=80&cdv=1&pid=Local"
  },
  {
    "name": "MM Hospital Namakkal",
    "address": "6/288, Trichy Main Rd, Andavar Nagar, Namakkal, Tamil Nadu 637001, India, Namakkal, Tamil Nadu 637001",
    "phone": "MM Hospital Namakkal",
    "hours": null,
    "image_url": "/th?id=OLC.k2Ed1JkYrIv8yw480x360&w=92&h=112&c=8&rs=1&qlt=80&cdv=1&pid=Local"
  },
  {
    "name": "Dr. Natarajan | Doctor",
    "address": "9 Sellandi Amman Koil Street, Namakkal, Tamil Nadu, India, 637001, Namakkal, Madhya Pradesh 637001",
    "phone": "Dr. Natarajan | Doctor",
    "hours": "Open· Closes 18:00",
    "image_url": "/th?id=OLC.bmuGsakriHolsA480x360&w=92&h=134&c=8&rs=1&qlt=80&cdv=1&pid=Local"
  },
  {
    "name": "Shri Ram Hospital",
    "address": "5, Tiruchengode - Namakkal - Trichy Rd, S P Pudur, Thillaipuram, Namakkal, Tamil Nadu",
    "phone": "Shri Ram Hospital",
    "hours": null,
    "image_url": "/th?id=OLC.uJ9xmVmPmKQsAA480x360&w=92&h=112&c=8&rs=1&qlt=80&cdv=1&pid=Local"
  },
  {
    "name": "Dr. Kannan R | Vasantham Clinic",
    "address": "Oppo. Balamurugan Driving School, Paramathi Rd, S P Pudur, Thillaipuram, Namakkal, Madhya Pradesh 637001",
    "phone": "Dr. Kannan R | Vasantham Clinic",
    "hours": "Closed· Opens 17:00",
    "image_url": "/th?id=OLC.YYtVgYHxp9p5mw480x360&w=92&h=134&c=8&rs=1&qlt=80&cdv=1&pid=Local"
  },
  {
    "name": "Kumaran Polyclinic",
    "address": "71 A, Namakkal, Tamil Nadu 637001",
    "phone": "Kumaran Polyclinic",
    "hours": null,
    "image_url": null
  },
  {
    "name": "Bismilla Dr. E.b.dasthagir Memorial Hospital",
    "address": "1-174, Salem Main Rd, Elavanasur, Tamil Nadu 607202, India, Ulundurpet, Tamil Nadu 607202",
    "phone": "Bismilla Dr. E.b.dasthagir Memorial Hospital",
    "hours": null,
    "image_url": "https://www.bing.com/maps/geoplat/REST/v1/Imagery/Map/RoadVibrant?ms=92,112&key=AnTcaqBi2ypp0xI-OZNi4W_ik2KhjgpqioTAtXLC8GzkMBQRMlyxvxyTnd5b73im&c=en-US&ur=in&da=n&logo=n&fmt=png&od=1&shading=hill&pp=11.225319,78.164352;dfp"
  },
  {
    "name": "Sriram Clinic",
    "address": "3/404, Mohanur Main Rd, Valayapatti, Namakkal, Tamil Nadu",
    "phone": "Sriram Clinic",
    "hours": null,
    "image_url": "https://www.bing.com/maps/geoplat/REST/v1/Imagery/Map/RoadVibrant?ms=92,112&key=AnTcaqBi2ypp0xI-OZNi4W_ik2KhjgpqioTAtXLC8GzkMBQRMlyxvxyTnd5b73im&c=en-US&ur=in&da=n&logo=n&fmt=png&od=1&shading=hill&pp=11.21364,78.167976;dfp"
  },
  {
    "name": "Suham Clinic",
    "address": "91/A1 Suham Clinic, KS Complex, Namakkal, Tamil Nadu 637001",
    "phone": "Suham Clinic",
    "hours": null,
    "image_url": "https://www.bing.com/maps/geoplat/REST/v1/Imagery/Map/RoadVibrant?ms=92,112&key=AnTcaqBi2ypp0xI-OZNi4W_ik2KhjgpqioTAtXLC8GzkMBQRMlyxvxyTnd5b73im&c=en-US&ur=in&da=n&logo=n&fmt=png&od=1&shading=hill&pp=11.213378,78.17334;dfp"
  },
  {
    "name": "All India DR.Ambedkar Trust",
    "address": "94 Dr Ambethkar Nagar New Colony Erumapatty (Po), Namakkal, Tamil Nadu 637013",
    "phone": "All India DR.Ambedkar Trust",
    "hours": null,
    "image_url": "https://www.bing.com/maps/geoplat/REST/v1/Imagery/Map/RoadVibrant?ms=92,112&key=AnTcaqBi2ypp0xI-OZNi4W_ik2KhjgpqioTAtXLC8GzkMBQRMlyxvxyTnd5b73im&c=en-US&ur=in&da=n&logo=n&fmt=png&od=1&shading=hill&pp=11.212745,78.173515;dfp"
  },
  {
    "name": "Vishnu Ayurveda Clinic",
    "address": "Jothi Plaza, Kottai, Sh 161, Namakkal, Tamil Nadu 637001, India, Namakkal, Tamil Nadu 637001",
    "phone": "Vishnu Ayurveda Clinic",
    "hours": null,
    "image_url": "https://www.bing.com/maps/geoplat/REST/v1/Imagery/Map/RoadVibrant?ms=92,112&key=AnTcaqBi2ypp0xI-OZNi4W_ik2KhjgpqioTAtXLC8GzkMBQRMlyxvxyTnd5b73im&c=en-US&ur=in&da=n&logo=n&fmt=png&od=1&shading=hill&pp=11.220296,78.16317;dfp"
  },
  {
    "name": "Dr Shanmugam ENT Clinic",
    "address": "Natarajapuram, Kamaraj Nagar, Namakkal, Tamil Nadu 637001, India, Namakkal, Tamil Nadu 637001",
    "phone": "Dr Shanmugam ENT Clinic",
    "hours": null,
    "image_url": "https://www.bing.com/maps/geoplat/REST/v1/Imagery/Map/RoadVibrant?ms=92,112&key=AnTcaqBi2ypp0xI-OZNi4W_ik2KhjgpqioTAtXLC8GzkMBQRMlyxvxyTnd5b73im&c=en-US&ur=in&da=n&logo=n&fmt=png&od=1&shading=hill&pp=11.221903,78.158928;dfp"
  },
  {
    "name": "DR.R.Premnath's Ent Clinic",
    "address": "New No:43, Old No:42, Lakshmikantham, Pettai Road, Begampur, Dindigul, Tamil Nadu 624002",
    "phone": "DR.R.Premnath's Ent Clinic",
    "hours": null,
    "image_url": "https://www.bing.com/maps/geoplat/REST/v1/Imagery/Map/RoadVibrant?ms=92,112&key=AnTcaqBi2ypp0xI-OZNi4W_ik2KhjgpqioTAtXLC8GzkMBQRMlyxvxyTnd5b73im&c=en-US&ur=in&da=n&logo=n&fmt=png&od=1&shading=hill&pp=11.22451,78.162529;dfp"
  },
  {
    "name": "Dr Agarwals Eye Hospital",
    "address": "No 138/3, Gr Flr, LMR Shopping Arcade, Salem Main Road, Opposite MGM Theatre, Namakkal, Tamil Nadu …",
    "phone": "Dr Agarwals Eye Hospital",
    "hours": "Open· Closes 20:00",
    "image_url": "https://www.bing.com/maps/geoplat/REST/v1/Imagery/Map/RoadVibrant?ms=92,134&key=AnTcaqBi2ypp0xI-OZNi4W_ik2KhjgpqioTAtXLC8GzkMBQRMlyxvxyTnd5b73im&c=en-US&ur=in&da=n&logo=n&fmt=png&od=1&shading=hill&pp=11.228306,78.164665;dfp"
  },
  {
    "name": "Panchamukhi Ayurvedic and Naturecure Hospital India",
    "address": "S.f.no. 29/2a2a, Om Guruvanam, Varagur, Namakkal, Tamil Nadu 637021",
    "phone": "Panchamukhi Ayurvedic and Naturecure Hospital India",
    "hours": null,
    "image_url": "https://www.bing.com/maps/geoplat/REST/v1/Imagery/Map/RoadVibrant?ms=92,112&key=AnTcaqBi2ypp0xI-OZNi4W_ik2KhjgpqioTAtXLC8GzkMBQRMlyxvxyTnd5b73im&c=en-US&ur=in&da=n&logo=n&fmt=png&od=1&shading=hill&pp=11.217957,78.162369;dfp"
  },
  {
    "name": "Aburvaa Multi Special Herbal Clinic",
    "address": "543D/5, Andavar Nagar Trichy Road, Namakkal, Tamil Nadu 637001",
    "phone": "Aburvaa Multi Special Herbal Clinic",
    "hours": null,
    "image_url": null
  },
  {
    "name": "Jaya Skin Clinic",
    "address": "K R Street, Saraswati Devi Temple, R P Pudu Namakkal, Namakkal, Tamil Nadu 637001",
    "phone": "Jaya Skin Clinic",
    "hours": null,
    "image_url": "https://www.bing.com/maps/geoplat/REST/v1/Imagery/Map/RoadVibrant?ms=92,112&key=AnTcaqBi2ypp0xI-OZNi4W_ik2KhjgpqioTAtXLC8GzkMBQRMlyxvxyTnd5b73im&c=en-US&ur=in&da=n&logo=n&fmt=png&od=1&shading=hill&pp=11.224611,78.166595;dfp"
  }
]