[
  {
    "name": "Dr. Niranjan Vasant Patel- General Physician",
    "address": "Gayatri Ayurvedic Clinic, Nalwa Road, Yogeshwar Colony, Nandurbar, Maharashtra 425412",
    "phone": "Dr. Niranjan Vasant Patel- General Physician",
    "hours": "Open· Closes 13:00",
    "image_url": "https://www.bing.com/maps/geoplat/REST/v1/Imagery/Map/RoadVibrant?ms=92,134&key=AnTcaqBi2ypp0xI-OZNi4W_ik2KhjgpqioTAtXLC8GzkMBQRMlyxvxyTnd5b73im&c=en-US&ur=in&da=n&logo=n&fmt=png&od=1&shading=hill&pp=21.376923,74.234535;dfp"
  },
  {
    "name": "Dr Pramod Bhide",
    "address": "Lakshmi Chowk, Ganesh Smruti, Maharashtra",
    "phone": "Dr Pramod Bhide",
    "hours": null,
    "image_url": "https://www.bing.com/maps/geoplat/REST/v1/Imagery/Map/RoadVibrant?ms=92,112&key=AnTcaqBi2ypp0xI-OZNi4W_ik2KhjgpqioTAtXLC8GzkMBQRMlyxvxyTnd5b73im&c=en-US&ur=in&da=n&logo=n&fmt=png&od=1&shading=hill&pp=21.36701,74.24408;dfp"
  },
  {
    "name": "MANAV Clinic",
    "address": "1 Rukmini Complex Nizer Road Taloda Road Sindhi Colony, Opp Rikshaw Stop Near Puja Medical, Nandur…",
    "phone": "MANAV Clinic",
    "hours": null,
    "image_url": "https://www.bing.com/maps/geoplat/REST/v1/Imagery/Map/RoadVibrant?ms=92,112&key=AnTcaqBi2ypp0xI-OZNi4W_ik2KhjgpqioTAtXLC8GzkMBQRMlyxvxyTnd5b73im&c=en-US&ur=in&da=n&logo=n&fmt=png&od=1&shading=hill&pp=21.387632,74.238098;dfp"
  },
  {
    "name": "Anamay Homoeopathic clinic",
    "address": "24/3 Swami Samartha Society, Ganpati Temple Road, Khote Nagar Stop, Maharashtra",
    "phone": "Anamay Homoeopathic clinic",
    "hours": null,
    "image_url": "https://www.bing.com/maps/geoplat/REST/v1/Imagery/Map/RoadVibrant?ms=92,112&key=AnTcaqBi2ypp0xI-OZNi4W_ik2KhjgpqioTAtXLC8GzkMBQRMlyxvxyTnd5b73im&c=en-US&ur=in&da=n&logo=n&fmt=png&od=1&shading=hill&pp=21.376118,74.245613;dfp"
  },
  {
    "name": "Dr Bhushan Agarwal Clinic",
    "address": "Shivaji Road, Nandurbar, Maharashtra 425412",
    "phone": "Dr Bhushan Agarwal Clinic",
    "hours": null,
    "image_url": "https://www.bing.com/maps/geoplat/REST/v1/Imagery/Map/RoadVibrant?ms=92,112&key=AnTcaqBi2ypp0xI-OZNi4W_ik2KhjgpqioTAtXLC8GzkMBQRMlyxvxyTnd5b73im&c=en-US&ur=in&da=n&logo=n&fmt=png&od=1&shading=hill&pp=21.365225,74.240318;dfp"
  },
  {
    "name": "Dr Upendra Shah Clinic",
    "address": "Girivihar Colony, Nandurbar, Maharashtra 425412",
    "phone": "Dr Upendra Shah Clinic",
    "hours": null,
    "image_url": "https://www.bing.com/maps/geoplat/REST/v1/Imagery/Map/RoadVibrant?ms=92,112&key=AnTcaqBi2ypp0xI-OZNi4W_ik2KhjgpqioTAtXLC8GzkMBQRMlyxvxyTnd5b73im&c=en-US&ur=in&da=n&logo=n&fmt=png&od=1&shading=hill&pp=21.365719,74.242531;dfp"
  },
  {
    "name": "Dr. Sunil Patil",
    "address": "Dhule Road, Nandurbar, Maharashtra 425412",
    "phone": "Dr. Sunil Patil",
    "hours": null,
    "image_url": "https://www.bing.com/maps/geoplat/REST/v1/Imagery/Map/RoadVibrant?ms=92,112&key=AnTcaqBi2ypp0xI-OZNi4W_ik2KhjgpqioTAtXLC8GzkMBQRMlyxvxyTnd5b73im&c=en-US&ur=in&da=n&logo=n&fmt=png&od=1&shading=hill&pp=21.3638,74.242683;dfp"
  },
  {
    "name": "Dr Babasaheb Ambedkar Granthalaya",
    "address": "Balveer Chowk, Nava Bhoiwada, Nandurbar, Maharashtra 425412",
    "phone": "Dr Babasaheb Ambedkar Granthalaya",
    "hours": null,
    "image_url": "https://www.bing.com/maps/geoplat/REST/v1/Imagery/Map/RoadVibrant?ms=92,112&key=AnTcaqBi2ypp0xI-OZNi4W_ik2KhjgpqioTAtXLC8GzkMBQRMlyxvxyTnd5b73im&c=en-US&ur=in&da=n&logo=n&fmt=png&od=1&shading=hill&pp=21.36264,74.241096;dfp"
  },
  {
    "name": "Nisar Clinic",
    "address": "Najim Khan Pathan Marg, Balaji Temple, Ali Saheb Mohalla, Nandurbar, Maharashtra 425412",
    "phone": "Nisar Clinic",
    "hours": null,
    "image_url": "https://www.bing.com/maps/geoplat/REST/v1/Imagery/Map/RoadVibrant?ms=92,112&key=AnTcaqBi2ypp0xI-OZNi4W_ik2KhjgpqioTAtXLC8GzkMBQRMlyxvxyTnd5b73im&c=en-US&ur=in&da=n&logo=n&fmt=png&od=1&shading=hill&pp=21.366833,74.239044;dfp"
  },
  {
    "name": "Dr. 9689558818 | Gynecologist | Nawaj Saha",
    "address": "Nawaj Saha, Nandurbar, Maharashtra, India, 425412, Nandurbar, Madhya Pradesh 425412",
    "phone": "Dr. 9689558818 | Gynecologist | Nawaj Saha",
    "hours": "Closed· Opens tomorrow 09:00",
    "image_url": null
  },
  {
    "name": "Yasho Jyoti Clinic",
    "address": "Nandurbar Taloda Road, Shree Mahalaxmi Temple, Lakshminagar, Nandurbar, Maharashtra 425412",
    "phone": "Yasho Jyoti Clinic",
    "hours": null,
    "image_url": "https://www.bing.com/maps/geoplat/REST/v1/Imagery/Map/RoadVibrant?ms=92,112&key=AnTcaqBi2ypp0xI-OZNi4W_ik2KhjgpqioTAtXLC8GzkMBQRMlyxvxyTnd5b73im&c=en-US&ur=in&da=n&logo=n&fmt=png&od=1&shading=hill&pp=21.373129,74.24057;dfp"
  },
  {
    "name": "Dr Shanon T.B Clinic",
    "address": "Korit Road, Nandurbar, Maharashtra 425412",
    "phone": "Dr Shanon T.B Clinic",
    "hours": null,
    "image_url": "https://www.bing.com/maps/geoplat/REST/v1/Imagery/Map/RoadVibrant?ms=92,112&key=AnTcaqBi2ypp0xI-OZNi4W_ik2KhjgpqioTAtXLC8GzkMBQRMlyxvxyTnd5b73im&c=en-US&ur=in&da=n&logo=n&fmt=png&od=1&shading=hill&pp=21.388323,74.25518;dfp"
  },
  {
    "name": "Dr. Suryakant.J.Patil",
    "address": "44, Bhaskar Bapu Colony, Shahada Road, Near Karavand Naka, Shirpur, Dhule, Maharashtra",
    "phone": "Dr. Suryakant.J.Patil",
    "hours": "Open· Closes 13:00",
    "image_url": null
  },
  {
    "name": "Dr Snehal Panjarale's Diet n Fitness clinic",
    "address": "Shivaji Colony, Nandurbar, Maharashtra",
    "phone": "Dr Snehal Panjarale's Diet n Fitness clinic",
    "hours": null,
    "image_url": null
  },
  {
    "name": "Sakhiya Skin Clinic",
    "address": "1st Floor, Building Durga, New Amdar Karyalay, Pardeshi Pura, Viral Vihar, Nandurbar, Maharashtra 425412",
    "phone": "Sakhiya Skin Clinic",
    "hours": null,
    "image_url": "https://www.bing.com/maps/geoplat/REST/v1/Imagery/Map/RoadVibrant?ms=92,112&key=AnTcaqBi2ypp0xI-OZNi4W_ik2KhjgpqioTAtXLC8GzkMBQRMlyxvxyTnd5b73im&c=en-US&ur=in&da=n&logo=n&fmt=png&od=1&shading=hill&pp=21.38023,74.240829;dfp"
  }
]