[
  {
    "name": "Dr Pdshukla Dobhi Dist Narsinghpur",
    "address": "Tendukheda Dobhi Barman Road Dobhi, Narsimhapur, Madhya Pradesh 487334",
    "phone": "Dr Pdshukla Dobhi Dist Narsinghpur",
    "hours": "Open· Closes 13:00",
    "image_url": "https://www.bing.com/maps/geoplat/REST/v1/Imagery/Map/RoadVibrant?ms=92,134&key=AnTcaqBi2ypp0xI-OZNi4W_ik2KhjgpqioTAtXLC8GzkMBQRMlyxvxyTnd5b73im&c=en-US&ur=in&da=n&logo=n&fmt=png&od=1&shading=hill&pp=23.113878,78.928825;dfp"
  },
  {
    "name": "Paradkar Hospital",
    "address": "63, Kheri Naka, Kareli Road, Narsimhapur, Madhya Pradesh 487001",
    "phone": "Paradkar Hospital",
    "hours": null,
    "image_url": "/th?id=OLC.JwUlZGoQqr5gIQ480x360&w=92&h=112&c=8&rs=1&qlt=80&cdv=1&pid=Local"
  },
  {
    "name": "Dr. Shyam Inwati- General physician",
    "address": "Dhanwantari Clinic Near Govt Hospital, Narsinghpur Road Amarwara, Chhindwara, Madhya Pradesh 480221",
    "phone": "Dr. Shyam Inwati- General physician",
    "hours": "Closed· Opens 12:00",
    "image_url": "https://www.bing.com/maps/geoplat/REST/v1/Imagery/Map/RoadVibrant?ms=92,134&key=AnTcaqBi2ypp0xI-OZNi4W_ik2KhjgpqioTAtXLC8GzkMBQRMlyxvxyTnd5b73im&c=en-US&ur=in&da=n&logo=n&fmt=png&od=1&shading=hill&pp=22.436987,79.172234;dfp"
  },
  {
    "name": "Dr Abishek Clinic",
    "address": "Chichli Road, Narsimhapur, Madhya Pradesh 487770",
    "phone": "Dr Abishek Clinic",
    "hours": null,
    "image_url": "https://www.bing.com/maps/geoplat/REST/v1/Imagery/Map/RoadVibrant?ms=92,112&key=AnTcaqBi2ypp0xI-OZNi4W_ik2KhjgpqioTAtXLC8GzkMBQRMlyxvxyTnd5b73im&c=en-US&ur=in&da=n&logo=n&fmt=png&od=1&shading=hill&pp=22.950695,79.184517;dfp"
  },
  {
    "name": "Jan Swasthya Clinic",
    "address": "Anand Showroom, Doctor's Colony, Narsimhapur, Madhya Pradesh 487001",
    "phone": "Jan Swasthya Clinic",
    "hours": null,
    "image_url": "https://www.bing.com/maps/geoplat/REST/v1/Imagery/Map/RoadVibrant?ms=92,112&key=AnTcaqBi2ypp0xI-OZNi4W_ik2KhjgpqioTAtXLC8GzkMBQRMlyxvxyTnd5b73im&c=en-US&ur=in&da=n&logo=n&fmt=png&od=1&shading=hill&pp=22.949781,79.189209;dfp"
  },
  {
    "name": "Primary Health Centre",
    "address": "Mungwani, Nh26 North South Corridor, Narsimhapur, Madhya Pradesh 487001",
    "phone": "Primary Health Centre",
    "hours": null,
    "image_url": "https://www.bing.com/maps/geoplat/REST/v1/Imagery/Map/RoadVibrant?ms=92,112&key=AnTcaqBi2ypp0xI-OZNi4W_ik2KhjgpqioTAtXLC8GzkMBQRMlyxvxyTnd5b73im&c=en-US&ur=in&da=n&logo=n&fmt=png&od=1&shading=hill&pp=22.818401,79.417404;dfp"
  },
  {
    "name": "Sai Poly Clinic",
    "address": "Village Danghidhana, Post\\ Bachai, Danghidhana, Bachai, Khurpa Road, Narsinghpur, Madhya Pradesh 4…",
    "phone": "Sai Poly Clinic",
    "hours": null,
    "image_url": "https://www.bing.com/maps/geoplat/REST/v1/Imagery/Map/RoadVibrant?ms=92,112&key=AnTcaqBi2ypp0xI-OZNi4W_ik2KhjgpqioTAtXLC8GzkMBQRMlyxvxyTnd5b73im&c=en-US&ur=in&da=n&logo=n&fmt=png&od=1&shading=hill&pp=22.788935,79.240463;dfp"
  },
  {
    "name": "Dr.Sarika Gupta",
    "address": "Indraprastha Apollo Hospitals, Delhi 110076",
    "phone": "Dr.Sarika Gupta",
    "hours": "Closed· Opens 16:00",
    "image_url": null
  },
  {
    "name": "Dr. Jyoti Puware- Obstetrics & Gynecology",
    "address": "Community Health Centre, Gadarwara, Narsinghpur, Madhya Pradesh 487551",
    "phone": "Dr. Jyoti Puware- Obstetrics & Gynecology",
    "hours": "Open· Closes 17:00",
    "image_url": "https://www.bing.com/maps/geoplat/REST/v1/Imagery/Map/RoadVibrant?ms=92,134&key=AnTcaqBi2ypp0xI-OZNi4W_ik2KhjgpqioTAtXLC8GzkMBQRMlyxvxyTnd5b73im&c=en-US&ur=in&da=n&logo=n&fmt=png&od=1&shading=hill&pp=22.913,78.764915;dfp"
  },
  {
    "name": "Dr Panday TeleClinic Udaipura",
    "address": "Maruti Polyclinic, JJ Rd, Near Kanha City, Udaipura, Madhya Pradesh",
    "phone": "Dr Panday TeleClinic Udaipura",
    "hours": null,
    "image_url": "https://www.bing.com/maps/geoplat/REST/v1/Imagery/Map/RoadVibrant?ms=92,112&key=AnTcaqBi2ypp0xI-OZNi4W_ik2KhjgpqioTAtXLC8GzkMBQRMlyxvxyTnd5b73im&c=en-US&ur=in&da=n&logo=n&fmt=png&od=1&shading=hill&pp=23.07036,78.508682;dfp"
  },
  {
    "name": "Dr. Kasturi Uikey- Obstetrician & Gynaecologist",
    "address": "Uikey Nursing Home, Palotanhanj, Bhabha Ward, Gadarwara Dist, Narsinghpur, Madhya Pradesh 487551",
    "phone": "Dr. Kasturi Uikey- Obstetrician & Gynaecologist",
    "hours": "Closed· Opens 12:00",
    "image_url": "https://www.bing.com/maps/geoplat/REST/v1/Imagery/Map/RoadVibrant?ms=92,134&key=AnTcaqBi2ypp0xI-OZNi4W_ik2KhjgpqioTAtXLC8GzkMBQRMlyxvxyTnd5b73im&c=en-US&ur=in&da=n&logo=n&fmt=png&od=1&shading=hill&pp=22.917973,78.780563;dfp"
  },
  {
    "name": "Dr Aravind Jain Clinic",
    "address": "Hoshangabad Kard Road, Gadarwara, Madhya Pradesh 487551",
    "phone": "Dr Aravind Jain Clinic",
    "hours": null,
    "image_url": "https://www.bing.com/maps/geoplat/REST/v1/Imagery/Map/RoadVibrant?ms=92,112&key=AnTcaqBi2ypp0xI-OZNi4W_ik2KhjgpqioTAtXLC8GzkMBQRMlyxvxyTnd5b73im&c=en-US&ur=in&da=n&logo=n&fmt=png&od=1&shading=hill&pp=22.92326,78.782997;dfp"
  },
  {
    "name": "Dr Lal PathLabs",
    "address": "Opp Central Bank, Narsinghpur, Madhya Pradesh, Pin Code No : 487001, Opp Central Bank, Madhya Pradesh",
    "phone": "Dr Lal PathLabs",
    "hours": "Open· Closes 19:30",
    "image_url": "https://www.bing.com/maps/geoplat/REST/v1/Imagery/Map/RoadVibrant?ms=92,134&key=AnTcaqBi2ypp0xI-OZNi4W_ik2KhjgpqioTAtXLC8GzkMBQRMlyxvxyTnd5b73im&c=en-US&ur=in&da=n&logo=n&fmt=png&od=1&shading=hill&pp=22.950001,79.199997;dfp"
  },
  {
    "name": "Dr Rupali's Skin Solutions",
    "address": "Hotel Amar Residency, Kareli, Madhya Pradesh 487221",
    "phone": "Dr Rupali's Skin Solutions",
    "hours": null,
    "image_url": "https://www.bing.com/maps/geoplat/REST/v1/Imagery/Map/RoadVibrant?ms=92,112&key=AnTcaqBi2ypp0xI-OZNi4W_ik2KhjgpqioTAtXLC8GzkMBQRMlyxvxyTnd5b73im&c=en-US&ur=in&da=n&logo=n&fmt=png&od=1&shading=hill&pp=22.93174,79.061569;dfp"
  },
  {
    "name": "Prathap Clinic",
    "address": "Tendukheda Main Road, Tendukheda, Gadarwara, Madhya Pradesh 487337",
    "phone": "Prathap Clinic",
    "hours": null,
    "image_url": "https://www.bing.com/maps/geoplat/REST/v1/Imagery/Map/RoadVibrant?ms=92,112&key=AnTcaqBi2ypp0xI-OZNi4W_ik2KhjgpqioTAtXLC8GzkMBQRMlyxvxyTnd5b73im&c=en-US&ur=in&da=n&logo=n&fmt=png&od=1&shading=hill&pp=23.173054,78.870255;dfp"
  },
  {
    "name": "J K Pharma Clinic",
    "address": "Gotegaon, Sh22, Gotegaon, Madhya Pradesh 487118",
    "phone": "J K Pharma Clinic",
    "hours": null,
    "image_url": "https://www.bing.com/maps/geoplat/REST/v1/Imagery/Map/RoadVibrant?ms=92,112&key=AnTcaqBi2ypp0xI-OZNi4W_ik2KhjgpqioTAtXLC8GzkMBQRMlyxvxyTnd5b73im&c=en-US&ur=in&da=n&logo=n&fmt=png&od=1&shading=hill&pp=23.044802,79.486099;dfp"
  },
  {
    "name": "Matra chhaya Homoeopathy Clinic and PharmacyDr. Lokesh Khairwar",
    "address": "Near Community Hall Chowk, Dhanvantari Nagar, Jabalpur, Madhya Pradesh",
    "phone": "Matra chhaya Homoeopathy Clinic and PharmacyDr. Lokesh Khairwar",
    "hours": null,
    "image_url": "https://www.bing.com/maps/geoplat/REST/v1/Imagery/Map/RoadVibrant?ms=92,112&key=AnTcaqBi2ypp0xI-OZNi4W_ik2KhjgpqioTAtXLC8GzkMBQRMlyxvxyTnd5b73im&c=en-US&ur=in&da=n&logo=n&fmt=png&od=1&shading=hill&pp=23.155714,79.87368;dfp"
  },
  {
    "name": "Prof Dr K K Pandey Spine Clinic Jabalpur",
    "address": "Pandey Orthospine and Gynaec Clinic, Near Dhanwantrinagar Chowk, Jabalpur.MP. India, Jabalpur…",
    "phone": "Prof Dr K K Pandey Spine Clinic Jabalpur",
    "hours": "Closed· Opens 14:30",
    "image_url": null
  }
]