[
  {
    "name": "Dr Sachin Ashok Jadhav",
    "address": "Sukhayu Healthcare, Opp Vasant Market, Patil Lane, Canada Corner, Nashik, Maharashtra 422003",
    "phone": "Dr Sachin Ashok Jadhav",
    "hours": "Open· Closes 22:00",
    "image_url": "/th?id=OLC.rARETtXBxmyzuA480x360&w=92&h=134&c=8&rs=1&qlt=80&cdv=1&pid=Local"
  },
  {
    "name": "Dr.Modak's Clinic",
    "address": "Gurukul Colony Road, Nashik, Maharashtra 422007",
    "phone": "Dr.Modak's Clinic",
    "hours": null,
    "image_url": "/th?id=OLC.zGd4LqJ0LtMANw480x360&w=92&h=112&c=8&rs=1&qlt=80&cdv=1&pid=Local"
  },
  {
    "name": "Dr. Pushkar Lele",
    "address": "Shruti Hospital, Kulkarni Colony, S P Road, Nashik, Nashik 422002",
    "phone": "Dr. Pushkar Lele",
    "hours": "Closed· Opens 12:30",
    "image_url": "https://www.bing.com/maps/geoplat/REST/v1/Imagery/Map/RoadVibrant?ms=92,134&key=AnTcaqBi2ypp0xI-OZNi4W_ik2KhjgpqioTAtXLC8GzkMBQRMlyxvxyTnd5b73im&c=en-US&ur=in&da=n&logo=n&fmt=png&od=1&shading=hill&pp=20.00099,73.772552;dfp"
  },
  {
    "name": "Dr Atul Patil",
    "address": "Gangapur Road, Nashik, Maharashtra 422005",
    "phone": "Dr Atul Patil",
    "hours": "Closed· Opens 13:00",
    "image_url": "/th?id=OLC.9PUsLaEfPTU%2f5w480x360&w=92&h=134&c=8&rs=1&qlt=80&cdv=1&pid=Local"
  },
  {
    "name": "Dr. Saudagar's Homoeopathic Clinic",
    "address": "Above Regal Hotel; Besides Vaishampayan Petrol Pump; Gangapur Road, Nashik, Maharashtra, Maharashtra 42…",
    "phone": "Dr. Saudagar's Homoeopathic Clinic",
    "hours": null,
    "image_url": "https://www.bing.com/maps/geoplat/REST/v1/Imagery/Map/RoadVibrant?ms=92,112&key=AnTcaqBi2ypp0xI-OZNi4W_ik2KhjgpqioTAtXLC8GzkMBQRMlyxvxyTnd5b73im&c=en-US&ur=in&da=n&logo=n&fmt=png&od=1&shading=hill&pp=20.010811,73.762756;dfp"
  },
  {
    "name": "Dr Prakash B Patil",
    "address": "Archit Royal C Mahatma Road, Nashik, Maharashtra 422005",
    "phone": "Dr Prakash B Patil",
    "hours": "Open· Closes 20:00",
    "image_url": "/th?id=OLC.J9gHcyMA5IWAaQ480x360&w=92&h=134&c=8&rs=1&qlt=80&cdv=1&pid=Local"
  },
  {
    "name": "Dr. Anil Thatte",
    "address": "Ashirwad Apartment, Sharanpur Road, Nashik 422002",
    "phone": "Dr. Anil Thatte",
    "hours": "Open· Closes 12:30",
    "image_url": null
  },
  {
    "name": "Ojas Arthritis & Rheumatology Center | Dr. Prachi Patil | Rheumatologist",
    "address": "2 College Road, Nashik, Maharashtra 422005",
    "phone": "Ojas Arthritis & Rheumatology Center | Dr. Prachi Patil | Rheumatologist",
    "hours": "Open· Closes 16:00",
    "image_url": null
  },
  {
    "name": "Dr. Aarti Parakh",
    "address": "Satguru's, Opp Water Tank, Mahatma Nagar, Nashik, Maharashtra 422007",
    "phone": "Dr. Aarti Parakh",
    "hours": "Closed· Opens 11:30",
    "image_url": null
  },
  {
    "name": "Dr. Gaurav S. Roy",
    "address": "Purav Paschim Plaza, Divya Adlabs Building, Ground Floor, Nashik, Maharashtra",
    "phone": "Dr. Gaurav S. Roy",
    "hours": "Closed· Opens 11:30",
    "image_url": "https://www.bing.com/maps/geoplat/REST/v1/Imagery/Map/RoadVibrant?ms=92,112&key=AnTcaqBi2ypp0xI-OZNi4W_ik2KhjgpqioTAtXLC8GzkMBQRMlyxvxyTnd5b73im&c=en-US&ur=in&da=n&logo=n&fmt=png&od=1&shading=hill&pp=19.981541,73.755661;dfp"
  },
  {
    "name": "Medicover Hospitals | Best Multispeciality Hospital",
    "address": "Sawata Mali Road, Parab Nagar, Nashik, Maharashtra 422009",
    "phone": "Medicover Hospitals | Best Multispeciality Hospital",
    "hours": "Open 24 hours",
    "image_url": null
  },
  {
    "name": "Dr. Rahul Kaiche - cardiac surgeon",
    "address": "101, 136/A, Akaravi Disha, Tilak Wadi, Police Staff Colony, Nashik, Nashik 422002",
    "phone": "Dr. Rahul Kaiche - cardiac surgeon",
    "hours": "Open· Closes 18:00",
    "image_url": null
  },
  {
    "name": "Dr. Akhil Chaudhari",
    "address": "108/2 Pathardi Road, Nashik, Maharashtra 422009",
    "phone": "Dr. Akhil Chaudhari",
    "hours": "Opens in 6 mins",
    "image_url": null
  },
  {
    "name": "Dr. Shital Karnwat",
    "address": "Second Floor, Suyogit Sankul, Sharanpur Road, Landmark: Near Bhaphana Jwellers, Nashik, Maharashtra",
    "phone": "Dr. Shital Karnwat",
    "hours": "Open· Closes 13:00",
    "image_url": null
  },
  {
    "name": "Dr. Mukesh More | ENT Specialist | ENT Surgeon & Doctor",
    "address": "Near Canada Corner Signal, Umiya Apt, Above Icici Bank, Nashik, Maharashtra 422002",
    "phone": "Dr. Mukesh More | ENT Specialist | ENT Surgeon & Doctor",
    "hours": "Open· Closes 21:00",
    "image_url": null
  },
  {
    "name": "Dr. Manish Bagrecha",
    "address": "5, Siddhipooja Business Center, 1st, Floor, Opp Sushrut Hospital, Nashik, Maharashtra",
    "phone": "Dr. Manish Bagrecha",
    "hours": "Closed· Opens 11:00",
    "image_url": null
  },
  {
    "name": "Dr. Anil Jadhav",
    "address": "Apollo Hospitals Nashik, Plot No 1, Swaminarayan Nagar, Aurangabad Naka, Panchavati, Nashik, Maharashtra 4…",
    "phone": "Dr. Anil Jadhav",
    "hours": "Open· Closes 18:00",
    "image_url": null
  },
  {
    "name": "Dr. Yogesh Bhagat",
    "address": "3752, Gurujyot, Akali Road, Nashik, Maharashtra",
    "phone": "Dr. Yogesh Bhagat",
    "hours": "Open· Closes 13:00",
    "image_url": null
  }
]