[
  {
    "name": "Shree Yogi Clinic",
    "address": "Station Road, Jahangir Cinema, Navasari-396445, Navsari, Gujarat 396445",
    "phone": "Shree Yogi Clinic",
    "hours": null,
    "image_url": "/th?id=OLC.68gWC781SZtDCw480x360&w=92&h=112&c=8&rs=1&qlt=80&cdv=1&pid=Local"
  },
  {
    "name": "DR. Praful R. Desai",
    "address": "Paradise Tower, Ground Floor, Navsari, Gujarat 396445",
    "phone": "DR. Praful R. Desai",
    "hours": null,
    "image_url": "https://www.bing.com/maps/geoplat/REST/v1/Imagery/Map/RoadVibrant?ms=92,112&key=AnTcaqBi2ypp0xI-OZNi4W_ik2KhjgpqioTAtXLC8GzkMBQRMlyxvxyTnd5b73im&c=en-US&ur=in&da=n&logo=n&fmt=png&od=1&shading=hill&pp=20.947033,72.936958;dfp"
  },
  {
    "name": "Dr. Satyen Kasabwala",
    "address": "Anand Hospital, Near Sandhkuva Gate, Station Road, Navsari, Gujarat 396445",
    "phone": "Dr. Satyen Kasabwala",
    "hours": "Open· Closes 13:30",
    "image_url": "https://www.bing.com/maps/geoplat/REST/v1/Imagery/Map/RoadVibrant?ms=92,134&key=AnTcaqBi2ypp0xI-OZNi4W_ik2KhjgpqioTAtXLC8GzkMBQRMlyxvxyTnd5b73im&c=en-US&ur=in&da=n&logo=n&fmt=png&od=1&shading=hill&pp=20.951054,72.918266;dfp"
  },
  {
    "name": "Dr. Bharat Chawda",
    "address": "Vishakha Park Society, Jalalpore, Gujarat 396445",
    "phone": "Dr. Bharat Chawda",
    "hours": null,
    "image_url": "https://www.bing.com/maps/geoplat/REST/v1/Imagery/Map/RoadVibrant?ms=92,112&key=AnTcaqBi2ypp0xI-OZNi4W_ik2KhjgpqioTAtXLC8GzkMBQRMlyxvxyTnd5b73im&c=en-US&ur=in&da=n&logo=n&fmt=png&od=1&shading=hill&pp=20.945734,72.924515;dfp"
  },
  {
    "name": "Dr. Dhawal Patel",
    "address": "Landmark: Near Railway Station, Navsari, Gujarat",
    "phone": "Dr. Dhawal Patel",
    "hours": "Open· Closes 13:00",
    "image_url": "https://www.bing.com/maps/geoplat/REST/v1/Imagery/Map/RoadVibrant?ms=92,112&key=AnTcaqBi2ypp0xI-OZNi4W_ik2KhjgpqioTAtXLC8GzkMBQRMlyxvxyTnd5b73im&c=en-US&ur=in&da=n&logo=n&fmt=png&od=1&shading=hill&pp=20.9508,72.913132;dfp"
  },
  {
    "name": "Dr C.A.Bhamgarwala",
    "address": "Sayaji Rao Road, Navsari, Gujarat 396445",
    "phone": "Dr C.A.Bhamgarwala",
    "hours": null,
    "image_url": "https://www.bing.com/maps/geoplat/REST/v1/Imagery/Map/RoadVibrant?ms=92,112&key=AnTcaqBi2ypp0xI-OZNi4W_ik2KhjgpqioTAtXLC8GzkMBQRMlyxvxyTnd5b73im&c=en-US&ur=in&da=n&logo=n&fmt=png&od=1&shading=hill&pp=20.95068,72.920013;dfp"
  },
  {
    "name": "Dr Tanna Clinic",
    "address": "Shantadevi Road, Navsari, Gujarat 396445",
    "phone": "Dr Tanna Clinic",
    "hours": null,
    "image_url": "https://www.bing.com/maps/geoplat/REST/v1/Imagery/Map/RoadVibrant?ms=92,112&key=AnTcaqBi2ypp0xI-OZNi4W_ik2KhjgpqioTAtXLC8GzkMBQRMlyxvxyTnd5b73im&c=en-US&ur=in&da=n&logo=n&fmt=png&od=1&shading=hill&pp=20.951654,72.918427;dfp"
  },
  {
    "name": "Sai Clinic",
    "address": "Wwvc+rh6, Shivkrupa …, Vishakha Park Society, Dhirubhai Ni Wadi",
    "phone": "Sai Clinic",
    "hours": null,
    "image_url": "https://www.bing.com/maps/geoplat/REST/v1/Imagery/Map/RoadVibrant?ms=92,112&key=AnTcaqBi2ypp0xI-OZNi4W_ik2KhjgpqioTAtXLC8GzkMBQRMlyxvxyTnd5b73im&c=en-US&ur=in&da=n&logo=n&fmt=png&od=1&shading=hill&pp=20.938812,72.918762;dfp"
  },
  {
    "name": "Kejal Life In Multispecialty Hospital-Best Hospital/Best Skin Specialist/24/7 Pharmacy/Best Doctor",
    "address": "opp. Swaminarayan Mandir, Pushpvihar Society, Kabilpore, Navsari, Gujarat 396424",
    "phone": "Kejal Life In Multispecialty Hospital-Best Hospital/Best Skin Specialist/24/7 Pharmacy/Best Doctor",
    "hours": "Open 24 hours",
    "image_url": null
  },
  {
    "name": "Dhanvantari Clinic",
    "address": "Vijal Por Road, Navsari, Gujarat 396445",
    "phone": "Dhanvantari Clinic",
    "hours": null,
    "image_url": null
  },
  {
    "name": "Dr. Anand Vinod Naik",
    "address": "Surya Apartment, Navsari, Landmark: Station Road, Navsari, Gujarat",
    "phone": "Dr. Anand Vinod Naik",
    "hours": "Open· Closes 19:00",
    "image_url": null
  },
  {
    "name": "Hiral Clinic",
    "address": "Janta Apartment, Ground Floor, Navsari, Navsari 396445",
    "phone": "Hiral Clinic",
    "hours": null,
    "image_url": "https://www.bing.com/maps/geoplat/REST/v1/Imagery/Map/RoadVibrant?ms=92,112&key=AnTcaqBi2ypp0xI-OZNi4W_ik2KhjgpqioTAtXLC8GzkMBQRMlyxvxyTnd5b73im&c=en-US&ur=in&da=n&logo=n&fmt=png&od=1&shading=hill&pp=20.952047,72.921753;dfp"
  },
  {
    "name": "Ba Smt Lilaben Chimanlal Parikh Cancer Centre, Conceived by Navsari Cancer Care Foundation",
    "address": "M.G.G., Civil Hospital, Station Road, Navsari, Valsad, Gujarat 396445",
    "phone": "Ba Smt Lilaben Chimanlal Parikh Cancer Centre, Conceived by Navsari Cancer Care Foundation",
    "hours": "Open· Closes 18:00",
    "image_url": "https://www.bing.com/maps/geoplat/REST/v1/Imagery/Map/RoadVibrant?ms=92,134&key=AnTcaqBi2ypp0xI-OZNi4W_ik2KhjgpqioTAtXLC8GzkMBQRMlyxvxyTnd5b73im&c=en-US&ur=in&da=n&logo=n&fmt=png&od=1&shading=hill&pp=20.950394,72.91938;dfp"
  },
  {
    "name": "Dr. Hormaz Sadri",
    "address": "305, Surya Apartment, Navsari 396445",
    "phone": "Dr. Hormaz Sadri",
    "hours": null,
    "image_url": "https://www.bing.com/maps/geoplat/REST/v1/Imagery/Map/RoadVibrant?ms=92,112&key=AnTcaqBi2ypp0xI-OZNi4W_ik2KhjgpqioTAtXLC8GzkMBQRMlyxvxyTnd5b73im&c=en-US&ur=in&da=n&logo=n&fmt=png&od=1&shading=hill&pp=20.940119,72.929054;dfp"
  },
  {
    "name": "Ashirwad Eye Hospital & Laser Center",
    "address": "Jn Tata Road, Navsari, Gujarat 396445",
    "phone": "Ashirwad Eye Hospital & Laser Center",
    "hours": null,
    "image_url": null
  },
  {
    "name": "Dr. Urvi Kothiya",
    "address": "9, First Floor, Prem Residency, Luncikui, Navsari, Gujarat",
    "phone": "Dr. Urvi Kothiya",
    "hours": "Open· Closes 13:00",
    "image_url": null
  },
  {
    "name": "Dr. Vishvas P. Shah",
    "address": "1, Dev Darshan Building, Ground Floor, Navsari, Navsari 396445",
    "phone": "Dr. Vishvas P. Shah",
    "hours": "Open· Closes 19:00",
    "image_url": null
  },
  {
    "name": "Het Physiotherapy Clinic",
    "address": "Shop No.2, Andies Appt., Ashanagar, Navsari, Gujarat 396445",
    "phone": "Het Physiotherapy Clinic",
    "hours": null,
    "image_url": null
  }
]