[
  {
    "name": "Doctors Divine Multispeciality Hospital",
    "address": "Navi Nagar, Nawada, Bihar 805110",
    "phone": "Doctors Divine Multispeciality Hospital",
    "hours": "Open 24 hours",
    "image_url": "/th?id=OLC.v5g39dzLYWhaGA480x360&w=92&h=134&c=8&rs=1&qlt=80&cdv=1&pid=Local"
  },
  {
    "name": "Dr Sudhir Chandre",
    "address": "Purani Jail Road, Harishchandra Stadium, Mirza Pur Haat Par, Nawada, Bihar 805110",
    "phone": "Dr Sudhir Chandre",
    "hours": null,
    "image_url": "https://www.bing.com/maps/geoplat/REST/v1/Imagery/Map/RoadVibrant?ms=92,112&key=AnTcaqBi2ypp0xI-OZNi4W_ik2KhjgpqioTAtXLC8GzkMBQRMlyxvxyTnd5b73im&c=en-US&ur=in&da=n&logo=n&fmt=png&od=1&shading=hill&pp=24.888908,85.544739;dfp"
  },
  {
    "name": "Dr Anish Kumar",
    "address": "Purani Jail Road, Harishchandra Stadium, Mirza Pur Haat Par, Nawada, Bihar 805110",
    "phone": "Dr Anish Kumar",
    "hours": null,
    "image_url": "https://www.bing.com/maps/geoplat/REST/v1/Imagery/Map/RoadVibrant?ms=92,112&key=AnTcaqBi2ypp0xI-OZNi4W_ik2KhjgpqioTAtXLC8GzkMBQRMlyxvxyTnd5b73im&c=en-US&ur=in&da=n&logo=n&fmt=png&od=1&shading=hill&pp=24.888914,85.544739;dfp"
  },
  {
    "name": "Dr. Sachchidanand Singh",
    "address": "Hospital Road, Near Sadar Hospital Nawada, Nawada, Bihar 805110",
    "phone": "Dr. Sachchidanand Singh",
    "hours": null,
    "image_url": "/th?id=OLC.eHlIZW7HwHag1w480x360&w=92&h=112&c=8&rs=1&qlt=80&cdv=1&pid=Local"
  },
  {
    "name": "Dr Akhilesh Mohan",
    "address": "Mal Godown, Chhai Road, Nawada, Bihar 805110, India, Nawada, Bihar 805110",
    "phone": "Dr Akhilesh Mohan",
    "hours": null,
    "image_url": "/th?id=OLC.QPNr6DNit%2fCOdw480x360&w=92&h=112&c=8&rs=1&qlt=80&cdv=1&pid=Local"
  },
  {
    "name": "Dr Shuda Sharma Clinic",
    "address": "North Stadium Road, Near Gowardhan Mandir, Postmatam Road, Nawada, Bihar 805110",
    "phone": "Dr Shuda Sharma Clinic",
    "hours": null,
    "image_url": "https://www.bing.com/maps/geoplat/REST/v1/Imagery/Map/RoadVibrant?ms=92,112&key=AnTcaqBi2ypp0xI-OZNi4W_ik2KhjgpqioTAtXLC8GzkMBQRMlyxvxyTnd5b73im&c=en-US&ur=in&da=n&logo=n&fmt=png&od=1&shading=hill&pp=24.892401,85.546623;dfp"
  },
  {
    "name": "Dr D Ram",
    "address": "Old Kachahri Road, Near Vijay Bazar, New Area, Nawada, Bihar 805110",
    "phone": "Dr D Ram",
    "hours": null,
    "image_url": "https://www.bing.com/maps/geoplat/REST/v1/Imagery/Map/RoadVibrant?ms=92,112&key=AnTcaqBi2ypp0xI-OZNi4W_ik2KhjgpqioTAtXLC8GzkMBQRMlyxvxyTnd5b73im&c=en-US&ur=in&da=n&logo=n&fmt=png&od=1&shading=hill&pp=24.88718,85.541786;dfp"
  },
  {
    "name": "Hashmi Clinic",
    "address": "Rajauli Road, Ansar Nagar Jama Masjid, Ansar Nagar, Nawada, Bihar 805110",
    "phone": "Hashmi Clinic",
    "hours": null,
    "image_url": null
  },
  {
    "name": "Dr Anand Kumar Clinic",
    "address": "Rajauli Road, Ansar Nagar Jama Masjid, Ansar Nagar, Nawada, Bihar 805110",
    "phone": "Dr Anand Kumar Clinic",
    "hours": null,
    "image_url": "https://www.bing.com/maps/geoplat/REST/v1/Imagery/Map/RoadVibrant?ms=92,112&key=AnTcaqBi2ypp0xI-OZNi4W_ik2KhjgpqioTAtXLC8GzkMBQRMlyxvxyTnd5b73im&c=en-US&ur=in&da=n&logo=n&fmt=png&od=1&shading=hill&pp=24.874479,85.545433;dfp"
  },
  {
    "name": "Dr Z A Khan",
    "address": "Rajauli Road, Rajauli Bus Stand, Mogla Khar, Nawada, Bihar 805110",
    "phone": "Dr Z A Khan",
    "hours": null,
    "image_url": "https://www.bing.com/maps/geoplat/REST/v1/Imagery/Map/RoadVibrant?ms=92,112&key=AnTcaqBi2ypp0xI-OZNi4W_ik2KhjgpqioTAtXLC8GzkMBQRMlyxvxyTnd5b73im&c=en-US&ur=in&da=n&logo=n&fmt=png&od=1&shading=hill&pp=24.879293,85.544403;dfp"
  },
  {
    "name": "Dr. Bushra Homoeopathic Clinic",
    "address": "Bundelkhand, Nawada, Bihar",
    "phone": "Dr. Bushra Homoeopathic Clinic",
    "hours": null,
    "image_url": "https://www.bing.com/maps/geoplat/REST/v1/Imagery/Map/RoadVibrant?ms=92,112&key=AnTcaqBi2ypp0xI-OZNi4W_ik2KhjgpqioTAtXLC8GzkMBQRMlyxvxyTnd5b73im&c=en-US&ur=in&da=n&logo=n&fmt=png&od=1&shading=hill&pp=24.877092,85.537491;dfp"
  },
  {
    "name": "Kadirganj Clinic",
    "address": "Main Road Kadirganj, Nawada, Bihar 805104",
    "phone": "Kadirganj Clinic",
    "hours": null,
    "image_url": "https://www.bing.com/maps/geoplat/REST/v1/Imagery/Map/RoadVibrant?ms=92,112&key=AnTcaqBi2ypp0xI-OZNi4W_ik2KhjgpqioTAtXLC8GzkMBQRMlyxvxyTnd5b73im&c=en-US&ur=in&da=n&logo=n&fmt=png&od=1&shading=hill&pp=24.915319,85.592171;dfp"
  },
  {
    "name": "Oncquest/Dr Singh Diagnostic centre",
    "address": "Singh Complex, Old Jail Road, Nawada, Bihar",
    "phone": "Oncquest/Dr Singh Diagnostic centre",
    "hours": null,
    "image_url": "https://www.bing.com/maps/geoplat/REST/v1/Imagery/Map/RoadVibrant?ms=92,112&key=AnTcaqBi2ypp0xI-OZNi4W_ik2KhjgpqioTAtXLC8GzkMBQRMlyxvxyTnd5b73im&c=en-US&ur=in&da=n&logo=n&fmt=png&od=1&shading=hill&pp=24.888626,85.544678;dfp"
  },
  {
    "name": "Dr Lal PathLabs",
    "address": "Old Jail Road, Nawada, Bihar 805110",
    "phone": "Dr Lal PathLabs",
    "hours": "Open· Closes 19:30",
    "image_url": null
  },
  {
    "name": "Shivaay Dental And Child Health Care",
    "address": "Par Nawada Gaya Road Nawada - 805110, Nawada 805110",
    "phone": "Shivaay Dental And Child Health Care",
    "hours": null,
    "image_url": "https://www.bing.com/maps/geoplat/REST/v1/Imagery/Map/RoadVibrant?ms=92,112&key=AnTcaqBi2ypp0xI-OZNi4W_ik2KhjgpqioTAtXLC8GzkMBQRMlyxvxyTnd5b73im&c=en-US&ur=in&da=n&logo=n&fmt=png&od=1&shading=hill&pp=24.881176,85.542747;dfp"
  },
  {
    "name": "Dr Lal PathLabs - Patient Service Centre",
    "address": "Ward No 24, Ahmad House, Mirdah Toli, Nawada, Bihar 805110",
    "phone": "Dr Lal PathLabs - Patient Service Centre",
    "hours": "Open· Closes 20:00",
    "image_url": "https://www.bing.com/maps/geoplat/REST/v1/Imagery/Map/RoadVibrant?ms=92,134&key=AnTcaqBi2ypp0xI-OZNi4W_ik2KhjgpqioTAtXLC8GzkMBQRMlyxvxyTnd5b73im&c=en-US&ur=in&da=n&logo=n&fmt=png&od=1&shading=hill&pp=24.893524,85.541359;dfp"
  },
  {
    "name": "Shyam ENT Care",
    "address": "Purani Jail Rd, Nawada, Bihar",
    "phone": "Shyam ENT Care",
    "hours": null,
    "image_url": "https://www.bing.com/maps/geoplat/REST/v1/Imagery/Map/RoadVibrant?ms=92,112&key=AnTcaqBi2ypp0xI-OZNi4W_ik2KhjgpqioTAtXLC8GzkMBQRMlyxvxyTnd5b73im&c=en-US&ur=in&da=n&logo=n&fmt=png&od=1&shading=hill&pp=24.889523,85.545876;dfp"
  },
  {
    "name": "Manoj Kumar Verma",
    "address": "Jai Maa Ambey Juice, 10, Indra Gandhi Chowk, Hospital Road, Nawada, Bihar 805110",
    "phone": "Manoj Kumar Verma",
    "hours": null,
    "image_url": "https://www.bing.com/maps/geoplat/REST/v1/Imagery/Map/RoadVibrant?ms=92,112&key=AnTcaqBi2ypp0xI-OZNi4W_ik2KhjgpqioTAtXLC8GzkMBQRMlyxvxyTnd5b73im&c=en-US&ur=in&da=n&logo=n&fmt=png&od=1&shading=hill&pp=24.888369,85.545433;dfp"
  }
]