[
  {
    "name": "Dr Raghav Vishesh Lumb",
    "address": "Raja Hospital, Mota Singh Road, Sirsa Colony, Nawanshahr, Punjab",
    "phone": "Dr Raghav Vishesh Lumb",
    "hours": null,
    "image_url": "https://www.bing.com/maps/geoplat/REST/v1/Imagery/Map/RoadVibrant?ms=92,112&key=AnTcaqBi2ypp0xI-OZNi4W_ik2KhjgpqioTAtXLC8GzkMBQRMlyxvxyTnd5b73im&c=en-US&ur=in&da=n&logo=n&fmt=png&od=1&shading=hill&pp=31.1252,76.118896;dfp"
  },
  {
    "name": "Dr. Balvir Kumar - BALVIR HOSPITAL",
    "address": "Inside Balvir Hospital, Chandigarh Road, Nawanshahr, Near C.S.D. Canteen, Nawanshahr, Punjab",
    "phone": "Dr. Balvir Kumar - BALVIR HOSPITAL",
    "hours": null,
    "image_url": "https://www.bing.com/maps/geoplat/REST/v1/Imagery/Map/RoadVibrant?ms=92,112&key=AnTcaqBi2ypp0xI-OZNi4W_ik2KhjgpqioTAtXLC8GzkMBQRMlyxvxyTnd5b73im&c=en-US&ur=in&da=n&logo=n&fmt=png&od=1&shading=hill&pp=31.125225,76.119835;dfp"
  },
  {
    "name": "Raja Diagnostic Centre & Hospital",
    "address": "Mota Singh Road, Near Civil Surgeon Office, Nawanshahr, Punjab 144514, Nawanshahr, Punjab 144…",
    "phone": "Raja Diagnostic Centre & Hospital",
    "hours": null,
    "image_url": "/th?id=OLC.ym5OlMPbMkMwlw480x360&w=92&h=112&c=8&rs=1&qlt=80&cdv=1&pid=Local"
  },
  {
    "name": "Dolla Clinic",
    "address": "Langroya, Nawanshahr, Punjab 144516",
    "phone": "Dolla Clinic",
    "hours": null,
    "image_url": "/th?id=OLC.uadhoQA%2bV1ZG9g480x360&w=92&h=112&c=8&rs=1&qlt=80&cdv=1&pid=Local"
  },
  {
    "name": "Dhawan Hospital",
    "address": "Street 6, Nawanshahr, Punjab 144500",
    "phone": "Dhawan Hospital",
    "hours": null,
    "image_url": "/th?id=OLC.Vcbnr%2frIYMHJ8A480x360&w=92&h=112&c=8&rs=1&qlt=80&cdv=1&pid=Local"
  },
  {
    "name": "Dr. A K Rajpal",
    "address": "Shaheed Baba Deep Singh Nagar, Vikas Nagar, Nawanshahr, Punjab",
    "phone": "Dr. A K Rajpal",
    "hours": "Open· Closes 14:00",
    "image_url": "https://www.bing.com/maps/geoplat/REST/v1/Imagery/Map/RoadVibrant?ms=92,112&key=AnTcaqBi2ypp0xI-OZNi4W_ik2KhjgpqioTAtXLC8GzkMBQRMlyxvxyTnd5b73im&c=en-US&ur=in&da=n&logo=n&fmt=png&od=1&shading=hill&pp=31.116415,76.117661;dfp"
  },
  {
    "name": "Dr Gagandeep Singh Sandhu",
    "address": "Gali No. 3, Shri Guru Angad Nagar, Behind SR Lab, Chandigarh Road, Nawanshahr, Punjab 144514",
    "phone": "Dr Gagandeep Singh Sandhu",
    "hours": "Open· Closes 14:00",
    "image_url": null
  },
  {
    "name": "Dr Jivtesh Singh Pahwa",
    "address": "B-6/7 Mota Singh Nagar Chandigarh Road, Nawanshahr, Punjab 144514",
    "phone": "Dr Jivtesh Singh Pahwa",
    "hours": null,
    "image_url": "https://www.bing.com/maps/geoplat/REST/v1/Imagery/Map/RoadVibrant?ms=92,112&key=AnTcaqBi2ypp0xI-OZNi4W_ik2KhjgpqioTAtXLC8GzkMBQRMlyxvxyTnd5b73im&c=en-US&ur=in&da=n&logo=n&fmt=png&od=1&shading=hill&pp=31.126619,76.11824;dfp"
  },
  {
    "name": "Naveen Clinic",
    "address": "Nawanshahr, Punjab 144514",
    "phone": "Naveen Clinic",
    "hours": null,
    "image_url": "https://www.bing.com/maps/geoplat/REST/v1/Imagery/Map/RoadVibrant?ms=92,112&key=AnTcaqBi2ypp0xI-OZNi4W_ik2KhjgpqioTAtXLC8GzkMBQRMlyxvxyTnd5b73im&c=en-US&ur=in&da=n&logo=n&fmt=png&od=1&shading=hill&pp=31.121534,76.114693;dfp"
  },
  {
    "name": "Dr.Sabita's mothercare clinic",
    "address": "Opposite SSP Residence, Chandigarh Road, Nawanshahr Doaba, Punjab Region",
    "phone": "Dr.Sabita's mothercare clinic",
    "hours": null,
    "image_url": null
  },
  {
    "name": "Singh Clinic",
    "address": "01, M\\S. Singh Clinic, Near Railway Crossing, Nawanshahr, Punjab 144514",
    "phone": "Singh Clinic",
    "hours": null,
    "image_url": "https://www.bing.com/maps/geoplat/REST/v1/Imagery/Map/RoadVibrant?ms=92,112&key=AnTcaqBi2ypp0xI-OZNi4W_ik2KhjgpqioTAtXLC8GzkMBQRMlyxvxyTnd5b73im&c=en-US&ur=in&da=n&logo=n&fmt=png&od=1&shading=hill&pp=31.121624,76.11599;dfp"
  },
  {
    "name": "Prem Clinic",
    "address": "Nawanshahr, Punjab 144514",
    "phone": "Prem Clinic",
    "hours": null,
    "image_url": "https://www.bing.com/maps/geoplat/REST/v1/Imagery/Map/RoadVibrant?ms=92,112&key=AnTcaqBi2ypp0xI-OZNi4W_ik2KhjgpqioTAtXLC8GzkMBQRMlyxvxyTnd5b73im&c=en-US&ur=in&da=n&logo=n&fmt=png&od=1&shading=hill&pp=31.126993,76.11689;dfp"
  },
  {
    "name": "Dr Lal PathLabs – Patient Service Centre",
    "address": "Ground Floor, Opposite Sapians School, Vikas Nagar Road, Herbertpur, Uttarakhand",
    "phone": "Dr Lal PathLabs – Patient Service Centre",
    "hours": null,
    "image_url": "https://www.bing.com/maps/geoplat/REST/v1/Imagery/Map/RoadVibrant?ms=92,112&key=AnTcaqBi2ypp0xI-OZNi4W_ik2KhjgpqioTAtXLC8GzkMBQRMlyxvxyTnd5b73im&c=en-US&ur=in&da=n&logo=n&fmt=png&od=1&shading=hill&pp=31.119461,76.116966;dfp"
  },
  {
    "name": "Dr ikhlaq A Choudhary psychiatrist",
    "address": "Bharat Hospital, Banga Road, Opposite Grand Hotel, Nawanshahr, Punjab",
    "phone": "Dr ikhlaq A Choudhary psychiatrist",
    "hours": null,
    "image_url": "https://www.bing.com/maps/geoplat/REST/v1/Imagery/Map/RoadVibrant?ms=92,112&key=AnTcaqBi2ypp0xI-OZNi4W_ik2KhjgpqioTAtXLC8GzkMBQRMlyxvxyTnd5b73im&c=en-US&ur=in&da=n&logo=n&fmt=png&od=1&shading=hill&pp=31.125978,76.118378;dfp"
  },
  {
    "name": "life neurotherapy clinic Dr ravish dutta neurotherapist",
    "address": "b-14 hno-163 Near Khalsa Silk Store Oposite Aroraattachi House, Geeta Bhawan Road, Lal Chonk Road, Nawans…",
    "phone": "life neurotherapy clinic Dr ravish dutta neurotherapist",
    "hours": null,
    "image_url": "https://www.bing.com/maps/geoplat/REST/v1/Imagery/Map/RoadVibrant?ms=92,112&key=AnTcaqBi2ypp0xI-OZNi4W_ik2KhjgpqioTAtXLC8GzkMBQRMlyxvxyTnd5b73im&c=en-US&ur=in&da=n&logo=n&fmt=png&od=1&shading=hill&pp=31.121439,76.112686;dfp"
  },
  {
    "name": "Dr Badhan R V Children Hospital",
    "address": "Chandigarh Road, Nawanshahr, Punjab 144514",
    "phone": "Dr Badhan R V Children Hospital",
    "hours": null,
    "image_url": "https://www.bing.com/maps/geoplat/REST/v1/Imagery/Map/RoadVibrant?ms=92,112&key=AnTcaqBi2ypp0xI-OZNi4W_ik2KhjgpqioTAtXLC8GzkMBQRMlyxvxyTnd5b73im&c=en-US&ur=in&da=n&logo=n&fmt=png&od=1&shading=hill&pp=31.125271,76.120117;dfp"
  },
  {
    "name": "DR. Karan Arora Paediatrician Clinic",
    "address": "01, Chandigarh Road, Nawanshahr, Punjab 144514",
    "phone": "DR. Karan Arora Paediatrician Clinic",
    "hours": null,
    "image_url": "https://www.bing.com/maps/geoplat/REST/v1/Imagery/Map/RoadVibrant?ms=92,112&key=AnTcaqBi2ypp0xI-OZNi4W_ik2KhjgpqioTAtXLC8GzkMBQRMlyxvxyTnd5b73im&c=en-US&ur=in&da=n&logo=n&fmt=png&od=1&shading=hill&pp=31.123791,76.123711;dfp"
  },
  {
    "name": "Dr.jain's Neuropsychiatry & Counseling Clinic",
    "address": "Chandigarh Road, Opp.Shivalik Public School, Nawanshahr, Nawanshahr Doaba 144514",
    "phone": "Dr.jain's Neuropsychiatry & Counseling Clinic",
    "hours": "Closed· Opens 16:00",
    "image_url": "https://www.bing.com/maps/geoplat/REST/v1/Imagery/Map/RoadVibrant?ms=92,134&key=AnTcaqBi2ypp0xI-OZNi4W_ik2KhjgpqioTAtXLC8GzkMBQRMlyxvxyTnd5b73im&c=en-US&ur=in&da=n&logo=n&fmt=png&od=1&shading=hill&pp=31.121462,76.12989;dfp"
  }
]