[
  {
    "name": "Masterdoctor Clinic - Nayagarh - Best Diabetes Clinic with Best Diabetologist Dr B Jagadish",
    "address": "Patra Drug House, Near BUS Stand, Nayagarh, Nayagarh 752069",
    "phone": "Masterdoctor Clinic - Nayagarh - Best Diabetes Clinic with Best Diabetologist Dr B Jagadish",
    "hours": null,
    "image_url": "/th?id=OLC.0n9WYRHPjFLwpQ480x360&w=92&h=112&c=8&rs=1&qlt=80&cdv=1&pid=Local"
  },
  {
    "name": "Dr. Satish Nibedan | General Physician",
    "address": "Kasturi Complex, Khandapara Road, Nayagarh, Odisha, Nayagarh, India, 752069, Nayagarh, Madhya Pradesh …",
    "phone": "Dr. Satish Nibedan | General Physician",
    "hours": "Open· Closes 18:00",
    "image_url": "/th?id=OLC.Y%2bOU6tDK1ZEWzA480x360&w=92&h=134&c=8&rs=1&qlt=80&cdv=1&pid=Local"
  },
  {
    "name": "Dr Lal PathLabs - Patient Service Centre",
    "address": "Plot No 2, Medical Chaka, VIP Road, Nayagarh 752069",
    "phone": "Dr Lal PathLabs - Patient Service Centre",
    "hours": "Open· Closes 19:30",
    "image_url": "https://www.bing.com/maps/geoplat/REST/v1/Imagery/Map/RoadVibrant?ms=92,134&key=AnTcaqBi2ypp0xI-OZNi4W_ik2KhjgpqioTAtXLC8GzkMBQRMlyxvxyTnd5b73im&c=en-US&ur=in&da=n&logo=n&fmt=png&od=1&shading=hill&pp=20.127562,85.107628;dfp"
  },
  {
    "name": "Jai Durga Prashant Pathology",
    "address": "At, Nayagarh Rd, Khordha, Odisha",
    "phone": "Jai Durga Prashant Pathology",
    "hours": null,
    "image_url": "https://www.bing.com/maps/geoplat/REST/v1/Imagery/Map/RoadVibrant?ms=92,112&key=AnTcaqBi2ypp0xI-OZNi4W_ik2KhjgpqioTAtXLC8GzkMBQRMlyxvxyTnd5b73im&c=en-US&ur=in&da=n&logo=n&fmt=png&od=1&shading=hill&pp=20.12709,85.104729;dfp"
  }
]