[
  {
    "name": "Dr. Ashok Jain- Consultant Physician & Diabetologist",
    "address": "49/3 Vikas Nagar Neemuch, Neemuch, Madhya Pradesh 458441",
    "phone": "Dr. Ashok Jain- Consultant Physician & Diabetologist",
    "hours": "Opens in 6 mins",
    "image_url": "https://www.bing.com/maps/geoplat/REST/v1/Imagery/Map/RoadVibrant?ms=92,112&key=AnTcaqBi2ypp0xI-OZNi4W_ik2KhjgpqioTAtXLC8GzkMBQRMlyxvxyTnd5b73im&c=en-US&ur=in&da=n&logo=n&fmt=png&od=1&shading=hill&pp=24.468601,74.86869;clcp"
  },
  {
    "name": "Dr Mitul Chamadia",
    "address": "Shreeji Nursing Home 17 Vikas Nagar 14, 3, Near Gomabai Hospital, Neemuch, Madhya Pradesh",
    "phone": "Dr Mitul Chamadia",
    "hours": null,
    "image_url": "https://www.bing.com/maps/geoplat/REST/v1/Imagery/Map/RoadVibrant?ms=92,112&key=AnTcaqBi2ypp0xI-OZNi4W_ik2KhjgpqioTAtXLC8GzkMBQRMlyxvxyTnd5b73im&c=en-US&ur=in&da=n&logo=n&fmt=png&od=1&shading=hill&pp=24.471346,74.874046;dfp"
  },
  {
    "name": "Dr. Omprakash Ojha | MBBS",
    "address": "91 Jawahar Marg Jawad dt Neemuch mp, Neemuch, Madhya Pradesh, India, 458330, Neemuch, Madhya Pr…",
    "phone": "Dr. Omprakash Ojha | MBBS",
    "hours": "Open· Closes 18:00",
    "image_url": "https://www.bing.com/maps/geoplat/REST/v1/Imagery/Map/RoadVibrant?ms=92,134&key=AnTcaqBi2ypp0xI-OZNi4W_ik2KhjgpqioTAtXLC8GzkMBQRMlyxvxyTnd5b73im&c=en-US&ur=in&da=n&logo=n&fmt=png&od=1&shading=hill&pp=24.469666,74.872284;dfp"
  },
  {
    "name": "Rk Malani Healthcare | Dr. Rajkumar Malani",
    "address": "9/3, Sindhi Colony, Neemuch, Madhya Pradesh 458441, India, Neemuch, Rajasthan 458441",
    "phone": "Rk Malani Healthcare | Dr. Rajkumar Malani",
    "hours": null,
    "image_url": "/th?id=OLC.ZqFO%2fyVmYz%2bUpw480x360&w=92&h=112&c=8&rs=1&qlt=80&cdv=1&pid=Local"
  },
  {
    "name": "Dr. DR.RN GODARA | Skin Specialist | SHREE JI MEDICAL AND SKIN CARE",
    "address": "Shree JI Medical AND Skin Care, Neemuch, Madhya Pradesh, India, 458441, Neemuch, Madhya Pradesh 45…",
    "phone": "Dr. DR.RN GODARA | Skin Specialist | SHREE JI MEDICAL AND SKIN CARE",
    "hours": "Closed· Opens Sep 29 at 10:00",
    "image_url": "https://www.bing.com/maps/geoplat/REST/v1/Imagery/Map/RoadVibrant?ms=92,134&key=AnTcaqBi2ypp0xI-OZNi4W_ik2KhjgpqioTAtXLC8GzkMBQRMlyxvxyTnd5b73im&c=en-US&ur=in&da=n&logo=n&fmt=png&od=1&shading=hill&pp=24.456984,74.864563;dfp"
  },
  {
    "name": "Dr Yogesh Taur Clinic",
    "address": "Unnamed Road, Jawahar Nagar, Neemuch, Madhya Pradesh",
    "phone": "Dr Yogesh Taur Clinic",
    "hours": null,
    "image_url": "https://www.bing.com/maps/geoplat/REST/v1/Imagery/Map/RoadVibrant?ms=92,112&key=AnTcaqBi2ypp0xI-OZNi4W_ik2KhjgpqioTAtXLC8GzkMBQRMlyxvxyTnd5b73im&c=en-US&ur=in&da=n&logo=n&fmt=png&od=1&shading=hill&pp=24.465332,74.875198;dfp"
  },
  {
    "name": "Saif Clinic",
    "address": "Sh-15, Neemuch 458441",
    "phone": "Saif Clinic",
    "hours": null,
    "image_url": "https://www.bing.com/maps/geoplat/REST/v1/Imagery/Map/RoadVibrant?ms=92,112&key=AnTcaqBi2ypp0xI-OZNi4W_ik2KhjgpqioTAtXLC8GzkMBQRMlyxvxyTnd5b73im&c=en-US&ur=in&da=n&logo=n&fmt=png&od=1&shading=hill&pp=24.458193,74.869659;dfp"
  },
  {
    "name": "Aarogyam Poly Clinic",
    "address": "1st Floor Jaroli Trade Center, Opp Jama Masjid, Neemuch, Madhya Pradesh, Madhya Pradesh 458441",
    "phone": "Aarogyam Poly Clinic",
    "hours": null,
    "image_url": null
  },
  {
    "name": "Nigo Life Line Super Speciality Homoeopathic Clinic Dr Nidhi Gourav Rathore Neemuch",
    "address": "Scheme No 3, Neemuch Chawni, Neemuch, Madhya Pradesh",
    "phone": "Nigo Life Line Super Speciality Homoeopathic Clinic Dr Nidhi Gourav Rathore Neemuch",
    "hours": null,
    "image_url": "https://www.bing.com/maps/geoplat/REST/v1/Imagery/Map/RoadVibrant?ms=92,112&key=AnTcaqBi2ypp0xI-OZNi4W_ik2KhjgpqioTAtXLC8GzkMBQRMlyxvxyTnd5b73im&c=en-US&ur=in&da=n&logo=n&fmt=png&od=1&shading=hill&pp=24.466707,74.872986;dfp"
  },
  {
    "name": "Sarvarth Spine Clinic",
    "address": "Goverdhan Nagar Near Aypaa Mandir, Front of new J.K ITI Building, Nimbahera, Rajasthan 312601",
    "phone": "Sarvarth Spine Clinic",
    "hours": null,
    "image_url": null
  },
  {
    "name": "Sanjeevani Homoeopathy Clinic, Dr.Lokendra Patidar",
    "address": "5, Dhaniram Sagar Complex, Bagyeshwar Mandir Road, Near to Shri Gayatri Shakti Peeth, Neemuch Chawni, N…",
    "phone": "Sanjeevani Homoeopathy Clinic, Dr.Lokendra Patidar",
    "hours": null,
    "image_url": "https://www.bing.com/maps/geoplat/REST/v1/Imagery/Map/RoadVibrant?ms=92,112&key=AnTcaqBi2ypp0xI-OZNi4W_ik2KhjgpqioTAtXLC8GzkMBQRMlyxvxyTnd5b73im&c=en-US&ur=in&da=n&logo=n&fmt=png&od=1&shading=hill&pp=24.460583,74.871353;dfp"
  },
  {
    "name": "Devdhar Diagnostic Centre Llp",
    "address": "Opp. Choudhary Nursing Home, Bihar Bagh, Mehnot Nagar, Neemuch, Madhya Pradesh",
    "phone": "Devdhar Diagnostic Centre Llp",
    "hours": null,
    "image_url": null
  },
  {
    "name": "Madhavam Diagnostics Neemuch {Pathology Lab} | Best Diagnostic Centre | Neemuch",
    "address": "Shri Giridhar, 3, Jawahar Nagar Showroom Chouraha, Near Kamla Nursery, Neemuch, Madhya Pradesh",
    "phone": "Madhavam Diagnostics Neemuch {Pathology Lab} | Best Diagnostic Centre | Neemuch",
    "hours": null,
    "image_url": "https://www.bing.com/maps/geoplat/REST/v1/Imagery/Map/RoadVibrant?ms=92,112&key=AnTcaqBi2ypp0xI-OZNi4W_ik2KhjgpqioTAtXLC8GzkMBQRMlyxvxyTnd5b73im&c=en-US&ur=in&da=n&logo=n&fmt=png&od=1&shading=hill&pp=24.463808,74.873909;dfp"
  },
  {
    "name": "Suvidha Diagnostic Center",
    "address": "Near Sinhal Orthopedic, Manasa Road, Neemuch, Madhya Pradesh, Madhya Pradesh 458441",
    "phone": "Suvidha Diagnostic Center",
    "hours": null,
    "image_url": null
  },
  {
    "name": "Shri Nath Clinic",
    "address": "Sindhi Colony, Road No. 8, Chittor Garh, Chittorgarh, Rajasthan 312001",
    "phone": "Shri Nath Clinic",
    "hours": null,
    "image_url": null
  },
  {
    "name": "PILES clinic Chittaurgarh",
    "address": "8A Panchwati Colony Near Kiran Sonography, Chittorgarh, Rajasthan 312001",
    "phone": "PILES clinic Chittaurgarh",
    "hours": null,
    "image_url": null
  }
]