[
  {
    "name": "Dr. Anitha Choppavarapu",
    "address": "Apollo Specialty Hospitals Nellore, # 16/ 111/ 1133, Muttukur Road Pinakini Nagar, Nellore, Andhra Prades…",
    "phone": "Dr. Anitha Choppavarapu",
    "hours": "Open· Closes 18:00",
    "image_url": "/th?id=OLC.WUHZZdQWiDnzqA480x360&w=92&h=134&c=8&rs=1&qlt=80&cdv=1&pid=Local"
  },
  {
    "name": "Dr. Sai Mahesh. A.V. S",
    "address": "Apollo Specialty Hospitals Nellore, # 16/ 111/ 1133, Muttukur Road Pinakini Nagar, Nellore, Andhra Prades…",
    "phone": "Dr. Sai Mahesh. A.V. S",
    "hours": "Open· Closes 17:00",
    "image_url": "/th?id=OLC.QkSzHThc%2fUy8fg480x360&w=92&h=134&c=8&rs=1&qlt=80&cdv=1&pid=Local"
  },
  {
    "name": "Best Surgeon - Dr. Mahesh | Apollo Hospitals | Nellore",
    "address": "16/111, 1133, Muthukur Rd, Pinakini Avenue, Ramji Nagar, Nellore, Andhra Pradesh 524004",
    "phone": "Best Surgeon - Dr. Mahesh | Apollo Hospitals | Nellore",
    "hours": "Open· Closes 22:00",
    "image_url": "/th?id=OLC.n2u%2fjX%2fagxKtJQ480x360&w=92&h=134&c=8&rs=1&qlt=80&cdv=1&pid=Local"
  },
  {
    "name": "Dr",
    "address": "NH-5, Chinthareddypalem Cross Road, Alahari Nagar, Chintareddy Palem, Nellore, Andhra Pradesh 524003",
    "phone": "Dr",
    "hours": null,
    "image_url": "https://www.bing.com/maps/geoplat/REST/v1/Imagery/Map/RoadVibrant?ms=92,112&key=AnTcaqBi2ypp0xI-OZNi4W_ik2KhjgpqioTAtXLC8GzkMBQRMlyxvxyTnd5b73im&c=en-US&ur=in&da=n&logo=n&fmt=png&od=1&shading=hill&pp=14.436907,79.999329;dfp"
  },
  {
    "name": "Dr. Telli Venkata Pradeep Kumar- General Physician in Srikakulam",
    "address": "Telli Venkata Pradeep Kumar's Clinic Ars Clinic, Dni Railway Junction, Andhra Pradesh",
    "phone": "Dr. Telli Venkata Pradeep Kumar- General Physician in Srikakulam",
    "hours": null,
    "image_url": "https://www.bing.com/maps/geoplat/REST/v1/Imagery/Map/RoadVibrant?ms=92,112&key=AnTcaqBi2ypp0xI-OZNi4W_ik2KhjgpqioTAtXLC8GzkMBQRMlyxvxyTnd5b73im&c=en-US&ur=in&da=n&logo=n&fmt=png&od=1&shading=hill&pp=14.409404,79.958282;dfp"
  },
  {
    "name": "Dr. Chakravarthy A K, 14+ yrs of Exp | Best Nephrologist  | Kidney Specialist | Best Nephrologists",
    "address": "16/111, Apollo Speciality Hospitals, 1133, Muthukur Rd, Pinakini Avenue, Ramji Nagar, Nellore, Andhra Pradesh",
    "phone": "Dr. Chakravarthy A K, 14+ yrs of Exp | Best Nephrologist  | Kidney Specialist | Best Nephrologists",
    "hours": null,
    "image_url": "https://www.bing.com/maps/geoplat/REST/v1/Imagery/Map/RoadVibrant?ms=92,112&key=AnTcaqBi2ypp0xI-OZNi4W_ik2KhjgpqioTAtXLC8GzkMBQRMlyxvxyTnd5b73im&c=en-US&ur=in&da=n&logo=n&fmt=png&od=1&shading=hill&pp=14.440212,79.989014;dfp"
  },
  {
    "name": "Dr. Rajmohan Reddy",
    "address": "Lotus Hospital, S2 Multiplex Road, Landmark, Nellore 524003",
    "phone": "Dr. Rajmohan Reddy",
    "hours": "Closed· Opens 17:00",
    "image_url": "https://www.bing.com/maps/geoplat/REST/v1/Imagery/Map/RoadVibrant?ms=92,112&key=AnTcaqBi2ypp0xI-OZNi4W_ik2KhjgpqioTAtXLC8GzkMBQRMlyxvxyTnd5b73im&c=en-US&ur=in&da=n&logo=n&fmt=png&od=1&shading=hill&pp=14.451429,79.984116;dfp"
  },
  {
    "name": "Dr. Surya. K",
    "address": "Apollo Specialty Hospitals Nellore, # 16/ 111/ 1133, Muttukur Road Pinakini Nagar, Nellore, Andhra Prades…",
    "phone": "Dr. Surya. K",
    "hours": "Open· Closes 18:00",
    "image_url": null
  },
  {
    "name": "Dr. Thalluri Gopala Krishnaiah",
    "address": "5 3rd Cross Road, Nellore, Andhra Pradesh 524003",
    "phone": "Dr. Thalluri Gopala Krishnaiah",
    "hours": null,
    "image_url": "https://www.bing.com/maps/geoplat/REST/v1/Imagery/Map/RoadVibrant?ms=92,112&key=AnTcaqBi2ypp0xI-OZNi4W_ik2KhjgpqioTAtXLC8GzkMBQRMlyxvxyTnd5b73im&c=en-US&ur=in&da=n&logo=n&fmt=png&od=1&shading=hill&pp=14.43206,79.973625;dfp"
  },
  {
    "name": "Dr. Votturu Gangadhar | Manasa Clinic",
    "address": "Surya Coplex, Pogathota 3Halls Road, Nellore, Madhya Pradesh 524003",
    "phone": "Dr. Votturu Gangadhar | Manasa Clinic",
    "hours": "Open· Closes 18:00",
    "image_url": null
  },
  {
    "name": "Dr. Shaik Hifza Jasmine",
    "address": "Chintareddypalem, Nellore, Andhra Pradesh",
    "phone": "Dr. Shaik Hifza Jasmine",
    "hours": "Closed· Opens 13:00",
    "image_url": "https://www.bing.com/maps/geoplat/REST/v1/Imagery/Map/RoadVibrant?ms=92,112&key=AnTcaqBi2ypp0xI-OZNi4W_ik2KhjgpqioTAtXLC8GzkMBQRMlyxvxyTnd5b73im&c=en-US&ur=in&da=n&logo=n&fmt=png&od=1&shading=hill&pp=14.431103,80.000389;dfp"
  },
  {
    "name": "Dr Madhav Desai - Best Nephrologist",
    "address": "NH-5, Chinthareddypalem Cross Road, Alahari Nagar, Chintareddy Palem, Nellore, Andhra Pradesh",
    "phone": "Dr Madhav Desai - Best Nephrologist",
    "hours": null,
    "image_url": "https://www.bing.com/maps/geoplat/REST/v1/Imagery/Map/RoadVibrant?ms=92,112&key=AnTcaqBi2ypp0xI-OZNi4W_ik2KhjgpqioTAtXLC8GzkMBQRMlyxvxyTnd5b73im&c=en-US&ur=in&da=n&logo=n&fmt=png&od=1&shading=hill&pp=14.43206,79.973625;dfp"
  },
  {
    "name": "Sri Rama Clinic",
    "address": "Vedayapalem, Nellore, Andhra Pradesh 524004",
    "phone": "Sri Rama Clinic",
    "hours": null,
    "image_url": "https://www.bing.com/maps/geoplat/REST/v1/Imagery/Map/RoadVibrant?ms=92,112&key=AnTcaqBi2ypp0xI-OZNi4W_ik2KhjgpqioTAtXLC8GzkMBQRMlyxvxyTnd5b73im&c=en-US&ur=in&da=n&logo=n&fmt=png&od=1&shading=hill&pp=14.410831,79.956055;dfp"
  },
  {
    "name": "Madhavi Clinic",
    "address": "Gowthami Nagar, Nellore, Andhra Pradesh 524004",
    "phone": "Madhavi Clinic",
    "hours": null,
    "image_url": "https://www.bing.com/maps/geoplat/REST/v1/Imagery/Map/RoadVibrant?ms=92,112&key=AnTcaqBi2ypp0xI-OZNi4W_ik2KhjgpqioTAtXLC8GzkMBQRMlyxvxyTnd5b73im&c=en-US&ur=in&da=n&logo=n&fmt=png&od=1&shading=hill&pp=14.424051,79.95742;dfp"
  },
  {
    "name": "Dr.B.Rosaiah Clinic",
    "address": "Kasturidevi Nagar, Pogha Thota, Nellore, Andhra Pradesh 524001",
    "phone": "Dr.B.Rosaiah Clinic",
    "hours": null,
    "image_url": null
  },
  {
    "name": "Dr. Dileep Nag Vinnakota - Best Dental Implant Doctors",
    "address": "16/2/124, Kasthuri Devi Nagar, Pogathota, Nellore, Andhra Pradesh 524001",
    "phone": "Dr. Dileep Nag Vinnakota - Best Dental Implant Doctors",
    "hours": "Open· Closes 21:00",
    "image_url": "https://www.bing.com/maps/geoplat/REST/v1/Imagery/Map/RoadVibrant?ms=92,134&key=AnTcaqBi2ypp0xI-OZNi4W_ik2KhjgpqioTAtXLC8GzkMBQRMlyxvxyTnd5b73im&c=en-US&ur=in&da=n&logo=n&fmt=png&od=1&shading=hill&pp=14.450949,79.983818;dfp"
  },
  {
    "name": "Dr. Mohan's Diabetes Specialities Centre",
    "address": "No.16/3/148, First Floor, Mini Bye Pass Road, Ramalingapuram, Nellore, Andhra Pradesh 524003",
    "phone": "Dr. Mohan's Diabetes Specialities Centre",
    "hours": "Open· Closes 16:30",
    "image_url": null
  },
  {
    "name": "Dr. Kadiyala Nageswara Prasad",
    "address": "Zakir Husain Nagar Road, Netha Nagar, Nellore, Andhra Pradesh",
    "phone": "Dr. Kadiyala Nageswara Prasad",
    "hours": "Open· Closes 13:00",
    "image_url": "https://www.bing.com/maps/geoplat/REST/v1/Imagery/Map/RoadVibrant?ms=92,112&key=AnTcaqBi2ypp0xI-OZNi4W_ik2KhjgpqioTAtXLC8GzkMBQRMlyxvxyTnd5b73im&c=en-US&ur=in&da=n&logo=n&fmt=png&od=1&shading=hill&pp=14.4663,79.999878;dfp"
  }
]