[
  {
    "name": "Dr. Sathish Devaraj",
    "address": "134/10, Vijayanagram, Near Rose Garden, Ooty, Tamil Nadu 643001",
    "phone": "Dr. Sathish Devaraj",
    "hours": "Closed· Opens 19:00",
    "image_url": "https://www.bing.com/maps/geoplat/REST/v1/Imagery/Map/RoadVibrant?ms=92,134&key=AnTcaqBi2ypp0xI-OZNi4W_ik2KhjgpqioTAtXLC8GzkMBQRMlyxvxyTnd5b73im&c=en-US&ur=in&da=n&logo=n&fmt=png&od=1&shading=hill&pp=11.405135,76.71154;dfp"
  },
  {
    "name": "Sri Ganabathy Clinic",
    "address": "Kadanadu Road, E Two Police Station, Ooty Denadikambai, Udhagamandalam, Tamil Nadu 643206",
    "phone": "Sri Ganabathy Clinic",
    "hours": null,
    "image_url": "https://www.bing.com/maps/geoplat/REST/v1/Imagery/Map/RoadVibrant?ms=92,112&key=AnTcaqBi2ypp0xI-OZNi4W_ik2KhjgpqioTAtXLC8GzkMBQRMlyxvxyTnd5b73im&c=en-US&ur=in&da=n&logo=n&fmt=png&od=1&shading=hill&pp=11.456053,76.722496;clcp"
  },
  {
    "name": "Dr. Ajmal Nazir | Best Gastroenterologist near me Wandoor Malappuram",
    "address": "Nims Hospital Kalikavu Road, Vaniyambalam, C H Bypass Rd, Wandoor, Kerala",
    "phone": "Dr. Ajmal Nazir | Best Gastroenterologist near me Wandoor Malappuram",
    "hours": "Open· Closes 14:00",
    "image_url": "https://www.bing.com/maps/geoplat/REST/v1/Imagery/Map/RoadVibrant?ms=92,112&key=AnTcaqBi2ypp0xI-OZNi4W_ik2KhjgpqioTAtXLC8GzkMBQRMlyxvxyTnd5b73im&c=en-US&ur=in&da=n&logo=n&fmt=png&od=1&shading=hill&pp=11.189736,76.261253;dfp"
  },
  {
    "name": "Dr. Sugumaran Diabetologist",
    "address": "Ruckmani Gandhi Clinic, Ooty, Tamil Nadu 643001",
    "phone": "Dr. Sugumaran Diabetologist",
    "hours": "Open· Closes 19:00",
    "image_url": "https://www.bing.com/maps/geoplat/REST/v1/Imagery/Map/RoadVibrant?ms=92,112&key=AnTcaqBi2ypp0xI-OZNi4W_ik2KhjgpqioTAtXLC8GzkMBQRMlyxvxyTnd5b73im&c=en-US&ur=in&da=n&logo=n&fmt=png&od=1&shading=hill&pp=11.404034,76.701904;clcp"
  },
  {
    "name": "Santosh Clinic",
    "address": "Indian Bank, No. 9, M.S. Lane, Upper Bazzar, No. 9 M.S. Lane, Ooty, Tamil Nadu 643001",
    "phone": "Santosh Clinic",
    "hours": null,
    "image_url": "https://www.bing.com/maps/geoplat/REST/v1/Imagery/Map/RoadVibrant?ms=92,112&key=AnTcaqBi2ypp0xI-OZNi4W_ik2KhjgpqioTAtXLC8GzkMBQRMlyxvxyTnd5b73im&c=en-US&ur=in&da=n&logo=n&fmt=png&od=1&shading=hill&pp=11.406856,76.702377;dfp"
  },
  {
    "name": "Dr Thaj Laser Skin & Hair Clinic",
    "address": "Near HFM Sait Memorial Hospital, Upper Bazar, Ooty, Tamil Nadu",
    "phone": "Dr Thaj Laser Skin & Hair Clinic",
    "hours": "Open· Closes 20:00",
    "image_url": "/th?id=OLC.oJ%2bekwbjKcHI7g480x360&w=92&h=112&c=8&rs=1&qlt=80&cdv=1&pid=Local"
  },
  {
    "name": "Dr.r.mahalingam Hospital",
    "address": "403, Main Road, Kandiyur, Thanjavur, Tamil Nadu, Tamil Nadu 613202",
    "phone": "Dr.r.mahalingam Hospital",
    "hours": "Open· Closes 13:00",
    "image_url": null
  },
  {
    "name": "Metropolis Healthcare Limited - Best Diagnostic Centre , Nilgiris",
    "address": "No 12/720, C6 to C8, DJ Complex, Devarshola Road, Gudalur, Near Bus Stand, Gudalur, Tamil Nadu 643212",
    "phone": "Metropolis Healthcare Limited - Best Diagnostic Centre , Nilgiris",
    "hours": "Open· Closes 20:00",
    "image_url": "https://www.bing.com/maps/geoplat/REST/v1/Imagery/Map/RoadVibrant?ms=92,134&key=AnTcaqBi2ypp0xI-OZNi4W_ik2KhjgpqioTAtXLC8GzkMBQRMlyxvxyTnd5b73im&c=en-US&ur=in&da=n&logo=n&fmt=png&od=1&shading=hill&pp=11.514777,76.479553;dfp"
  },
  {
    "name": "Ayurvalley Ayurvedic Clinic",
    "address": "Pandalur, Calicut – Ooty Main Road, Patari Complex, Nilgiris, Pandallur, Tamil Nadu",
    "phone": "Ayurvalley Ayurvedic Clinic",
    "hours": null,
    "image_url": null
  },
  {
    "name": "Dr. Logesh",
    "address": "Mettupalayam Government Hospital, 120, Coimbatore Main Rd, Mahadevapuram, Mettupalayam, Tamil Nadu …",
    "phone": "Dr. Logesh",
    "hours": "Open· Closes 12:00",
    "image_url": null
  },
  {
    "name": "HEALit Homoeopathic Speciality Clinic",
    "address": "CNG Road, CH Tower, Near Vaishali Silks, Chungathara, Kerala",
    "phone": "HEALit Homoeopathic Speciality Clinic",
    "hours": null,
    "image_url": "https://www.bing.com/maps/geoplat/REST/v1/Imagery/Map/RoadVibrant?ms=92,112&key=AnTcaqBi2ypp0xI-OZNi4W_ik2KhjgpqioTAtXLC8GzkMBQRMlyxvxyTnd5b73im&c=en-US&ur=in&da=n&logo=n&fmt=png&od=1&shading=hill&pp=11.33208,76.272392;dfp"
  },
  {
    "name": "Dr Sujatha Rommel",
    "address": "Kotagiri Road, Hotel Swagat, Kotagiri, Tamil Nadu 643217",
    "phone": "Dr Sujatha Rommel",
    "hours": null,
    "image_url": "https://www.bing.com/maps/geoplat/REST/v1/Imagery/Map/RoadVibrant?ms=92,112&key=AnTcaqBi2ypp0xI-OZNi4W_ik2KhjgpqioTAtXLC8GzkMBQRMlyxvxyTnd5b73im&c=en-US&ur=in&da=n&logo=n&fmt=png&od=1&shading=hill&pp=11.425811,76.866081;dfp"
  },
  {
    "name": "Sam-sam-homoeopathy-speciality-clinic",
    "address": "Sanafa Complex, Near Rabena Furniture, Mannarkkad, Kerala 678582",
    "phone": "Sam-sam-homoeopathy-speciality-clinic",
    "hours": "Open· Closes 13:00",
    "image_url": null
  },
  {
    "name": "Mountain Top Clinic",
    "address": "3, 245B, Pannimadai Rd, Hulical Drug R.F, Tamil Nadu",
    "phone": "Mountain Top Clinic",
    "hours": null,
    "image_url": null
  },
  {
    "name": "Gospel Clinic",
    "address": "Ottapattarai Road, Coonoor, Tamil Nadu 643102",
    "phone": "Gospel Clinic",
    "hours": null,
    "image_url": "https://www.bing.com/maps/geoplat/REST/v1/Imagery/Map/RoadVibrant?ms=92,112&key=AnTcaqBi2ypp0xI-OZNi4W_ik2KhjgpqioTAtXLC8GzkMBQRMlyxvxyTnd5b73im&c=en-US&ur=in&da=n&logo=n&fmt=png&od=1&shading=hill&pp=11.3477,76.783768;dfp"
  },
  {
    "name": "Ponmani Clinic and Scan Center(Dr.Prema Muralitharan)",
    "address": "Mount Rd, Kumaran Nagar, Coonoor, Tamil Nadu",
    "phone": "Ponmani Clinic and Scan Center(Dr.Prema Muralitharan)",
    "hours": null,
    "image_url": "https://www.bing.com/maps/geoplat/REST/v1/Imagery/Map/RoadVibrant?ms=92,112&key=AnTcaqBi2ypp0xI-OZNi4W_ik2KhjgpqioTAtXLC8GzkMBQRMlyxvxyTnd5b73im&c=en-US&ur=in&da=n&logo=n&fmt=png&od=1&shading=hill&pp=11.349423,76.797134;dfp"
  },
  {
    "name": "Ramakrishna Diagnostic Centre",
    "address": "B-49, Ooty, Tamil Nadu 643001",
    "phone": "Ramakrishna Diagnostic Centre",
    "hours": null,
    "image_url": "https://www.bing.com/maps/geoplat/REST/v1/Imagery/Map/RoadVibrant?ms=92,112&key=AnTcaqBi2ypp0xI-OZNi4W_ik2KhjgpqioTAtXLC8GzkMBQRMlyxvxyTnd5b73im&c=en-US&ur=in&da=n&logo=n&fmt=png&od=1&shading=hill&pp=11.410899,76.707611;dfp"
  },
  {
    "name": "Endoscopy Clinic",
    "address": "Appleby Road, Vannarpet, Coonoor, Tamil Nadu",
    "phone": "Endoscopy Clinic",
    "hours": null,
    "image_url": "https://www.bing.com/maps/geoplat/REST/v1/Imagery/Map/RoadVibrant?ms=92,112&key=AnTcaqBi2ypp0xI-OZNi4W_ik2KhjgpqioTAtXLC8GzkMBQRMlyxvxyTnd5b73im&c=en-US&ur=in&da=n&logo=n&fmt=png&od=1&shading=hill&pp=11.350238,76.78759;dfp"
  }
]