[
  {
    "name": "Dr. Abhijit Debbarma | Homoeopathy | Dr Abhijit Debbarma",
    "address": "Dr Abhijit Debbarma, Near Ramthakur Ashram, Ambassa, Tripura, India, 799289, Ambassa, Madhya Pradesh 799…",
    "phone": "Dr. Abhijit Debbarma | Homoeopathy | Dr Abhijit Debbarma",
    "hours": "Closed· Opens 16:00",
    "image_url": "/th?id=OLC.NUz209UPVOMgFA480x360&w=92&h=134&c=8&rs=1&qlt=80&cdv=1&pid=Local"
  },
  {
    "name": "DR. Tomojit Nath",
    "address": "Hospital Road, Dharmaragar, Tripura 799250",
    "phone": "DR. Tomojit Nath",
    "hours": "Open· Closes 20:00",
    "image_url": "https://www.bing.com/maps/geoplat/REST/v1/Imagery/Map/RoadVibrant?ms=92,134&key=AnTcaqBi2ypp0xI-OZNi4W_ik2KhjgpqioTAtXLC8GzkMBQRMlyxvxyTnd5b73im&c=en-US&ur=in&da=n&logo=n&fmt=png&od=1&shading=hill&pp=24.376909,92.160683;dfp"
  },
  {
    "name": "Dr. Sandip Dutta Roy- Gynaecologist",
    "address": "Roy Sandip Clinic, Dharmanagar, Dewanpassa, Tripura 799254",
    "phone": "Dr. Sandip Dutta Roy- Gynaecologist",
    "hours": "Opens in 6 mins",
    "image_url": "https://www.bing.com/maps/geoplat/REST/v1/Imagery/Map/RoadVibrant?ms=92,134&key=AnTcaqBi2ypp0xI-OZNi4W_ik2KhjgpqioTAtXLC8GzkMBQRMlyxvxyTnd5b73im&c=en-US&ur=in&da=n&logo=n&fmt=png&od=1&shading=hill&pp=24.38409,92.124611;dfp"
  },
  {
    "name": "Dr. Pritam Debnath",
    "address": "Jail Road, North Tripura, Tripura",
    "phone": "Dr. Pritam Debnath",
    "hours": "Open· Closes 12:00",
    "image_url": "https://www.bing.com/maps/geoplat/REST/v1/Imagery/Map/RoadVibrant?ms=92,112&key=AnTcaqBi2ypp0xI-OZNi4W_ik2KhjgpqioTAtXLC8GzkMBQRMlyxvxyTnd5b73im&c=en-US&ur=in&da=n&logo=n&fmt=png&od=1&shading=hill&pp=24.372984,92.153076;dfp"
  },
  {
    "name": "Care And Cure Homoeo Clinic",
    "address": "Nayapara, Rabindra Sarani Rd, Dharmanagar, Tripura",
    "phone": "Care And Cure Homoeo Clinic",
    "hours": null,
    "image_url": "https://www.bing.com/maps/geoplat/REST/v1/Imagery/Map/RoadVibrant?ms=92,112&key=AnTcaqBi2ypp0xI-OZNi4W_ik2KhjgpqioTAtXLC8GzkMBQRMlyxvxyTnd5b73im&c=en-US&ur=in&da=n&logo=n&fmt=png&od=1&shading=hill&pp=24.38397,92.163002;dfp"
  },
  {
    "name": "Dr. Nabendu Dental & Skin Clinic",
    "address": "Post Office, Opposite Halhali, Halahali, Tripura",
    "phone": "Dr. Nabendu Dental & Skin Clinic",
    "hours": null,
    "image_url": "https://www.bing.com/maps/geoplat/REST/v1/Imagery/Map/RoadVibrant?ms=92,112&key=AnTcaqBi2ypp0xI-OZNi4W_ik2KhjgpqioTAtXLC8GzkMBQRMlyxvxyTnd5b73im&c=en-US&ur=in&da=n&logo=n&fmt=png&od=1&shading=hill&pp=24.112455,91.820358;dfp"
  },
  {
    "name": "Best medicine doctor in guwahati| ■ Dr Kishore Kumar Talukdar",
    "address": "Meditrust, Bhikhamji Arcade, Tripura Road Jayanagar, Near Nerim College, Backside OF Caffene, Klub, Assam",
    "phone": "Best medicine doctor in guwahati| ■ Dr Kishore Kumar Talukdar",
    "hours": null,
    "image_url": "https://www.bing.com/maps/geoplat/REST/v1/Imagery/Map/RoadVibrant?ms=92,112&key=AnTcaqBi2ypp0xI-OZNi4W_ik2KhjgpqioTAtXLC8GzkMBQRMlyxvxyTnd5b73im&c=en-US&ur=in&da=n&logo=n&fmt=png&od=1&shading=hill&pp=23.745092,91.742737;dfp"
  },
  {
    "name": "Dr. Subhadeep Majumder",
    "address": "Nishikanta Homoeo Hall, A.A, Road, Teliamura, Tripura",
    "phone": "Dr. Subhadeep Majumder",
    "hours": null,
    "image_url": null
  },
  {
    "name": "Dermatologist. Apollo Information Center. Dr Surajit Gorai. MD",
    "address": "Apollo Gleneagles Hospital Information Centre. Palace Compound., Near Akashbani Bhawan and Air India Offi…",
    "phone": "Dermatologist. Apollo Information Center. Dr Surajit Gorai. MD",
    "hours": null,
    "image_url": null
  },
  {
    "name": "Dr. Debadyuti Chaudhuri",
    "address": "Landamark: Near Post Office Kunjaban, Sadar Agartala, West Tripura, Tripura",
    "phone": "Dr. Debadyuti Chaudhuri",
    "hours": "Open· Closes 16:00",
    "image_url": "https://www.bing.com/maps/geoplat/REST/v1/Imagery/Map/RoadVibrant?ms=92,112&key=AnTcaqBi2ypp0xI-OZNi4W_ik2KhjgpqioTAtXLC8GzkMBQRMlyxvxyTnd5b73im&c=en-US&ur=in&da=n&logo=n&fmt=png&od=1&shading=hill&pp=23.851093,91.29435;dfp"
  },
  {
    "name": "Unofficial Dr.Shyamotpal's Multispeciality Clinic, Kalyani, Dhaleswar.",
    "address": "Dhaleswar Rd No 1, Indranagar Gb Road, Agartala 7, Agartala, Tripura 799007",
    "phone": "Unofficial Dr.Shyamotpal's Multispeciality Clinic, Kalyani, Dhaleswar.",
    "hours": "Open· Closes 17:00",
    "image_url": null
  },
  {
    "name": "Central Diagnostic Clinic",
    "address": "Central Road, Near Sbi, Dharmanagar, North Tripura, Tripura 799250",
    "phone": "Central Diagnostic Clinic",
    "hours": null,
    "image_url": "https://www.bing.com/maps/geoplat/REST/v1/Imagery/Map/RoadVibrant?ms=92,112&key=AnTcaqBi2ypp0xI-OZNi4W_ik2KhjgpqioTAtXLC8GzkMBQRMlyxvxyTnd5b73im&c=en-US&ur=in&da=n&logo=n&fmt=png&od=1&shading=hill&pp=23.536001,91.503906;dfp"
  },
  {
    "name": "Dr. Payel Bhowmik- General Physician  Tripura",
    "address": "Dr. Payel Bhowmik Multispeciality Clinic, Near Rajarbag S B School, Gomati, Udaipur, Tripura 799116",
    "phone": "Dr. Payel Bhowmik- General Physician  Tripura",
    "hours": "Open· Closes 20:00",
    "image_url": null
  }
]