[
  {
    "name": "Dr. Vishal Vishnu Sawant",
    "address": "Ella Village, Off Ribandar Bypass Road, Old Goa, North Goa, Goa",
    "phone": "Dr. Vishal Vishnu Sawant",
    "hours": "Open· Closes 13:30",
    "image_url": "https://www.bing.com/maps/geoplat/REST/v1/Imagery/Map/RoadVibrant?ms=92,112&key=AnTcaqBi2ypp0xI-OZNi4W_ik2KhjgpqioTAtXLC8GzkMBQRMlyxvxyTnd5b73im&c=en-US&ur=in&da=n&logo=n&fmt=png&od=1&shading=hill&pp=15.485598,73.911148;dfp"
  },
  {
    "name": "Dr. Sandesh Dharwadkar",
    "address": "F-58, Vikrant Wings-3, North Goa, Goa",
    "phone": "Dr. Sandesh Dharwadkar",
    "hours": "Open· Closes 11:00",
    "image_url": "/th?id=OLC.MBTWype5JQJrCw480x360&w=92&h=112&c=8&rs=1&qlt=80&cdv=1&pid=Local"
  },
  {
    "name": "Dr Prakash R Shirodker",
    "address": "Corlim, Goa 403110",
    "phone": "Dr Prakash R Shirodker",
    "hours": null,
    "image_url": "https://www.bing.com/maps/geoplat/REST/v1/Imagery/Map/RoadVibrant?ms=92,112&key=AnTcaqBi2ypp0xI-OZNi4W_ik2KhjgpqioTAtXLC8GzkMBQRMlyxvxyTnd5b73im&c=en-US&ur=in&da=n&logo=n&fmt=png&od=1&shading=hill&pp=15.497886,73.931564;dfp"
  },
  {
    "name": "Dr. Irineu Pereira",
    "address": "409, Ambrosia Co-Operate Park, Patto Plaza, Landmark: Opposite Passport Office, North Goa, Goa",
    "phone": "Dr. Irineu Pereira",
    "hours": "Closed· Opens 11:00",
    "image_url": "https://www.bing.com/maps/geoplat/REST/v1/Imagery/Map/RoadVibrant?ms=92,112&key=AnTcaqBi2ypp0xI-OZNi4W_ik2KhjgpqioTAtXLC8GzkMBQRMlyxvxyTnd5b73im&c=en-US&ur=in&da=n&logo=n&fmt=png&od=1&shading=hill&pp=15.531252,73.824371;dfp"
  },
  {
    "name": "Dr. Charudutt Jayant Sambhaji",
    "address": "Manipal Hospital, Dr. E. Borges Road, Nio Dona Paula, Panaji, Pin- 403004, North Goa, North Goa",
    "phone": "Dr. Charudutt Jayant Sambhaji",
    "hours": "Open· Closes 16:00",
    "image_url": "/th?id=OLC.b0qEZKwtupmcgA480x360&w=92&h=134&c=8&rs=1&qlt=80&cdv=1&pid=Local"
  },
  {
    "name": "Manguirish Clinic",
    "address": "Vithalpur, Sanquelim, Gokulwadi, Desai Nagar, Goa, 403505, India, Carapur, Goa 403505",
    "phone": "Manguirish Clinic",
    "hours": null,
    "image_url": "https://www.bing.com/maps/geoplat/REST/v1/Imagery/Map/RoadVibrant?ms=92,112&key=AnTcaqBi2ypp0xI-OZNi4W_ik2KhjgpqioTAtXLC8GzkMBQRMlyxvxyTnd5b73im&c=en-US&ur=in&da=n&logo=n&fmt=png&od=1&shading=hill&pp=15.5626,74.011497;dfp"
  },
  {
    "name": "Dr. Dipchand Bhandare",
    "address": "Dr E Borges Road, Dona Paula, Panjim, North Goa, Goa",
    "phone": "Dr. Dipchand Bhandare",
    "hours": "Open· Closes 12:30",
    "image_url": null
  },
  {
    "name": "Dr. Sabyasachi Mukhopadhyay",
    "address": "Dr E Borges Road, Dona Paula, Panjim, North Goa, Goa",
    "phone": "Dr. Sabyasachi Mukhopadhyay",
    "hours": "Open· Closes 17:00",
    "image_url": "https://www.bing.com/maps/geoplat/REST/v1/Imagery/Map/RoadVibrant?ms=92,134&key=AnTcaqBi2ypp0xI-OZNi4W_ik2KhjgpqioTAtXLC8GzkMBQRMlyxvxyTnd5b73im&c=en-US&ur=in&da=n&logo=n&fmt=png&od=1&shading=hill&pp=15.46,73.813004;dfp"
  },
  {
    "name": "Dr. Elphiston Fernandes",
    "address": "Plot No.217-218, PDA Colony, North Goa, Goa",
    "phone": "Dr. Elphiston Fernandes",
    "hours": "Open· Closes 19:00",
    "image_url": null
  },
  {
    "name": "Dr Rohan Dessai",
    "address": "Dr E Borges Road, Dona Paula, Panjim, North Goa, Goa",
    "phone": "Dr Rohan Dessai",
    "hours": "Open· Closes 17:00",
    "image_url": "https://www.bing.com/maps/geoplat/REST/v1/Imagery/Map/RoadVibrant?ms=92,134&key=AnTcaqBi2ypp0xI-OZNi4W_ik2KhjgpqioTAtXLC8GzkMBQRMlyxvxyTnd5b73im&c=en-US&ur=in&da=n&logo=n&fmt=png&od=1&shading=hill&pp=15.46,73.813004;dfp"
  },
  {
    "name": "Dr. Kamat Clinic",
    "address": "419, Vasudev, Munang, Assagao, Goa 403507, India, North-goa, Goa 403507",
    "phone": "Dr. Kamat Clinic",
    "hours": null,
    "image_url": null
  },
  {
    "name": "Dr. Jagannath Kulkarni",
    "address": "Room no. 04, Ground Floor, Manipal Hospitals, Dona Paula, Dr E Borges Rd, Panaji, Goa",
    "phone": "Dr. Jagannath Kulkarni",
    "hours": "Open· Closes 17:00",
    "image_url": null
  },
  {
    "name": "Dr. Vardhan Bhobe",
    "address": "Plot No.217-218, PDA Colony, North Goa, Goa",
    "phone": "Dr. Vardhan Bhobe",
    "hours": "Open· Closes 19:00",
    "image_url": "https://www.bing.com/maps/geoplat/REST/v1/Imagery/Map/RoadVibrant?ms=92,112&key=AnTcaqBi2ypp0xI-OZNi4W_ik2KhjgpqioTAtXLC8GzkMBQRMlyxvxyTnd5b73im&c=en-US&ur=in&da=n&logo=n&fmt=png&od=1&shading=hill&pp=15.591859,73.813049;dfp"
  },
  {
    "name": "Shuddhi Clinic By Acharya Manish Ji - Best Ayurveda Doctor & Ayurvedic Treatment",
    "address": "Hno.882, Lane No 1 Provorim, Pundlik Nagar, Near Sanjay School, Goa 403501",
    "phone": "Shuddhi Clinic By Acharya Manish Ji - Best Ayurveda Doctor & Ayurvedic Treatment",
    "hours": "Open· Closes 18:00",
    "image_url": null
  },
  {
    "name": "Snehal Pile Clinic",
    "address": "Khadapabandh Main Road, North-goa, Goa 403401",
    "phone": "Snehal Pile Clinic",
    "hours": null,
    "image_url": "https://www.bing.com/maps/geoplat/REST/v1/Imagery/Map/RoadVibrant?ms=92,112&key=AnTcaqBi2ypp0xI-OZNi4W_ik2KhjgpqioTAtXLC8GzkMBQRMlyxvxyTnd5b73im&c=en-US&ur=in&da=n&logo=n&fmt=png&od=1&shading=hill&pp=15.400514,74.003342;dfp"
  },
  {
    "name": "Dr. Gurpreet Singh Gill",
    "address": "Trinity Hospital, Miramar, North Goa, Goa",
    "phone": "Dr. Gurpreet Singh Gill",
    "hours": "Closed· Opens 16:30",
    "image_url": "https://www.bing.com/maps/geoplat/REST/v1/Imagery/Map/RoadVibrant?ms=92,112&key=AnTcaqBi2ypp0xI-OZNi4W_ik2KhjgpqioTAtXLC8GzkMBQRMlyxvxyTnd5b73im&c=en-US&ur=in&da=n&logo=n&fmt=png&od=1&shading=hill&pp=15.484833,73.811554;dfp"
  },
  {
    "name": "Mrs.pallavi Usgaonkar Diet Care Clinic, Ponda",
    "address": "Opp Sushrusha Nursing Home, Near Maruti Temply.Ponda -goa, Ponda, Goa, India, Goa 403401",
    "phone": "Mrs.pallavi Usgaonkar Diet Care Clinic, Ponda",
    "hours": "Open· Closes 13:00",
    "image_url": null
  },
  {
    "name": "Dr. Minguel Rufino Monteiro",
    "address": "Dr E Borges Road, Dona Paula, Panjim, Goa., Landmark: Dr E Borges Road, Dona Paula 400012",
    "phone": "Dr. Minguel Rufino Monteiro",
    "hours": "Closed· Opens tomorrow 10:00",
    "image_url": null
  }
]