[
  {
    "name": "Dr. Deepak Khandelwal",
    "address": "West Punjabi Bagh, New Delhi, Delhi",
    "phone": "Dr. Deepak Khandelwal",
    "hours": "Closed· Opens 13:00",
    "image_url": "/th?id=OLC.DRgfbT3ALYYzVQ480x360&w=92&h=112&c=8&rs=1&qlt=80&cdv=1&pid=Local"
  },
  {
    "name": "Dr. Rashmi Aggarwal Clinic",
    "address": "Hansapuri Road, Near Aman Jewelers, Jorbagh, Tri Nagar, Delhi 110035",
    "phone": "Dr. Rashmi Aggarwal Clinic",
    "hours": "Open· Closes 13:00",
    "image_url": "https://www.bing.com/maps/geoplat/REST/v1/Imagery/Map/RoadVibrant?ms=92,134&key=AnTcaqBi2ypp0xI-OZNi4W_ik2KhjgpqioTAtXLC8GzkMBQRMlyxvxyTnd5b73im&c=en-US&ur=in&da=n&logo=n&fmt=png&od=1&shading=hill&pp=28.677872,77.156387;dfp"
  },
  {
    "name": "Dr. Ritu Gupta Clinic",
    "address": "C.H. Chattar Singh Baisoya Marg, Near Nisha Boutique, Jorbagh, Tri Nagar, Delhi 110035",
    "phone": "Dr. Ritu Gupta Clinic",
    "hours": null,
    "image_url": "https://www.bing.com/maps/geoplat/REST/v1/Imagery/Map/RoadVibrant?ms=92,112&key=AnTcaqBi2ypp0xI-OZNi4W_ik2KhjgpqioTAtXLC8GzkMBQRMlyxvxyTnd5b73im&c=en-US&ur=in&da=n&logo=n&fmt=png&od=1&shading=hill&pp=28.67824,77.158257;dfp"
  },
  {
    "name": "Singhal Dr Pradeep Kumar",
    "address": "I 155, Ashok Vihar, Phase -i, Delhi, 110052, India, North-West-Delhi, Delhi 110052",
    "phone": "Singhal Dr Pradeep Kumar",
    "hours": "Open· Closes 14:00",
    "image_url": "https://www.bing.com/maps/geoplat/REST/v1/Imagery/Map/RoadVibrant?ms=92,134&key=AnTcaqBi2ypp0xI-OZNi4W_ik2KhjgpqioTAtXLC8GzkMBQRMlyxvxyTnd5b73im&c=en-US&ur=in&da=n&logo=n&fmt=png&od=1&shading=hill&pp=28.690294,77.162178;dfp"
  },
  {
    "name": "Dr Sunil Massand Clinic",
    "address": "a-1/339, Keshav Puram. Landmark: Near A-2, Kendriya Vidyalaya, Delhi 110048",
    "phone": "Dr Sunil Massand Clinic",
    "hours": null,
    "image_url": "/th?id=OLC.UK%2bskkdf8nNZcQ480x360&w=92&h=112&c=8&rs=1&qlt=80&cdv=1&pid=Local"
  },
  {
    "name": "Dr. Shyam Gupta Clinic",
    "address": "Hansapuri Road, Near Bank Of Baroda, Onkar Nagar, Tri Nagar, Delhi 110034",
    "phone": "Dr. Shyam Gupta Clinic",
    "hours": "Open· Closes 12:00",
    "image_url": "https://www.bing.com/maps/geoplat/REST/v1/Imagery/Map/RoadVibrant?ms=92,134&key=AnTcaqBi2ypp0xI-OZNi4W_ik2KhjgpqioTAtXLC8GzkMBQRMlyxvxyTnd5b73im&c=en-US&ur=in&da=n&logo=n&fmt=png&od=1&shading=hill&pp=28.673822,77.160423;dfp"
  },
  {
    "name": "Gupta Dr Rajiv",
    "address": "12, Chaudhary Gulab Singh Marg, Phase 1, Ashok Vihar, Delhi 110052",
    "phone": "Gupta Dr Rajiv",
    "hours": "Closes in 6 mins",
    "image_url": "https://www.bing.com/maps/geoplat/REST/v1/Imagery/Map/RoadVibrant?ms=92,134&key=AnTcaqBi2ypp0xI-OZNi4W_ik2KhjgpqioTAtXLC8GzkMBQRMlyxvxyTnd5b73im&c=en-US&ur=in&da=n&logo=n&fmt=png&od=1&shading=hill&pp=28.684952,77.166588;dfp"
  },
  {
    "name": "Gupta Clinic",
    "address": "Hansapuri Road, Jorbagh, Tri Nagar, Delhi 110035",
    "phone": "Gupta Clinic",
    "hours": "Open· Closes 20:00",
    "image_url": "https://www.bing.com/maps/geoplat/REST/v1/Imagery/Map/RoadVibrant?ms=92,134&key=AnTcaqBi2ypp0xI-OZNi4W_ik2KhjgpqioTAtXLC8GzkMBQRMlyxvxyTnd5b73im&c=en-US&ur=in&da=n&logo=n&fmt=png&od=1&shading=hill&pp=28.681,77.164558;dfp"
  },
  {
    "name": "Jain Dr Prabhat",
    "address": "Guru Harkishan Marg, Near Kavita Handloom, Srinagar Garden, Pitam Pura, Delhi 110034",
    "phone": "Jain Dr Prabhat",
    "hours": "Open· Closes 12:30",
    "image_url": "https://www.bing.com/maps/geoplat/REST/v1/Imagery/Map/RoadVibrant?ms=92,134&key=AnTcaqBi2ypp0xI-OZNi4W_ik2KhjgpqioTAtXLC8GzkMBQRMlyxvxyTnd5b73im&c=en-US&ur=in&da=n&logo=n&fmt=png&od=1&shading=hill&pp=28.686432,77.139679;dfp"
  },
  {
    "name": "Dr Mahesh Chand Sharma",
    "address": "Ring Road, Near Kendriya Vidyalaya, Wazirpur Industrial Area, Ashok Vihar, Delhi 110052",
    "phone": "Dr Mahesh Chand Sharma",
    "hours": "Open· Closes 18:30",
    "image_url": "https://www.bing.com/maps/geoplat/REST/v1/Imagery/Map/RoadVibrant?ms=92,134&key=AnTcaqBi2ypp0xI-OZNi4W_ik2KhjgpqioTAtXLC8GzkMBQRMlyxvxyTnd5b73im&c=en-US&ur=in&da=n&logo=n&fmt=png&od=1&shading=hill&pp=28.699661,77.158928;dfp"
  },
  {
    "name": "Dr. Malhotra Clinic",
    "address": "Ashok Vihar Block A Road, Phase 3, Ashok Vihar, Delhi 110052",
    "phone": "Dr. Malhotra Clinic",
    "hours": "Open· Closes 13:30",
    "image_url": "https://www.bing.com/maps/geoplat/REST/v1/Imagery/Map/RoadVibrant?ms=92,134&key=AnTcaqBi2ypp0xI-OZNi4W_ik2KhjgpqioTAtXLC8GzkMBQRMlyxvxyTnd5b73im&c=en-US&ur=in&da=n&logo=n&fmt=png&od=1&shading=hill&pp=28.684797,77.184738;dfp"
  },
  {
    "name": "Dr. Neeraj Bajaj",
    "address": "3773, Main Road, Kanhaiya Nagar, Tri Nagar . Landmark: Near to Kanhaiya Nagar Metro Station, Delhi",
    "phone": "Dr. Neeraj Bajaj",
    "hours": "Open· Closes 13:30",
    "image_url": "https://www.bing.com/maps/geoplat/REST/v1/Imagery/Map/RoadVibrant?ms=92,112&key=AnTcaqBi2ypp0xI-OZNi4W_ik2KhjgpqioTAtXLC8GzkMBQRMlyxvxyTnd5b73im&c=en-US&ur=in&da=n&logo=n&fmt=png&od=1&shading=hill&pp=28.681049,77.164551;dfp"
  },
  {
    "name": "The Specialist Clinic",
    "address": "CH. Mange Ram Marg, Near Shri Ram Computers, Keshav Puram, Tri Nagar, Delhi 110035",
    "phone": "The Specialist Clinic",
    "hours": "Open· Closes 20:00",
    "image_url": null
  },
  {
    "name": "Dr. M Ajmal Khan Clinic",
    "address": "Vir Banda Bairagi Marg, Near Nafees Ahmed Clinic, Shivaji Nagar, Inderlok, Delhi 110035",
    "phone": "Dr. M Ajmal Khan Clinic",
    "hours": null,
    "image_url": "https://www.bing.com/maps/geoplat/REST/v1/Imagery/Map/RoadVibrant?ms=92,112&key=AnTcaqBi2ypp0xI-OZNi4W_ik2KhjgpqioTAtXLC8GzkMBQRMlyxvxyTnd5b73im&c=en-US&ur=in&da=n&logo=n&fmt=png&od=1&shading=hill&pp=28.671806,77.166428;dfp"
  },
  {
    "name": "Dr. Sudheer Sharma",
    "address": "Block L Road, Near Rakesh Jewelers, Block E, Shastri Nagar, Delhi 110052",
    "phone": "Dr. Sudheer Sharma",
    "hours": null,
    "image_url": "https://www.bing.com/maps/geoplat/REST/v1/Imagery/Map/RoadVibrant?ms=92,112&key=AnTcaqBi2ypp0xI-OZNi4W_ik2KhjgpqioTAtXLC8GzkMBQRMlyxvxyTnd5b73im&c=en-US&ur=in&da=n&logo=n&fmt=png&od=1&shading=hill&pp=28.673695,77.176025;dfp"
  },
  {
    "name": "Gupta Dr Ramesh C",
    "address": "B25, Ashok Vihar Police Station Road, Near Park, Ashok Vihar, Delhi 110052",
    "phone": "Gupta Dr Ramesh C",
    "hours": "Open· Closes 12:00",
    "image_url": "https://www.bing.com/maps/geoplat/REST/v1/Imagery/Map/RoadVibrant?ms=92,134&key=AnTcaqBi2ypp0xI-OZNi4W_ik2KhjgpqioTAtXLC8GzkMBQRMlyxvxyTnd5b73im&c=en-US&ur=in&da=n&logo=n&fmt=png&od=1&shading=hill&pp=28.690681,77.164345;dfp"
  },
  {
    "name": "Loknath Clinic",
    "address": "Maharshi Valmiki Marg, Near Shekhawat Jewelry, JJ Colony Wazirpur, Ashok Vihar, Delhi 110052",
    "phone": "Loknath Clinic",
    "hours": null,
    "image_url": "https://www.bing.com/maps/geoplat/REST/v1/Imagery/Map/RoadVibrant?ms=92,112&key=AnTcaqBi2ypp0xI-OZNi4W_ik2KhjgpqioTAtXLC8GzkMBQRMlyxvxyTnd5b73im&c=en-US&ur=in&da=n&logo=n&fmt=png&od=1&shading=hill&pp=28.679247,77.168793;dfp"
  },
  {
    "name": "Dr Richa Arora, Skin Specialist, Behl Wholistic Health Centre",
    "address": "Shopping Complex, A-7 Nimri Colony, Ashok Vihar IV, Delhi",
    "phone": "Dr Richa Arora, Skin Specialist, Behl Wholistic Health Centre",
    "hours": null,
    "image_url": null
  }
]