[
  {
    "name": "Dr Vikas Maurya, Fortis Shalimar Bagh",
    "address": "Second Floor OPD-221, AA-299, Shaheed Udham Singh Marg, AA Block, Poorbi Shalimar Bag, Shalimar Bagh, …",
    "phone": "Dr Vikas Maurya, Fortis Shalimar Bagh",
    "hours": "Open· Closes 16:00",
    "image_url": "/th?id=OLC.wVFii%2flPqhaY2Q480x360&w=92&h=134&c=8&rs=1&qlt=80&cdv=1&pid=Local"
  },
  {
    "name": "Dr. Rakesh Sood, Fortis Shalimar Bagh, General Physician",
    "address": "Cabin no-666, AA-299, Shaheed Udham Singh Marg, AA Block, Poorbi Shalimar Bag, Shalimar Bagh, Delhi 1100…",
    "phone": "Dr. Rakesh Sood, Fortis Shalimar Bagh, General Physician",
    "hours": "Closed· Opens Sep 28 at 10:00",
    "image_url": "/th?id=OLC.7cv2nMWzhhw2lQ480x360&w=92&h=134&c=8&rs=1&qlt=80&cdv=1&pid=Local"
  },
  {
    "name": "Dr Manoj Arora, Fortis Shalimar Bagh",
    "address": "Second Floor OPD-210, AA-299, Shaheed Udham Singh Marg, AA Block, Poorbi Shalimar Bag, Shalimar Bagh, …",
    "phone": "Dr Manoj Arora, Fortis Shalimar Bagh",
    "hours": "Closed· Opens 11:00",
    "image_url": "/th?id=OLC.sE5OwajqdHCOdA480x360&w=92&h=134&c=8&rs=1&qlt=80&cdv=1&pid=Local"
  },
  {
    "name": "Dr. Archana Gupta- BAMS",
    "address": "Dr. Archana Gupta's Clinic D 14 A/2, Model Town, Near PNB Bank, Rajpath Area, Central Secretariat, New Del…",
    "phone": "Dr. Archana Gupta- BAMS",
    "hours": null,
    "image_url": "https://www.bing.com/maps/geoplat/REST/v1/Imagery/Map/RoadVibrant?ms=92,112&key=AnTcaqBi2ypp0xI-OZNi4W_ik2KhjgpqioTAtXLC8GzkMBQRMlyxvxyTnd5b73im&c=en-US&ur=in&da=n&logo=n&fmt=png&od=1&shading=hill&pp=28.708227,77.184982;dfp"
  },
  {
    "name": "Ashish Clinic",
    "address": "Bhagwan Mahavir Marg, Poorvi Shalimar Bagh, Shalimar Bagh, Delhi 110052",
    "phone": "Ashish Clinic",
    "hours": null,
    "image_url": "/th?id=OLC.flDyvx18D4Mncw480x360&w=92&h=112&c=8&rs=1&qlt=80&cdv=1&pid=Local"
  },
  {
    "name": "Dr Naveen Ailawadi",
    "address": "Chest Clinic, Shop No 2, B1, Rajan Babu Rd, Adarsh Nagar, Delhi",
    "phone": "Dr Naveen Ailawadi",
    "hours": "Open 24 hours",
    "image_url": "/th?id=OLC.N%2f9zRvb80lrPhw480x360&w=92&h=134&c=8&rs=1&qlt=80&cdv=1&pid=Local"
  },
  {
    "name": "Dev Homoeopathic Clinic (Dr.Devesh Takkar)",
    "address": "AB 182, Bhagwan Mahavir Marg, Poorvi Shalimar Bagh, Shalimar Bagh, Delhi 110052",
    "phone": "Dev Homoeopathic Clinic (Dr.Devesh Takkar)",
    "hours": "Open· Closes 13:00",
    "image_url": null
  },
  {
    "name": "Dr. Naresh Kumar Goyal - Best Cardiologist Doctor in delhi Fortis Hospital | Heart failure Doctor in delhi NCR",
    "address": "AA-299, Shaheed Udham Singh Marg, AA Block, Poorbi Shalimar Bag, Shalimar Bagh, Cardiologist Doctor, Delhi",
    "phone": "Dr. Naresh Kumar Goyal - Best Cardiologist Doctor in delhi Fortis Hospital | Heart failure Doctor in delhi NCR",
    "hours": null,
    "image_url": "https://www.bing.com/maps/geoplat/REST/v1/Imagery/Map/RoadVibrant?ms=92,112&key=AnTcaqBi2ypp0xI-OZNi4W_ik2KhjgpqioTAtXLC8GzkMBQRMlyxvxyTnd5b73im&c=en-US&ur=in&da=n&logo=n&fmt=png&od=1&shading=hill&pp=28.709524,77.168648;dfp"
  },
  {
    "name": "Dr. Nityanand Tripathi. Best Cardiologist in Delhi, INTERVENTIONAL CARDIOLOGIST AND ELECTROP…",
    "address": "Fortis Hospital, A Block, Shalimarbag, AA Block, Shalimarbg, New Delhi, Delhi",
    "phone": "Dr. Nityanand Tripathi. Best Cardiologist in Delhi, INTERVENTIONAL CARDIOLOGIST AND ELECTROP…",
    "hours": null,
    "image_url": "https://www.bing.com/maps/geoplat/REST/v1/Imagery/Map/RoadVibrant?ms=92,112&key=AnTcaqBi2ypp0xI-OZNi4W_ik2KhjgpqioTAtXLC8GzkMBQRMlyxvxyTnd5b73im&c=en-US&ur=in&da=n&logo=n&fmt=png&od=1&shading=hill&pp=28.705296,77.170387;dfp"
  },
  {
    "name": "Dr. Neeraj Goel",
    "address": "D-1, Hakikat Rai Rd, Block D, Adarsh Nagar, Delhi",
    "phone": "Dr. Neeraj Goel",
    "hours": "Closed· Opens 19:00",
    "image_url": null
  },
  {
    "name": "Dr. Sharma Clinic",
    "address": "Azadpur Flyover, Near Shri Hari Mandir, Azadpur Village, Azadpur, Delhi 110033",
    "phone": "Dr. Sharma Clinic",
    "hours": null,
    "image_url": "https://www.bing.com/maps/geoplat/REST/v1/Imagery/Map/RoadVibrant?ms=92,112&key=AnTcaqBi2ypp0xI-OZNi4W_ik2KhjgpqioTAtXLC8GzkMBQRMlyxvxyTnd5b73im&c=en-US&ur=in&da=n&logo=n&fmt=png&od=1&shading=hill&pp=28.708094,77.177223;dfp"
  },
  {
    "name": "Dr. health",
    "address": "Metro Station, B-41, Brahma Kumari, Road, Near Model Town, Derawal Nagar, Delhi",
    "phone": "Dr. health",
    "hours": null,
    "image_url": "https://www.bing.com/maps/geoplat/REST/v1/Imagery/Map/RoadVibrant?ms=92,112&key=AnTcaqBi2ypp0xI-OZNi4W_ik2KhjgpqioTAtXLC8GzkMBQRMlyxvxyTnd5b73im&c=en-US&ur=in&da=n&logo=n&fmt=png&od=1&shading=hill&pp=28.702299,77.190613;dfp"
  },
  {
    "name": "Dr. Sankalp Bali",
    "address": "B Tagore Park, Opp. Canara Bank Near Model Town 1, New Delhi, Delhi 110009",
    "phone": "Dr. Sankalp Bali",
    "hours": "Closed· Opens 18:00",
    "image_url": null
  },
  {
    "name": "Dr. A.K Malhotra",
    "address": "G-8, Model Town-III, Kirpal Market, Model Town, Delhi 110009",
    "phone": "Dr. A.K Malhotra",
    "hours": "Closed· Opens 18:30",
    "image_url": null
  },
  {
    "name": "Dr. S K Mehta",
    "address": "Model Town 3rd Main Road, Near Elegance Beauty Parlour, Phase 3, Azadpur, Delhi 110009",
    "phone": "Dr. S K Mehta",
    "hours": "Closed· Opens 11:00",
    "image_url": null
  },
  {
    "name": "Dr. Pradeep Jain, Best Laparoscopic Surgeon, Bariatric Surgeon, Best Cancer Surgeon, Weight loss Surgeon",
    "address": "MIG Flats, Pocket C, 13A, Near Satyavati College, Pocket A, Phase 3, Ashok Vihar, New Delhi, Delhi",
    "phone": "Dr. Pradeep Jain, Best Laparoscopic Surgeon, Bariatric Surgeon, Best Cancer Surgeon, Weight loss Surgeon",
    "hours": "Closed· Opens 18:00",
    "image_url": null
  },
  {
    "name": "Dr. Richa Arora Agarwal",
    "address": "A-Block, Delhi",
    "phone": "Dr. Richa Arora Agarwal",
    "hours": "Closed· Opens 16:00",
    "image_url": "https://www.bing.com/maps/geoplat/REST/v1/Imagery/Map/RoadVibrant?ms=92,112&key=AnTcaqBi2ypp0xI-OZNi4W_ik2KhjgpqioTAtXLC8GzkMBQRMlyxvxyTnd5b73im&c=en-US&ur=in&da=n&logo=n&fmt=png&od=1&shading=hill&pp=28.709709,77.169983;dfp"
  },
  {
    "name": "Dr. Pramod Sharma",
    "address": "Plot Number 3 & 4 (Basement), LSC Savitri Bhawan, A-Block, Delhi",
    "phone": "Dr. Pramod Sharma",
    "hours": "Closed· Opens 17:30",
    "image_url": "https://www.bing.com/maps/geoplat/REST/v1/Imagery/Map/RoadVibrant?ms=92,112&key=AnTcaqBi2ypp0xI-OZNi4W_ik2KhjgpqioTAtXLC8GzkMBQRMlyxvxyTnd5b73im&c=en-US&ur=in&da=n&logo=n&fmt=png&od=1&shading=hill&pp=28.715096,77.173897;clcp"
  }
]