[
  {
    "name": "Dr. Tamal Chakraborty, Treated 4K+ Patients | Best General Physician in North 24 Parganas | Fever & Diab…",
    "address": "Barrackpore Trunk Rd, Sukchar, Sodepur, Kolkata, Khardaha, West Bengal",
    "phone": "Dr. Tamal Chakraborty, Treated 4K+ Patients | Best General Physician in North 24 Parganas | Fever & Diab…",
    "hours": null,
    "image_url": "https://www.bing.com/maps/geoplat/REST/v1/Imagery/Map/RoadVibrant?ms=92,112&key=AnTcaqBi2ypp0xI-OZNi4W_ik2KhjgpqioTAtXLC8GzkMBQRMlyxvxyTnd5b73im&c=en-US&ur=in&da=n&logo=n&fmt=png&od=1&shading=hill&pp=22.704197,88.374596;dfp"
  },
  {
    "name": "S S C Clinic",
    "address": "Uchildaha, North 24 Parganas, Haroa Road, North 24 Parganas, West Bengal 743425",
    "phone": "S S C Clinic",
    "hours": null,
    "image_url": "https://www.bing.com/maps/geoplat/REST/v1/Imagery/Map/RoadVibrant?ms=92,112&key=AnTcaqBi2ypp0xI-OZNi4W_ik2KhjgpqioTAtXLC8GzkMBQRMlyxvxyTnd5b73im&c=en-US&ur=in&da=n&logo=n&fmt=png&od=1&shading=hill&pp=22.596279,88.600479;dfp"
  },
  {
    "name": "New Life Clinic",
    "address": "Haroa Rd, Deulia, West Bengal",
    "phone": "New Life Clinic",
    "hours": null,
    "image_url": "https://www.bing.com/maps/geoplat/REST/v1/Imagery/Map/RoadVibrant?ms=92,112&key=AnTcaqBi2ypp0xI-OZNi4W_ik2KhjgpqioTAtXLC8GzkMBQRMlyxvxyTnd5b73im&c=en-US&ur=in&da=n&logo=n&fmt=png&od=1&shading=hill&pp=22.694359,88.685555;dfp"
  },
  {
    "name": "Devi Doctors - spl Corner & Diagnostic Centre",
    "address": "Jessore Road.Habra (N) 24 Parganas, Habra, West Bengal, West Bengal 743263",
    "phone": "Devi Doctors - spl Corner & Diagnostic Centre",
    "hours": "Open· Closes 21:00",
    "image_url": "/th?id=OLC.vWLzaLqz3ubEOQ480x360&w=92&h=134&c=8&rs=1&qlt=80&cdv=1&pid=Local"
  },
  {
    "name": "Dr. Sukanya Das",
    "address": "Itinda Road, North 24 Parganas, West Bengal",
    "phone": "Dr. Sukanya Das",
    "hours": "Closed· Opens 15:00",
    "image_url": "https://www.bing.com/maps/geoplat/REST/v1/Imagery/Map/RoadVibrant?ms=92,112&key=AnTcaqBi2ypp0xI-OZNi4W_ik2KhjgpqioTAtXLC8GzkMBQRMlyxvxyTnd5b73im&c=en-US&ur=in&da=n&logo=n&fmt=png&od=1&shading=hill&pp=22.663181,88.870056;dfp"
  },
  {
    "name": "Dr. Gautam Saha",
    "address": "Basirhat North 24 Parganas, North 24 Parganas, West Bengal",
    "phone": "Dr. Gautam Saha",
    "hours": "Closed· Opens Thu 17:00",
    "image_url": "/th?id=OLC.SuiXBFcSqZQY4g480x360&w=92&h=112&c=8&rs=1&qlt=80&cdv=1&pid=Local"
  },
  {
    "name": "Dr Sabana Parvin Clinic",
    "address": "Pukhuria, Basirhat, West Bengal 743445",
    "phone": "Dr Sabana Parvin Clinic",
    "hours": null,
    "image_url": "https://www.bing.com/maps/geoplat/REST/v1/Imagery/Map/RoadVibrant?ms=92,112&key=AnTcaqBi2ypp0xI-OZNi4W_ik2KhjgpqioTAtXLC8GzkMBQRMlyxvxyTnd5b73im&c=en-US&ur=in&da=n&logo=n&fmt=png&od=1&shading=hill&pp=22.615631,88.762482;dfp"
  },
  {
    "name": "Dr. Gautam Saha",
    "address": "Arena Market Habra, North 24 Parganas, West Bengal",
    "phone": "Dr. Gautam Saha",
    "hours": "Closed· Opens 11:00",
    "image_url": null
  },
  {
    "name": "Dr Lal PathLabs",
    "address": "Prithibia Road, Post - Debalaya, Berachampa, Dist - 24 Pgns (N)-743424, North 24 Parganas, West Bengal, 74…",
    "phone": "Dr Lal PathLabs",
    "hours": "Open· Closes 19:30",
    "image_url": "https://www.bing.com/maps/geoplat/REST/v1/Imagery/Map/RoadVibrant?ms=92,134&key=AnTcaqBi2ypp0xI-OZNi4W_ik2KhjgpqioTAtXLC8GzkMBQRMlyxvxyTnd5b73im&c=en-US&ur=in&da=n&logo=n&fmt=png&od=1&shading=hill&pp=22.733759,88.672684;dfp"
  },
  {
    "name": "Dr T K Sarathi Clinic",
    "address": "Abudaiyan, Basirhat, West Bengal 743411",
    "phone": "Dr T K Sarathi Clinic",
    "hours": null,
    "image_url": null
  },
  {
    "name": "Dr M.S.Ghosh Clinic",
    "address": "1St Floor, Station Road, Habra Bazar, Habra, West Bengal 743263",
    "phone": "Dr M.S.Ghosh Clinic",
    "hours": null,
    "image_url": "https://www.bing.com/maps/geoplat/REST/v1/Imagery/Map/RoadVibrant?ms=92,112&key=AnTcaqBi2ypp0xI-OZNi4W_ik2KhjgpqioTAtXLC8GzkMBQRMlyxvxyTnd5b73im&c=en-US&ur=in&da=n&logo=n&fmt=png&od=1&shading=hill&pp=22.842031,88.657753;dfp"
  },
  {
    "name": "Dr. Dipak Kumar Sarma",
    "address": "Jessore Rd, Habra, West Bengal",
    "phone": "Dr. Dipak Kumar Sarma",
    "hours": null,
    "image_url": "https://www.bing.com/maps/geoplat/REST/v1/Imagery/Map/RoadVibrant?ms=92,112&key=AnTcaqBi2ypp0xI-OZNi4W_ik2KhjgpqioTAtXLC8GzkMBQRMlyxvxyTnd5b73im&c=en-US&ur=in&da=n&logo=n&fmt=png&od=1&shading=hill&pp=22.835732,88.641281;dfp"
  },
  {
    "name": "Dr Anindya Dasgupta | Emergency Medicine | Narayana Hospital",
    "address": "Narayana Hospital, Barasat, 78, Jessore Road (South), Barasat, West Bengal 700127",
    "phone": "Dr Anindya Dasgupta | Emergency Medicine | Narayana Hospital",
    "hours": "Open· Closes 18:00",
    "image_url": "https://www.bing.com/maps/geoplat/REST/v1/Imagery/Map/RoadVibrant?ms=92,134&key=AnTcaqBi2ypp0xI-OZNi4W_ik2KhjgpqioTAtXLC8GzkMBQRMlyxvxyTnd5b73im&c=en-US&ur=in&da=n&logo=n&fmt=png&od=1&shading=hill&pp=22.711395,88.477692;dfp"
  },
  {
    "name": "Dr. Dibyendu Biswas Clinic",
    "address": "Station Road, Tegharia, West Bengal 743273",
    "phone": "Dr. Dibyendu Biswas Clinic",
    "hours": null,
    "image_url": "https://www.bing.com/maps/geoplat/REST/v1/Imagery/Map/RoadVibrant?ms=92,112&key=AnTcaqBi2ypp0xI-OZNi4W_ik2KhjgpqioTAtXLC8GzkMBQRMlyxvxyTnd5b73im&c=en-US&ur=in&da=n&logo=n&fmt=png&od=1&shading=hill&pp=22.901899,88.787399;dfp"
  },
  {
    "name": "Metropolis Healthcare Limited - Best Diagnostic Centre In Baduria",
    "address": "Katiahat Bazar, Baduria, North 24 Parganas, West Bengal 743427",
    "phone": "Metropolis Healthcare Limited - Best Diagnostic Centre In Baduria",
    "hours": "Open· Closes 20:00",
    "image_url": "https://www.bing.com/maps/geoplat/REST/v1/Imagery/Map/RoadVibrant?ms=92,134&key=AnTcaqBi2ypp0xI-OZNi4W_ik2KhjgpqioTAtXLC8GzkMBQRMlyxvxyTnd5b73im&c=en-US&ur=in&da=n&logo=n&fmt=png&od=1&shading=hill&pp=22.731943,88.862701;dfp"
  },
  {
    "name": "Dr Lal PathLabs - Patient Service Centre",
    "address": "Dag No 266, Taki Road, Basirhat, North 24 Parganas 743428",
    "phone": "Dr Lal PathLabs - Patient Service Centre",
    "hours": null,
    "image_url": "https://www.bing.com/maps/geoplat/REST/v1/Imagery/Map/RoadVibrant?ms=92,112&key=AnTcaqBi2ypp0xI-OZNi4W_ik2KhjgpqioTAtXLC8GzkMBQRMlyxvxyTnd5b73im&c=en-US&ur=in&da=n&logo=n&fmt=png&od=1&shading=hill&pp=22.666218,88.85305;dfp"
  },
  {
    "name": "Dr Sujata Bhattacharya",
    "address": "Barasat, Jessore Road, Near Champadali More, North 24 Parganas, Barasat, West Bengal",
    "phone": "Dr Sujata Bhattacharya",
    "hours": null,
    "image_url": null
  },
  {
    "name": "Dr. Sayan Hazra | ENT | Narayana Hospital",
    "address": "Narayana Hospital, Barasat, 78, Jessore Road (South), Barasat, West Bengal 700127",
    "phone": "Dr. Sayan Hazra | ENT | Narayana Hospital",
    "hours": "Open· Closes 17:00",
    "image_url": "https://www.bing.com/maps/geoplat/REST/v1/Imagery/Map/RoadVibrant?ms=92,134&key=AnTcaqBi2ypp0xI-OZNi4W_ik2KhjgpqioTAtXLC8GzkMBQRMlyxvxyTnd5b73im&c=en-US&ur=in&da=n&logo=n&fmt=png&od=1&shading=hill&pp=22.705275,88.472176;dfp"
  }
]