[
  {
    "name": "Dr. Umesh Bhatnagar",
    "address": "Mangal Pandey Marg, Near Gulshan Hair Salon, Bhajanpura, Shahdara, Delhi 110053",
    "phone": "Dr. Umesh Bhatnagar",
    "hours": "Open· Closes 12:00",
    "image_url": "https://www.bing.com/maps/geoplat/REST/v1/Imagery/Map/RoadVibrant?ms=92,134&key=AnTcaqBi2ypp0xI-OZNi4W_ik2KhjgpqioTAtXLC8GzkMBQRMlyxvxyTnd5b73im&c=en-US&ur=in&da=n&logo=n&fmt=png&od=1&shading=hill&pp=28.702492,77.261177;dfp"
  },
  {
    "name": "Dr. Dinesh Sharma",
    "address": "Karawal Nagar Road, Near Bombay Gents Beauty Parlour, Biharipur Village, Khajoori Khas, Delhi 110094",
    "phone": "Dr. Dinesh Sharma",
    "hours": null,
    "image_url": "https://www.bing.com/maps/geoplat/REST/v1/Imagery/Map/RoadVibrant?ms=92,112&key=AnTcaqBi2ypp0xI-OZNi4W_ik2KhjgpqioTAtXLC8GzkMBQRMlyxvxyTnd5b73im&c=en-US&ur=in&da=n&logo=n&fmt=png&od=1&shading=hill&pp=28.719049,77.260178;dfp"
  },
  {
    "name": "Dr. Y.C. Kathuria",
    "address": "C3/51A, Service Lane, Delhi",
    "phone": "Dr. Y.C. Kathuria",
    "hours": "Open 24 hours",
    "image_url": "https://www.bing.com/maps/geoplat/REST/v1/Imagery/Map/RoadVibrant?ms=92,112&key=AnTcaqBi2ypp0xI-OZNi4W_ik2KhjgpqioTAtXLC8GzkMBQRMlyxvxyTnd5b73im&c=en-US&ur=in&da=n&logo=n&fmt=png&od=1&shading=hill&pp=28.700939,77.272102;dfp"
  },
  {
    "name": "Dr. Ashok Kumar",
    "address": "C3/51A, Service Lane, Delhi",
    "phone": "Dr. Ashok Kumar",
    "hours": "Closed· Opens 20:00",
    "image_url": "/th?id=OLC.GU59HgWPmkyP8Q480x360&w=92&h=112&c=8&rs=1&qlt=80&cdv=1&pid=Local"
  },
  {
    "name": "Dr. Bangali",
    "address": "Bhajanpura Main Road, Gamri Village, Shahdara, Delhi 110053",
    "phone": "Dr. Bangali",
    "hours": "Open· Closes 22:00",
    "image_url": "https://www.bing.com/maps/geoplat/REST/v1/Imagery/Map/RoadVibrant?ms=92,134&key=AnTcaqBi2ypp0xI-OZNi4W_ik2KhjgpqioTAtXLC8GzkMBQRMlyxvxyTnd5b73im&c=en-US&ur=in&da=n&logo=n&fmt=png&od=1&shading=hill&pp=28.692036,77.256828;dfp"
  },
  {
    "name": "Dr. Girja Kotha Clinic",
    "address": "Gali No 4, Green Garden Play Way School, Mustafabad, New Delhi, Delhi 110094",
    "phone": "Dr. Girja Kotha Clinic",
    "hours": null,
    "image_url": "https://www.bing.com/maps/geoplat/REST/v1/Imagery/Map/RoadVibrant?ms=92,112&key=AnTcaqBi2ypp0xI-OZNi4W_ik2KhjgpqioTAtXLC8GzkMBQRMlyxvxyTnd5b73im&c=en-US&ur=in&da=n&logo=n&fmt=png&od=1&shading=hill&pp=28.715002,77.262985;dfp"
  },
  {
    "name": "Dr. Hanish Gupta",
    "address": "C249 (Corner Shop), Street No 10, Thana Road, Landmark:Near Pt.Yadram School, Bhajanpura, Delhi",
    "phone": "Dr. Hanish Gupta",
    "hours": "Closed· Opens 19:00",
    "image_url": null
  },
  {
    "name": "Dr. Manish Aggarwal",
    "address": "B 1/5, Phase 3, Delhi",
    "phone": "Dr. Manish Aggarwal",
    "hours": "Open· Closes 14:00",
    "image_url": "https://www.bing.com/maps/geoplat/REST/v1/Imagery/Map/RoadVibrant?ms=92,112&key=AnTcaqBi2ypp0xI-OZNi4W_ik2KhjgpqioTAtXLC8GzkMBQRMlyxvxyTnd5b73im&c=en-US&ur=in&da=n&logo=n&fmt=png&od=1&shading=hill&pp=28.72366,77.280823;dfp"
  },
  {
    "name": "Dr. Manzoor Ahmad",
    "address": "Mustafabad Road, Near Shagun Jewelers, Chand Vihar, New Mustafabad, Delhi 110094",
    "phone": "Dr. Manzoor Ahmad",
    "hours": null,
    "image_url": "https://www.bing.com/maps/geoplat/REST/v1/Imagery/Map/RoadVibrant?ms=92,112&key=AnTcaqBi2ypp0xI-OZNi4W_ik2KhjgpqioTAtXLC8GzkMBQRMlyxvxyTnd5b73im&c=en-US&ur=in&da=n&logo=n&fmt=png&od=1&shading=hill&pp=28.707108,77.268967;dfp"
  },
  {
    "name": "Dr. Pallavi Clinic",
    "address": "Tronica City Road, Near Triveni Coaching Classes, Sonia Vihar, Delhi 110094",
    "phone": "Dr. Pallavi Clinic",
    "hours": "Open· Closes 20:00",
    "image_url": "https://www.bing.com/maps/geoplat/REST/v1/Imagery/Map/RoadVibrant?ms=92,134&key=AnTcaqBi2ypp0xI-OZNi4W_ik2KhjgpqioTAtXLC8GzkMBQRMlyxvxyTnd5b73im&c=en-US&ur=in&da=n&logo=n&fmt=png&od=1&shading=hill&pp=28.721375,77.244095;dfp"
  },
  {
    "name": "Dr. Sudesh Clinic",
    "address": "Karawal Nagar Road, Near Kalpana Jewelers, New Chauhanpur, Karawal Nagar, Delhi 110094",
    "phone": "Dr. Sudesh Clinic",
    "hours": null,
    "image_url": "https://www.bing.com/maps/geoplat/REST/v1/Imagery/Map/RoadVibrant?ms=92,112&key=AnTcaqBi2ypp0xI-OZNi4W_ik2KhjgpqioTAtXLC8GzkMBQRMlyxvxyTnd5b73im&c=en-US&ur=in&da=n&logo=n&fmt=png&od=1&shading=hill&pp=28.723934,77.268768;dfp"
  },
  {
    "name": "Dr. Arun Kumar",
    "address": "C-618, Block C, Delhi",
    "phone": "Dr. Arun Kumar",
    "hours": "Closed· Opens 18:00",
    "image_url": null
  },
  {
    "name": "Naqvi Clinic",
    "address": "Main Karawal Nagar Road, Near Akanksha Medicals, Old Mustafabad, New Mustafabad, Delhi 110094",
    "phone": "Naqvi Clinic",
    "hours": "Open· Closes 12:00",
    "image_url": "https://www.bing.com/maps/geoplat/REST/v1/Imagery/Map/RoadVibrant?ms=92,134&key=AnTcaqBi2ypp0xI-OZNi4W_ik2KhjgpqioTAtXLC8GzkMBQRMlyxvxyTnd5b73im&c=en-US&ur=in&da=n&logo=n&fmt=png&od=1&shading=hill&pp=28.717171,77.261108;dfp"
  },
  {
    "name": "Dr. Surinder Kumar Nimesh",
    "address": "56-A/1, Circular Rd, Jawala Nagar, Shahdara, Delhi",
    "phone": "Dr. Surinder Kumar Nimesh",
    "hours": "Open· Closes 12:00",
    "image_url": null
  },
  {
    "name": "Sandhya Clinic",
    "address": "20 Feet Road, Rajiv Nagar, Sonia Vihar, Delhi 110094",
    "phone": "Sandhya Clinic",
    "hours": null,
    "image_url": "https://www.bing.com/maps/geoplat/REST/v1/Imagery/Map/RoadVibrant?ms=92,112&key=AnTcaqBi2ypp0xI-OZNi4W_ik2KhjgpqioTAtXLC8GzkMBQRMlyxvxyTnd5b73im&c=en-US&ur=in&da=n&logo=n&fmt=png&od=1&shading=hill&pp=28.710091,77.254715;dfp"
  },
  {
    "name": "Reef Ali Clinic",
    "address": "Gali No 10, Near Bilal Masjid, B Block, Kabir Nagar, Delhi 110094",
    "phone": "Reef Ali Clinic",
    "hours": null,
    "image_url": "https://www.bing.com/maps/geoplat/REST/v1/Imagery/Map/RoadVibrant?ms=92,112&key=AnTcaqBi2ypp0xI-OZNi4W_ik2KhjgpqioTAtXLC8GzkMBQRMlyxvxyTnd5b73im&c=en-US&ur=in&da=n&logo=n&fmt=png&od=1&shading=hill&pp=28.707203,77.258156;dfp"
  },
  {
    "name": "Khan Clinic",
    "address": "Galli Number 21, Near AM Jewelers, Mustafabad Extension, New Mustafabad, Delhi 110094",
    "phone": "Khan Clinic",
    "hours": null,
    "image_url": "https://www.bing.com/maps/geoplat/REST/v1/Imagery/Map/RoadVibrant?ms=92,112&key=AnTcaqBi2ypp0xI-OZNi4W_ik2KhjgpqioTAtXLC8GzkMBQRMlyxvxyTnd5b73im&c=en-US&ur=in&da=n&logo=n&fmt=png&od=1&shading=hill&pp=28.715067,77.259666;dfp"
  },
  {
    "name": "Faiz Clinic",
    "address": "Brijpuri Road, Near Smart Look Gents Parlour, Indra Vihar, New Mustafabad, Delhi 110094",
    "phone": "Faiz Clinic",
    "hours": null,
    "image_url": "https://www.bing.com/maps/geoplat/REST/v1/Imagery/Map/RoadVibrant?ms=92,112&key=AnTcaqBi2ypp0xI-OZNi4W_ik2KhjgpqioTAtXLC8GzkMBQRMlyxvxyTnd5b73im&c=en-US&ur=in&da=n&logo=n&fmt=png&od=1&shading=hill&pp=28.71315,77.278702;dfp"
  }
]