[
  {
    "name": "Tushar Clinic",
    "address": "Sh-67, Osmanabad, Maharashtra 413582",
    "phone": "Tushar Clinic",
    "hours": null,
    "image_url": "https://www.bing.com/maps/geoplat/REST/v1/Imagery/Map/RoadVibrant?ms=92,112&key=AnTcaqBi2ypp0xI-OZNi4W_ik2KhjgpqioTAtXLC8GzkMBQRMlyxvxyTnd5b73im&c=en-US&ur=in&da=n&logo=n&fmt=png&od=1&shading=hill&pp=18.18787,76.031471;dfp"
  },
  {
    "name": "Shreeyash Hospital",
    "address": "Samarth Nagar Internal Road, State Bank Of India, Osmanabad, Maharashtra 413501",
    "phone": "Shreeyash Hospital",
    "hours": null,
    "image_url": "https://www.bing.com/maps/geoplat/REST/v1/Imagery/Map/RoadVibrant?ms=92,112&key=AnTcaqBi2ypp0xI-OZNi4W_ik2KhjgpqioTAtXLC8GzkMBQRMlyxvxyTnd5b73im&c=en-US&ur=in&da=n&logo=n&fmt=png&od=1&shading=hill&pp=18.191179,76.043488;dfp"
  },
  {
    "name": "Dr. sukrut phadke - ayushkamiya ayurveda",
    "address": "Vinayak Appartment, opp Vita Bank, Government Colony, Behind Mahadev Mandir, Vishrambag, Sangli, Maharas…",
    "phone": "Dr. sukrut phadke - ayushkamiya ayurveda",
    "hours": null,
    "image_url": "https://www.bing.com/maps/geoplat/REST/v1/Imagery/Map/RoadVibrant?ms=92,112&key=AnTcaqBi2ypp0xI-OZNi4W_ik2KhjgpqioTAtXLC8GzkMBQRMlyxvxyTnd5b73im&c=en-US&ur=in&da=n&logo=n&fmt=png&od=1&shading=hill&pp=18.188799,76.053818;dfp"
  },
  {
    "name": "Nityaseva Clinic",
    "address": "Osmanabad Main Road, Osmanabad, Maharashtra 413501",
    "phone": "Nityaseva Clinic",
    "hours": null,
    "image_url": "https://www.bing.com/maps/geoplat/REST/v1/Imagery/Map/RoadVibrant?ms=92,112&key=AnTcaqBi2ypp0xI-OZNi4W_ik2KhjgpqioTAtXLC8GzkMBQRMlyxvxyTnd5b73im&c=en-US&ur=in&da=n&logo=n&fmt=png&od=1&shading=hill&pp=18.170343,76.044861;dfp"
  },
  {
    "name": "Dr.abrar Clinic & Hijama Centre",
    "address": "Shams Chowk Khaja Nagar, Osmanabad, Maharashtra 413501",
    "phone": "Dr.abrar Clinic & Hijama Centre",
    "hours": null,
    "image_url": "/th?id=OLC.5n4tx4NDgTUiMw480x360&w=92&h=112&c=8&rs=1&qlt=80&cdv=1&pid=Local"
  },
  {
    "name": "Dr. Priyanka Paruthi Dermatologist",
    "address": "Navodaya Multispeciality Hospital Dr. Ambedkar Chowk Near Yuvraj Lodge, Osmanabad, Maharashtra 413501",
    "phone": "Dr. Priyanka Paruthi Dermatologist",
    "hours": "Closed· Opens 11:00",
    "image_url": "/th?id=OLC.BWcA94H%2b6uxPOA480x360&w=92&h=134&c=8&rs=1&qlt=80&cdv=1&pid=Local"
  },
  {
    "name": "Amrut Homoeopathic Clinic",
    "address": "Near Suvidha Hospital, Barshi Naka, Osmanabad, Maharashtra 413501",
    "phone": "Amrut Homoeopathic Clinic",
    "hours": "Open· Closes 15:00",
    "image_url": null
  },
  {
    "name": "Sanjivani Clinic",
    "address": "Shree Sant Goroba Kaka Temple Road, State Bank Of India, Ter, Osmanabad, Maharashtra 413501",
    "phone": "Sanjivani Clinic",
    "hours": null,
    "image_url": "https://www.bing.com/maps/geoplat/REST/v1/Imagery/Map/RoadVibrant?ms=92,112&key=AnTcaqBi2ypp0xI-OZNi4W_ik2KhjgpqioTAtXLC8GzkMBQRMlyxvxyTnd5b73im&c=en-US&ur=in&da=n&logo=n&fmt=png&od=1&shading=hill&pp=18.201685,76.036545;dfp"
  },
  {
    "name": "Dr. Niteen Dhepe Keloid Specialist Osmanabad",
    "address": "Kadam Niwas A Khaja Nagar Road, Osmanabad, Maharashtra 413501",
    "phone": "Dr. Niteen Dhepe Keloid Specialist Osmanabad",
    "hours": "Closed· Opens 11:00",
    "image_url": "https://www.bing.com/maps/geoplat/REST/v1/Imagery/Map/RoadVibrant?ms=92,134&key=AnTcaqBi2ypp0xI-OZNi4W_ik2KhjgpqioTAtXLC8GzkMBQRMlyxvxyTnd5b73im&c=en-US&ur=in&da=n&logo=n&fmt=png&od=1&shading=hill&pp=18.175785,76.043022;dfp"
  },
  {
    "name": "Dr. Pathak's Homeopathic clinic",
    "address": "Sawarkar Chawk, Marwadi Galli, Osmanabad, Maharashtra",
    "phone": "Dr. Pathak's Homeopathic clinic",
    "hours": null,
    "image_url": "https://www.bing.com/maps/geoplat/REST/v1/Imagery/Map/RoadVibrant?ms=92,112&key=AnTcaqBi2ypp0xI-OZNi4W_ik2KhjgpqioTAtXLC8GzkMBQRMlyxvxyTnd5b73im&c=en-US&ur=in&da=n&logo=n&fmt=png&od=1&shading=hill&pp=18.189137,76.037582;dfp"
  },
  {
    "name": "Madhavbaug Ayurved Cardiac Clinic",
    "address": "Rajlaxmi Osmanabad Bypass Road, Osmanabad, Maharashtra 413501",
    "phone": "Madhavbaug Ayurved Cardiac Clinic",
    "hours": "Open· Closes 19:00",
    "image_url": null
  },
  {
    "name": "Tuljai Diagnostic Centre And Skin Care Clinic",
    "address": "1 Fulai Plaza, Near Ambedkar Shopping Complex, Barshi, Maharashtra",
    "phone": "Tuljai Diagnostic Centre And Skin Care Clinic",
    "hours": null,
    "image_url": "https://www.bing.com/maps/geoplat/REST/v1/Imagery/Map/RoadVibrant?ms=92,112&key=AnTcaqBi2ypp0xI-OZNi4W_ik2KhjgpqioTAtXLC8GzkMBQRMlyxvxyTnd5b73im&c=en-US&ur=in&da=n&logo=n&fmt=png&od=1&shading=hill&pp=18.185259,76.028641;dfp"
  },
  {
    "name": "AL-Shifa Clinic",
    "address": "Near Makka Masjid Turori Omerga, Osmanabad, Maharashtra 413606",
    "phone": "AL-Shifa Clinic",
    "hours": null,
    "image_url": "https://www.bing.com/maps/geoplat/REST/v1/Imagery/Map/RoadVibrant?ms=92,112&key=AnTcaqBi2ypp0xI-OZNi4W_ik2KhjgpqioTAtXLC8GzkMBQRMlyxvxyTnd5b73im&c=en-US&ur=in&da=n&logo=n&fmt=png&od=1&shading=hill&pp=18.197239,76.05484;dfp"
  },
  {
    "name": "Janai Sonography & Panchkarm Centre",
    "address": "Near Sahyadri Corner, Samta Colony, Osmanabad, Maharashtra, Maharashtra 413501",
    "phone": "Janai Sonography & Panchkarm Centre",
    "hours": null,
    "image_url": null
  },
  {
    "name": "Dr.B. Ambedkar College",
    "address": "Kolhar, Rahata Taluk, Ahmednagar, Maharashtra",
    "phone": "Dr.B. Ambedkar College",
    "hours": null,
    "image_url": "https://www.bing.com/maps/geoplat/REST/v1/Imagery/Map/RoadVibrant?ms=92,112&key=AnTcaqBi2ypp0xI-OZNi4W_ik2KhjgpqioTAtXLC8GzkMBQRMlyxvxyTnd5b73im&c=en-US&ur=in&da=n&logo=n&fmt=png&od=1&shading=hill&pp=18.179605,76.038078;dfp"
  }
]