[
  {
    "name": "Dr. Kunal Kumar- General Physician In Jharkhand",
    "address": "Dr. Kunal Kumar Clinic, Basantpur, Harindanga Bazar, Near Heera Sweets, Pakur, Jharkhand 816107",
    "phone": "Dr. Kunal Kumar- General Physician In Jharkhand",
    "hours": "Closed· Opens 13:00",
    "image_url": "https://www.bing.com/maps/geoplat/REST/v1/Imagery/Map/RoadVibrant?ms=92,134&key=AnTcaqBi2ypp0xI-OZNi4W_ik2KhjgpqioTAtXLC8GzkMBQRMlyxvxyTnd5b73im&c=en-US&ur=in&da=n&logo=n&fmt=png&od=1&shading=hill&pp=24.636692,87.848175;dfp"
  },
  {
    "name": "Dr Khurshid Akhtar Clinic",
    "address": "Bhadiswar Road, Murarai Bazar Jummah Masjid, Murarai, West Bengal 731219",
    "phone": "Dr Khurshid Akhtar Clinic",
    "hours": null,
    "image_url": "/th?id=OLC.OeIrLkHqk9CQ7Q480x360&w=92&h=112&c=8&rs=1&qlt=80&cdv=1&pid=Local"
  },
  {
    "name": "Dr. Bibekranjan Manna",
    "address": "Near Rampurhat District Hospital, Birbhum, West Bengal",
    "phone": "Dr. Bibekranjan Manna",
    "hours": "Closed· Opens Thu 12:00",
    "image_url": "/th?id=OLC.GPSQf3Lmn7xBHQ480x360&w=92&h=112&c=8&rs=1&qlt=80&cdv=1&pid=Local"
  },
  {
    "name": "Asarfi Hospital",
    "address": "Baramuri, Po/Bishunpur Polytechnic, Dhanbad, Jharkhand 828130",
    "phone": "Asarfi Hospital",
    "hours": null,
    "image_url": "/th?id=OLC.53UG2NGyuxqKrg480x360&w=92&h=112&c=8&rs=1&qlt=80&cdv=1&pid=Local"
  },
  {
    "name": "Dr. Rajarshi Keshri- Physician",
    "address": "J R Gyne & Obstetrics, Rampurhat Govt Medical College, Clinic High Road Opposite Bus Stand, Birbhum, West B…",
    "phone": "Dr. Rajarshi Keshri- Physician",
    "hours": "Open· Closes 12:00",
    "image_url": "https://www.bing.com/maps/geoplat/REST/v1/Imagery/Map/RoadVibrant?ms=92,134&key=AnTcaqBi2ypp0xI-OZNi4W_ik2KhjgpqioTAtXLC8GzkMBQRMlyxvxyTnd5b73im&c=en-US&ur=in&da=n&logo=n&fmt=png&od=1&shading=hill&pp=24.189423,87.789482;dfp"
  },
  {
    "name": "Doctor Today Clinic",
    "address": "Raghunathganj Murarai Road, Gaganpur Natun Masjid, Barshapukur, Rampur Hat, West Bengal 731221",
    "phone": "Doctor Today Clinic",
    "hours": null,
    "image_url": "https://www.bing.com/maps/geoplat/REST/v1/Imagery/Map/RoadVibrant?ms=92,112&key=AnTcaqBi2ypp0xI-OZNi4W_ik2KhjgpqioTAtXLC8GzkMBQRMlyxvxyTnd5b73im&c=en-US&ur=in&da=n&logo=n&fmt=png&od=1&shading=hill&pp=24.423328,87.952599;dfp"
  },
  {
    "name": "Asgar Ali Clinic",
    "address": "Shreerampur Sub Post Office, Birnagar, Rampur Hat, West Bengal 731222",
    "phone": "Asgar Ali Clinic",
    "hours": null,
    "image_url": "https://www.bing.com/maps/geoplat/REST/v1/Imagery/Map/RoadVibrant?ms=92,112&key=AnTcaqBi2ypp0xI-OZNi4W_ik2KhjgpqioTAtXLC8GzkMBQRMlyxvxyTnd5b73im&c=en-US&ur=in&da=n&logo=n&fmt=png&od=1&shading=hill&pp=24.543955,87.819344;dfp"
  },
  {
    "name": "Akbar Clinic",
    "address": "Kanakpur Waqtia Masjid, Kanakpur, Rampur Hat, West Bengal 731221",
    "phone": "Akbar Clinic",
    "hours": null,
    "image_url": "https://www.bing.com/maps/geoplat/REST/v1/Imagery/Map/RoadVibrant?ms=92,112&key=AnTcaqBi2ypp0xI-OZNi4W_ik2KhjgpqioTAtXLC8GzkMBQRMlyxvxyTnd5b73im&c=en-US&ur=in&da=n&logo=n&fmt=png&od=1&shading=hill&pp=24.497381,87.913834;dfp"
  },
  {
    "name": "Jeevandeep Clinic",
    "address": "Chatra Rudranagar Road, Chaity Bhadista High School, Chaity, Rampur Hat, West Bengal 731238",
    "phone": "Jeevandeep Clinic",
    "hours": null,
    "image_url": "https://www.bing.com/maps/geoplat/REST/v1/Imagery/Map/RoadVibrant?ms=92,112&key=AnTcaqBi2ypp0xI-OZNi4W_ik2KhjgpqioTAtXLC8GzkMBQRMlyxvxyTnd5b73im&c=en-US&ur=in&da=n&logo=n&fmt=png&od=1&shading=hill&pp=24.359629,87.90744;dfp"
  },
  {
    "name": "Abrar Homoeo Clinic",
    "address": "Ghuskia Road, Murarai, West Bengal 731219",
    "phone": "Abrar Homoeo Clinic",
    "hours": null,
    "image_url": "https://www.bing.com/maps/geoplat/REST/v1/Imagery/Map/RoadVibrant?ms=92,112&key=AnTcaqBi2ypp0xI-OZNi4W_ik2KhjgpqioTAtXLC8GzkMBQRMlyxvxyTnd5b73im&c=en-US&ur=in&da=n&logo=n&fmt=png&od=1&shading=hill&pp=24.44136,87.852493;dfp"
  },
  {
    "name": "Rajkiya Ayurvedic Hospital",
    "address": "Rampurhat Road, Near Policeline, Dumka, Jharkhand",
    "phone": "Rajkiya Ayurvedic Hospital",
    "hours": null,
    "image_url": null
  },
  {
    "name": "Piyush Memorial Homoeo Clinic",
    "address": "Paikar Branch Post Office, Paikar, West Bengal 731221",
    "phone": "Piyush Memorial Homoeo Clinic",
    "hours": null,
    "image_url": "https://www.bing.com/maps/geoplat/REST/v1/Imagery/Map/RoadVibrant?ms=92,112&key=AnTcaqBi2ypp0xI-OZNi4W_ik2KhjgpqioTAtXLC8GzkMBQRMlyxvxyTnd5b73im&c=en-US&ur=in&da=n&logo=n&fmt=png&od=1&shading=hill&pp=24.43646,87.908188;dfp"
  },
  {
    "name": "Dr.Malay HALDAR || Best Skin Specialist In Birbhum | Best Dermatologist In Birbhum",
    "address": "P.O.-Rampurhat, State High Way, Lotus Press, West Bengal",
    "phone": "Dr.Malay HALDAR || Best Skin Specialist In Birbhum | Best Dermatologist In Birbhum",
    "hours": null,
    "image_url": "https://www.bing.com/maps/geoplat/REST/v1/Imagery/Map/RoadVibrant?ms=92,112&key=AnTcaqBi2ypp0xI-OZNi4W_ik2KhjgpqioTAtXLC8GzkMBQRMlyxvxyTnd5b73im&c=en-US&ur=in&da=n&logo=n&fmt=png&od=1&shading=hill&pp=24.178402,87.782234;dfp"
  },
  {
    "name": "Dr Monirul Sekh Clinic",
    "address": "Ranjitpur, Jangipur, West Bengal 742213",
    "phone": "Dr Monirul Sekh Clinic",
    "hours": null,
    "image_url": "https://www.bing.com/maps/geoplat/REST/v1/Imagery/Map/RoadVibrant?ms=92,112&key=AnTcaqBi2ypp0xI-OZNi4W_ik2KhjgpqioTAtXLC8GzkMBQRMlyxvxyTnd5b73im&c=en-US&ur=in&da=n&logo=n&fmt=png&od=1&shading=hill&pp=24.4536,88.127533;dfp"
  },
  {
    "name": "DR. Wasim’S Heart & Diabetes Care Clinic",
    "address": "Near Star Cinema Hall, Kaliachak, West Bengal",
    "phone": "DR. Wasim’S Heart & Diabetes Care Clinic",
    "hours": null,
    "image_url": "https://www.bing.com/maps/geoplat/REST/v1/Imagery/Map/RoadVibrant?ms=92,112&key=AnTcaqBi2ypp0xI-OZNi4W_ik2KhjgpqioTAtXLC8GzkMBQRMlyxvxyTnd5b73im&c=en-US&ur=in&da=n&logo=n&fmt=png&od=1&shading=hill&pp=24.860994,88.01783;dfp"
  },
  {
    "name": "German Homoeo Clinic",
    "address": "Raghunathganj Murarai Road, Mitrapur, Paikar, West Bengal 731221",
    "phone": "German Homoeo Clinic",
    "hours": null,
    "image_url": "https://www.bing.com/maps/geoplat/REST/v1/Imagery/Map/RoadVibrant?ms=92,112&key=AnTcaqBi2ypp0xI-OZNi4W_ik2KhjgpqioTAtXLC8GzkMBQRMlyxvxyTnd5b73im&c=en-US&ur=in&da=n&logo=n&fmt=png&od=1&shading=hill&pp=24.432444,87.917824;dfp"
  },
  {
    "name": "Dr Lal PathLabs - Patient Service Centre",
    "address": "Ground Floor, Ntpc More, Beniagram, Khairakandi, Murshidabad, West Bengal 742236",
    "phone": "Dr Lal PathLabs - Patient Service Centre",
    "hours": "Open· Closes 20:00",
    "image_url": "https://www.bing.com/maps/geoplat/REST/v1/Imagery/Map/RoadVibrant?ms=92,134&key=AnTcaqBi2ypp0xI-OZNi4W_ik2KhjgpqioTAtXLC8GzkMBQRMlyxvxyTnd5b73im&c=en-US&ur=in&da=n&logo=n&fmt=png&od=1&shading=hill&pp=24.781666,87.911224;dfp"
  }
]