[
  {
    "name": "Dr. Gautam Yadav-General Physician, Diabetologist , Jharkhand",
    "address": "Vednarayan Health Care, Belwatika Chowk, Daltonganj, Jharkhand 822102",
    "phone": "Dr. Gautam Yadav-General Physician, Diabetologist , Jharkhand",
    "hours": "Closed· Opens 15:00",
    "image_url": "/th?id=OLC.TFbpnup9KoPiUQ480x360&w=92&h=134&c=8&rs=1&qlt=80&cdv=1&pid=Local"
  },
  {
    "name": "Dr Kiran Singh Clinic",
    "address": "Abadganj, S P Kothi Road, DR Kiran Singh Clinic, Palamu, Jharkhand 822101",
    "phone": "Dr Kiran Singh Clinic",
    "hours": null,
    "image_url": "/th?id=OLC.89MuUwcRpy%2b7pg480x360&w=92&h=112&c=8&rs=1&qlt=80&cdv=1&pid=Local"
  },
  {
    "name": "Dr. Rajesh Kumar- General Physician In Jharkhand",
    "address": "Gayatri Hospital, Belvatika Chowk, Gurudwara Road, Palamau, Daltonganj, Jharkhand 822101",
    "phone": "Dr. Rajesh Kumar- General Physician In Jharkhand",
    "hours": "Open· Closes 21:00",
    "image_url": "/th?id=OLC.r0SCIocSYSIs4g480x360&w=92&h=134&c=8&rs=1&qlt=80&cdv=1&pid=Local"
  },
  {
    "name": "Dr Dora Clinic",
    "address": "Church Road, Near Nawatoli Chowk, Medinagar, Daltonganj, Jharkhand 822101",
    "phone": "Dr Dora Clinic",
    "hours": null,
    "image_url": "https://www.bing.com/maps/geoplat/REST/v1/Imagery/Map/RoadVibrant?ms=92,112&key=AnTcaqBi2ypp0xI-OZNi4W_ik2KhjgpqioTAtXLC8GzkMBQRMlyxvxyTnd5b73im&c=en-US&ur=in&da=n&logo=n&fmt=png&od=1&shading=hill&pp=24.032652,84.065964;dfp"
  },
  {
    "name": "Dr. Anand Kumar | Daltonganj",
    "address": "Sadar Hospital Road, Near Government Hospital, Medinagar Bazar, Daltonganj, Jharkhand 822101",
    "phone": "Dr. Anand Kumar | Daltonganj",
    "hours": null,
    "image_url": "https://www.bing.com/maps/geoplat/REST/v1/Imagery/Map/RoadVibrant?ms=92,112&key=AnTcaqBi2ypp0xI-OZNi4W_ik2KhjgpqioTAtXLC8GzkMBQRMlyxvxyTnd5b73im&c=en-US&ur=in&da=n&logo=n&fmt=png&od=1&shading=hill&pp=24.044298,84.060066;dfp"
  },
  {
    "name": "Shankar orthopaedic clinic, Dr. Ram kinker trivedi",
    "address": "Belwatika Road, Near Shiv Shakti Hanuman Mandir, Belwatika, Daltonganj, Jharkhand 822101",
    "phone": "Shankar orthopaedic clinic, Dr. Ram kinker trivedi",
    "hours": null,
    "image_url": "https://www.bing.com/maps/geoplat/REST/v1/Imagery/Map/RoadVibrant?ms=92,112&key=AnTcaqBi2ypp0xI-OZNi4W_ik2KhjgpqioTAtXLC8GzkMBQRMlyxvxyTnd5b73im&c=en-US&ur=in&da=n&logo=n&fmt=png&od=1&shading=hill&pp=24.031565,84.071877;dfp"
  },
  {
    "name": "Dr. Kuldeo Chaudhary | General Physician | CHAUDHARY GENERAL HOSPITAL",
    "address": "Chaudhary General Hospital, Garhwa, Jharkhand, India, 822114, Garhwa, Madhya Pradesh 822114",
    "phone": "Dr. Kuldeo Chaudhary | General Physician | CHAUDHARY GENERAL HOSPITAL",
    "hours": "Open· Closes 21:00",
    "image_url": null
  },
  {
    "name": "Dr. Patanjali Keshri- General Physician",
    "address": "R P Medical Center, Main Bazaar, Garhwa, Jharkhand 822114",
    "phone": "Dr. Patanjali Keshri- General Physician",
    "hours": "Open· Closes 15:00",
    "image_url": "https://www.bing.com/maps/geoplat/REST/v1/Imagery/Map/RoadVibrant?ms=92,134&key=AnTcaqBi2ypp0xI-OZNi4W_ik2KhjgpqioTAtXLC8GzkMBQRMlyxvxyTnd5b73im&c=en-US&ur=in&da=n&logo=n&fmt=png&od=1&shading=hill&pp=24.165434,83.810631;dfp"
  },
  {
    "name": "Dr. Awadh Kishore Upadhyay Memorial Hospital",
    "address": "Janakpuri, Sh10 Medini Nagar Balumath Road, Daltenganj, Jharkhand 822101",
    "phone": "Dr. Awadh Kishore Upadhyay Memorial Hospital",
    "hours": null,
    "image_url": "https://www.bing.com/maps/geoplat/REST/v1/Imagery/Map/RoadVibrant?ms=92,112&key=AnTcaqBi2ypp0xI-OZNi4W_ik2KhjgpqioTAtXLC8GzkMBQRMlyxvxyTnd5b73im&c=en-US&ur=in&da=n&logo=n&fmt=png&od=1&shading=hill&pp=24.04059,84.088814;dfp"
  },
  {
    "name": "Mehta Homoeopathic clinic",
    "address": "Men Road Tarhasi Palamu, Tarhasi, Jharkhand",
    "phone": "Mehta Homoeopathic clinic",
    "hours": null,
    "image_url": "https://www.bing.com/maps/geoplat/REST/v1/Imagery/Map/RoadVibrant?ms=92,112&key=AnTcaqBi2ypp0xI-OZNi4W_ik2KhjgpqioTAtXLC8GzkMBQRMlyxvxyTnd5b73im&c=en-US&ur=in&da=n&logo=n&fmt=png&od=1&shading=hill&pp=24.028763,84.075142;dfp"
  },
  {
    "name": "Tauba Clinic",
    "address": "Garhwa Road, Near H P Public School, Pachpadwa, Garhwa, Jharkhand 822114",
    "phone": "Tauba Clinic",
    "hours": null,
    "image_url": "https://www.bing.com/maps/geoplat/REST/v1/Imagery/Map/RoadVibrant?ms=92,112&key=AnTcaqBi2ypp0xI-OZNi4W_ik2KhjgpqioTAtXLC8GzkMBQRMlyxvxyTnd5b73im&c=en-US&ur=in&da=n&logo=n&fmt=png&od=1&shading=hill&pp=24.121433,83.823601;dfp"
  },
  {
    "name": "Dr Ashok Kumar Clinic",
    "address": "Bhaibig Main Road, Bhaibigha Haidar Nagar, Haidernagar, Jharkhand 822115",
    "phone": "Dr Ashok Kumar Clinic",
    "hours": null,
    "image_url": "https://www.bing.com/maps/geoplat/REST/v1/Imagery/Map/RoadVibrant?ms=92,112&key=AnTcaqBi2ypp0xI-OZNi4W_ik2KhjgpqioTAtXLC8GzkMBQRMlyxvxyTnd5b73im&c=en-US&ur=in&da=n&logo=n&fmt=png&od=1&shading=hill&pp=24.492907,83.942627;dfp"
  },
  {
    "name": "Jai shree ram dawakhana",
    "address": "Main Market, Panchmuhan Chowk, Daltonganj, Jharkhand 822101",
    "phone": "Jai shree ram dawakhana",
    "hours": "Open· Closes 21:00",
    "image_url": null
  },
  {
    "name": "Maa Gayatri Medical Hall",
    "address": "Redma Chowk, Daltonganj, Jharkhand 822101",
    "phone": "Maa Gayatri Medical Hall",
    "hours": null,
    "image_url": "https://www.bing.com/maps/geoplat/REST/v1/Imagery/Map/RoadVibrant?ms=92,112&key=AnTcaqBi2ypp0xI-OZNi4W_ik2KhjgpqioTAtXLC8GzkMBQRMlyxvxyTnd5b73im&c=en-US&ur=in&da=n&logo=n&fmt=png&od=1&shading=hill&pp=24.037472,84.077095;dfp"
  },
  {
    "name": "Dr Radheshyam Sahu",
    "address": "Pandu Chatrapur Road, Pandu, Daltenganj, Jharkhand 822124",
    "phone": "Dr Radheshyam Sahu",
    "hours": null,
    "image_url": "https://www.bing.com/maps/geoplat/REST/v1/Imagery/Map/RoadVibrant?ms=92,112&key=AnTcaqBi2ypp0xI-OZNi4W_ik2KhjgpqioTAtXLC8GzkMBQRMlyxvxyTnd5b73im&c=en-US&ur=in&da=n&logo=n&fmt=png&od=1&shading=hill&pp=24.327942,83.965424;dfp"
  },
  {
    "name": "Dr M kumar radiologist",
    "address": "Durga Garage, M.G. Road Aurangabad (Bihar), Aurangabad, Bihar 824101",
    "phone": "Dr M kumar radiologist",
    "hours": null,
    "image_url": null
  },
  {
    "name": "German Homoeo Clinic",
    "address": "Sattar Seth Road, Near Vegetables Market Medinagar, Medinagar, Daltonganj, Jharkhand 822101",
    "phone": "German Homoeo Clinic",
    "hours": null,
    "image_url": "https://www.bing.com/maps/geoplat/REST/v1/Imagery/Map/RoadVibrant?ms=92,112&key=AnTcaqBi2ypp0xI-OZNi4W_ik2KhjgpqioTAtXLC8GzkMBQRMlyxvxyTnd5b73im&c=en-US&ur=in&da=n&logo=n&fmt=png&od=1&shading=hill&pp=24.042707,84.059258;dfp"
  },
  {
    "name": "Dr Lal PathLabs - Patient Service Centre",
    "address": "Shop No F 5, Mahendra Arcade, Head Postoffice Road, Zila School Chowk, Daltonganj, Jharkhand 822101",
    "phone": "Dr Lal PathLabs - Patient Service Centre",
    "hours": "Open· Closes 19:00",
    "image_url": null
  }
]