[
  {
    "name": "Dr. Harshil Shah Simplified Medicine",
    "address": "11, Satyam Society, Bamroli Road, Godhra, Gujarat, Gujarat 389001",
    "phone": "Dr. Harshil Shah Simplified Medicine",
    "hours": null,
    "image_url": "/th?id=OLC.k3J5GLQ64sOFfw480x360&w=92&h=112&c=8&rs=1&qlt=80&cdv=1&pid=Local"
  },
  {
    "name": "Dr A P Pandya",
    "address": "Municipal Shopping Center, Bus Stand Road, Godhra, Gujarat 389001",
    "phone": "Dr A P Pandya",
    "hours": null,
    "image_url": "https://www.bing.com/maps/geoplat/REST/v1/Imagery/Map/RoadVibrant?ms=92,112&key=AnTcaqBi2ypp0xI-OZNi4W_ik2KhjgpqioTAtXLC8GzkMBQRMlyxvxyTnd5b73im&c=en-US&ur=in&da=n&logo=n&fmt=png&od=1&shading=hill&pp=22.775215,73.620232;dfp"
  },
  {
    "name": "Dr Shivani's Clinic",
    "address": "19, Shantiniwash Society, Godhra, Govindi, Gujarat",
    "phone": "Dr Shivani's Clinic",
    "hours": null,
    "image_url": "https://www.bing.com/maps/geoplat/REST/v1/Imagery/Map/RoadVibrant?ms=92,112&key=AnTcaqBi2ypp0xI-OZNi4W_ik2KhjgpqioTAtXLC8GzkMBQRMlyxvxyTnd5b73im&c=en-US&ur=in&da=n&logo=n&fmt=png&od=1&shading=hill&pp=22.7862,73.626801;dfp"
  },
  {
    "name": "Dr Sanjay Patel",
    "address": "Sahyog Complex, Bus Stand Road, Godhra, Gujarat 389001",
    "phone": "Dr Sanjay Patel",
    "hours": null,
    "image_url": "https://www.bing.com/maps/geoplat/REST/v1/Imagery/Map/RoadVibrant?ms=92,112&key=AnTcaqBi2ypp0xI-OZNi4W_ik2KhjgpqioTAtXLC8GzkMBQRMlyxvxyTnd5b73im&c=en-US&ur=in&da=n&logo=n&fmt=png&od=1&shading=hill&pp=22.777424,73.62149;dfp"
  },
  {
    "name": "Bharatdwaj Dr Pallav M",
    "address": "2-Floor, Godhra, Gujarat 389001",
    "phone": "Bharatdwaj Dr Pallav M",
    "hours": null,
    "image_url": "https://www.bing.com/maps/geoplat/REST/v1/Imagery/Map/RoadVibrant?ms=92,112&key=AnTcaqBi2ypp0xI-OZNi4W_ik2KhjgpqioTAtXLC8GzkMBQRMlyxvxyTnd5b73im&c=en-US&ur=in&da=n&logo=n&fmt=png&od=1&shading=hill&pp=22.782099,73.622772;dfp"
  },
  {
    "name": "Krishna Clinic ( Dr Poojan Parikh ) - Best Family Doctor Vadodara",
    "address": "7, Bharat Commercial Complex, Ground Floor, POR Gidc Estate Raman Gamdi, Por, Gujarat",
    "phone": "Krishna Clinic ( Dr Poojan Parikh ) - Best Family Doctor Vadodara",
    "hours": null,
    "image_url": "https://www.bing.com/maps/geoplat/REST/v1/Imagery/Map/RoadVibrant?ms=92,112&key=AnTcaqBi2ypp0xI-OZNi4W_ik2KhjgpqioTAtXLC8GzkMBQRMlyxvxyTnd5b73im&c=en-US&ur=in&da=n&logo=n&fmt=png&od=1&shading=hill&pp=22.7805,73.622398;dfp"
  },
  {
    "name": "Dr. Meena P Magnani",
    "address": "B-3/1 - Shrinath Chambers, B, s-Ami Arcade, Opp, Lal Baug Bus Stand, Near, Sita Sagar Lake, Garden Road…",
    "phone": "Dr. Meena P Magnani",
    "hours": "Closed· Opens 11:00",
    "image_url": "https://www.bing.com/maps/geoplat/REST/v1/Imagery/Map/RoadVibrant?ms=92,112&key=AnTcaqBi2ypp0xI-OZNi4W_ik2KhjgpqioTAtXLC8GzkMBQRMlyxvxyTnd5b73im&c=en-US&ur=in&da=n&logo=n&fmt=png&od=1&shading=hill&pp=22.7766,73.624496;dfp"
  },
  {
    "name": "Sree Sai Clinic",
    "address": "Bus Stand Road, Godhra, Gujarat 389001",
    "phone": "Sree Sai Clinic",
    "hours": null,
    "image_url": "https://www.bing.com/maps/geoplat/REST/v1/Imagery/Map/RoadVibrant?ms=92,112&key=AnTcaqBi2ypp0xI-OZNi4W_ik2KhjgpqioTAtXLC8GzkMBQRMlyxvxyTnd5b73im&c=en-US&ur=in&da=n&logo=n&fmt=png&od=1&shading=hill&pp=22.776005,73.622345;dfp"
  },
  {
    "name": "Vinayak Clinic",
    "address": "Halol Road, Godhra, Gujarat 389001",
    "phone": "Vinayak Clinic",
    "hours": null,
    "image_url": "https://www.bing.com/maps/geoplat/REST/v1/Imagery/Map/RoadVibrant?ms=92,112&key=AnTcaqBi2ypp0xI-OZNi4W_ik2KhjgpqioTAtXLC8GzkMBQRMlyxvxyTnd5b73im&c=en-US&ur=in&da=n&logo=n&fmt=png&od=1&shading=hill&pp=22.773916,73.623703;dfp"
  },
  {
    "name": "Masum Clinic",
    "address": "Molan Azad Road, Godhra, Gujarat 389001",
    "phone": "Masum Clinic",
    "hours": null,
    "image_url": "https://www.bing.com/maps/geoplat/REST/v1/Imagery/Map/RoadVibrant?ms=92,112&key=AnTcaqBi2ypp0xI-OZNi4W_ik2KhjgpqioTAtXLC8GzkMBQRMlyxvxyTnd5b73im&c=en-US&ur=in&da=n&logo=n&fmt=png&od=1&shading=hill&pp=22.775221,73.608459;dfp"
  },
  {
    "name": "Mahavir Clinic",
    "address": "F 9, Tejas Appartment 3 Rayanvadi Society, Bamroli Road, Godhra, Panchmahal, Gujarat 389001",
    "phone": "Mahavir Clinic",
    "hours": null,
    "image_url": "https://www.bing.com/maps/geoplat/REST/v1/Imagery/Map/RoadVibrant?ms=92,112&key=AnTcaqBi2ypp0xI-OZNi4W_ik2KhjgpqioTAtXLC8GzkMBQRMlyxvxyTnd5b73im&c=en-US&ur=in&da=n&logo=n&fmt=png&od=1&shading=hill&pp=22.7733,73.626701;dfp"
  },
  {
    "name": "Shivam Hospital; Dr. Jayesh Patel",
    "address": "Charitrary Society, Kalal Darwaja, Godhra, Gujarat 389001",
    "phone": "Shivam Hospital; Dr. Jayesh Patel",
    "hours": "Open 24 hours",
    "image_url": "https://www.bing.com/maps/geoplat/REST/v1/Imagery/Map/RoadVibrant?ms=92,112&key=AnTcaqBi2ypp0xI-OZNi4W_ik2KhjgpqioTAtXLC8GzkMBQRMlyxvxyTnd5b73im&c=en-US&ur=in&da=n&logo=n&fmt=png&od=1&shading=hill&pp=22.775501,73.621407;dfp"
  },
  {
    "name": "Shree Orthopaedic & Maternity Hospital",
    "address": "Opp. Thakkar Khaman, Besides Panchmahal Tiles, Dahod Road, Godhra, Gujarat, Gujarat 389001",
    "phone": "Shree Orthopaedic & Maternity Hospital",
    "hours": null,
    "image_url": null
  },
  {
    "name": "Care Clinic",
    "address": "Gothara Road, Godhra, Gujarat 389001",
    "phone": "Care Clinic",
    "hours": null,
    "image_url": "https://www.bing.com/maps/geoplat/REST/v1/Imagery/Map/RoadVibrant?ms=92,112&key=AnTcaqBi2ypp0xI-OZNi4W_ik2KhjgpqioTAtXLC8GzkMBQRMlyxvxyTnd5b73im&c=en-US&ur=in&da=n&logo=n&fmt=png&od=1&shading=hill&pp=22.767437,73.616508;dfp"
  },
  {
    "name": "Shivam Orthopaedic Hospital",
    "address": "opp. Kalal Darwaja, Kalal Darwaja, Godhra, Gujarat",
    "phone": "Shivam Orthopaedic Hospital",
    "hours": null,
    "image_url": "https://www.bing.com/maps/geoplat/REST/v1/Imagery/Map/RoadVibrant?ms=92,112&key=AnTcaqBi2ypp0xI-OZNi4W_ik2KhjgpqioTAtXLC8GzkMBQRMlyxvxyTnd5b73im&c=en-US&ur=in&da=n&logo=n&fmt=png&od=1&shading=hill&pp=22.784525,73.617393;dfp"
  },
  {
    "name": "Dr Sakina Ginwala",
    "address": "Near Mahaprabhuji Bethakmandir, Patel Wada, Godhra, Gujarat 389001",
    "phone": "Dr Sakina Ginwala",
    "hours": null,
    "image_url": null
  },
  {
    "name": "Sparsh skin clinic | Best Dermotologist , Gujarat",
    "address": "Lokhandwala Complex, LIC (Chitra) Road, Opposite SBI Bank, Godhra, Gujarat 389001",
    "phone": "Sparsh skin clinic | Best Dermotologist , Gujarat",
    "hours": "Open· Closes 13:00",
    "image_url": null
  },
  {
    "name": "X-Ray House Godhra",
    "address": "Nagarpalika Road, Kalal Darwaja, Godhra, Gujarat, Gujarat 389001",
    "phone": "X-Ray House Godhra",
    "hours": null,
    "image_url": null
  }
]