[
  {
    "name": "Paras Hospital",
    "address": "Gurudwara, Paras Hospital Sector - 22, Nada Sahib, Panchkula, Madhya Pradesh 134109",
    "phone": "Paras Hospital",
    "hours": null,
    "image_url": "/th?id=OLC.Re%2bCUurE%2bA045A480x360&w=92&h=112&c=8&rs=1&qlt=80&cdv=1&pid=Local"
  },
  {
    "name": "Sparsh Clinic ( Dr Suneet Verma & Dr Meenakshi Verma)",
    "address": "SCO 24, Shiv Nagar, Peer Muchalla, Zirakpur, Punjab",
    "phone": "Sparsh Clinic ( Dr Suneet Verma & Dr Meenakshi Verma)",
    "hours": "Closed· Opens 11:30",
    "image_url": "/th?id=OLC.akrIm8rt8dMsiw480x360&w=92&h=134&c=8&rs=1&qlt=80&cdv=1&pid=Local"
  },
  {
    "name": "Dr. Pankaj Kumar",
    "address": "Ojas Superspeciality Hospital, H1, NH 7, Sector 26, Panchkula Extension, Panchkula, Haryana 134116",
    "phone": "Dr. Pankaj Kumar",
    "hours": "Open· Closes 17:00",
    "image_url": "/th?id=OLC.N%2bDf7ZMgqp%2baUA480x360&w=92&h=134&c=8&rs=1&qlt=80&cdv=1&pid=Local"
  },
  {
    "name": "Dr Batra Clinic",
    "address": "Sco-346, 1st Floor, Panchkula, Panchkula 134109",
    "phone": "Dr Batra Clinic",
    "hours": null,
    "image_url": "/th?id=OLC.%2fM1CGsGkTANsLA480x360&w=92&h=112&c=8&rs=1&qlt=80&cdv=1&pid=Local"
  },
  {
    "name": "Dr. Meenakshi Verma",
    "address": "SCO 244, 1st Floor, Panchkula, Haryana",
    "phone": "Dr. Meenakshi Verma",
    "hours": "Opens in 6 mins",
    "image_url": "https://www.bing.com/maps/geoplat/REST/v1/Imagery/Map/RoadVibrant?ms=92,112&key=AnTcaqBi2ypp0xI-OZNi4W_ik2KhjgpqioTAtXLC8GzkMBQRMlyxvxyTnd5b73im&c=en-US&ur=in&da=n&logo=n&fmt=png&od=1&shading=hill&pp=30.674103,76.847504;dfp"
  },
  {
    "name": "Dr. Chitresh Aggarwal - Best Oncologist/Cancer Specialist Doctor",
    "address": "DSS 92, Sector 12 Market, Panchkula, Haryana 134112",
    "phone": "Dr. Chitresh Aggarwal - Best Oncologist/Cancer Specialist Doctor",
    "hours": "Open· Closes 19:00",
    "image_url": "/th?id=OLC.Ghm43njIdm%2bl0Q480x360&w=92&h=134&c=8&rs=1&qlt=80&cdv=1&pid=Local"
  },
  {
    "name": "Dr. Anuj Bhargava",
    "address": "657, Landmark: Near Sanathan Dharam Mandir, Panchkula, Haryana",
    "phone": "Dr. Anuj Bhargava",
    "hours": "Open· Closes 13:30",
    "image_url": null
  },
  {
    "name": "Dr. Satish Chakravarty",
    "address": "207-208 Sec-10, Panchkula, Near Bus Stand, Panchkula, Haryana",
    "phone": "Dr. Satish Chakravarty",
    "hours": "Open· Closes 14:00",
    "image_url": "https://www.bing.com/maps/geoplat/REST/v1/Imagery/Map/RoadVibrant?ms=92,112&key=AnTcaqBi2ypp0xI-OZNi4W_ik2KhjgpqioTAtXLC8GzkMBQRMlyxvxyTnd5b73im&c=en-US&ur=in&da=n&logo=n&fmt=png&od=1&shading=hill&pp=30.688482,76.850304;dfp"
  },
  {
    "name": "Dr. Varun Aggarwal",
    "address": "SCF-10, Near M.S Enclave Gate, Opp. Fort Mystic Resort, Zirakpur, Punjab 140603, Panchkula, Haryana",
    "phone": "Dr. Varun Aggarwal",
    "hours": "Open· Closes 13:00",
    "image_url": null
  },
  {
    "name": "Dr. Gourav Jain DM Neurology-PGI Chandigarh",
    "address": "Sector 21, Budanpur, Panchkula, Haryana",
    "phone": "Dr. Gourav Jain DM Neurology-PGI Chandigarh",
    "hours": null,
    "image_url": null
  },
  {
    "name": "Dr. Ajay Goyal",
    "address": "727, B Road, Panchkula, Haryana",
    "phone": "Dr. Ajay Goyal",
    "hours": "Closed· Opens 17:30",
    "image_url": null
  },
  {
    "name": "Dr Aman Gupta Pediatric Rheumatologist And Immunologist",
    "address": "Medens Hospital, Site No 6, Sector 15, Panchkula, Haryana, Haryana 134113",
    "phone": "Dr Aman Gupta Pediatric Rheumatologist And Immunologist",
    "hours": "Open· Closes 14:00",
    "image_url": null
  },
  {
    "name": "Dr. Pankaj Raina",
    "address": "207-208 Sec-10, Panchkula, Near Bus Stand, Panchkula, Haryana",
    "phone": "Dr. Pankaj Raina",
    "hours": "Open· Closes 11:00",
    "image_url": null
  },
  {
    "name": "Orthomax Bone & Joint Hospital",
    "address": "Site NO 1, Sector 15, Nursing Home, Panchkula, Haryana 134112",
    "phone": "Orthomax Bone & Joint Hospital",
    "hours": null,
    "image_url": null
  },
  {
    "name": "Dr. Amit Bishnoi",
    "address": "1541-P, Panchkula, Haryana",
    "phone": "Dr. Amit Bishnoi",
    "hours": "Closed· Opens 17:30",
    "image_url": null
  },
  {
    "name": "Dr. Rajesh Gera",
    "address": "House Number 939, Panchkula, Haryana",
    "phone": "Dr. Rajesh Gera",
    "hours": "Closed· Opens 17:30",
    "image_url": null
  },
  {
    "name": "Dr. Daksh Khurana",
    "address": "Sector 21, Landmark, Panchkula, Panchkula 134112",
    "phone": "Dr. Daksh Khurana",
    "hours": "Open· Closes 16:00",
    "image_url": "https://www.bing.com/maps/geoplat/REST/v1/Imagery/Map/RoadVibrant?ms=92,112&key=AnTcaqBi2ypp0xI-OZNi4W_ik2KhjgpqioTAtXLC8GzkMBQRMlyxvxyTnd5b73im&c=en-US&ur=in&da=n&logo=n&fmt=png&od=1&shading=hill&pp=30.67454,76.864693;dfp"
  },
  {
    "name": "Dr. Surinder Kumar",
    "address": "Plot No 2, Hsiidc Tech Park Near Nada Sahib Gurudwara, Panchkula 134109",
    "phone": "Dr. Surinder Kumar",
    "hours": "Closed· Opens 11:30",
    "image_url": null
  }
]