[
  {
    "name": "Jadiyan Clinic",
    "address": "Calectrate, Panna, Madhya Pradesh 488338",
    "phone": "Jadiyan Clinic",
    "hours": null,
    "image_url": "https://www.bing.com/maps/geoplat/REST/v1/Imagery/Map/RoadVibrant?ms=92,112&key=AnTcaqBi2ypp0xI-OZNi4W_ik2KhjgpqioTAtXLC8GzkMBQRMlyxvxyTnd5b73im&c=en-US&ur=in&da=n&logo=n&fmt=png&od=1&shading=hill&pp=24.724348,80.188385;dfp"
  },
  {
    "name": "Dr. Praveen Kumar Shukla",
    "address": "Gyanjyoti Homeopathic Clinic, Chhatarpur, Madhya Pradesh",
    "phone": "Dr. Praveen Kumar Shukla",
    "hours": null,
    "image_url": "/th?id=OLC.eipkCFgiOKSVmQ480x360&w=92&h=112&c=8&rs=1&qlt=80&cdv=1&pid=Local"
  },
  {
    "name": "Sengar Clinic",
    "address": "Ward NO 14, Karhi Road, Pawai, Panna, Madhya Pradesh 488446",
    "phone": "Sengar Clinic",
    "hours": null,
    "image_url": "https://www.bing.com/maps/geoplat/REST/v1/Imagery/Map/RoadVibrant?ms=92,112&key=AnTcaqBi2ypp0xI-OZNi4W_ik2KhjgpqioTAtXLC8GzkMBQRMlyxvxyTnd5b73im&c=en-US&ur=in&da=n&logo=n&fmt=png&od=1&shading=hill&pp=24.278749,80.161438;dfp"
  },
  {
    "name": "Mahi Clinic",
    "address": "Panna Khajuraho Road, Bamitha Gram Panchayat, Bamitha Chhatarpur, Bamitha, Madhya Pradesh 471105",
    "phone": "Mahi Clinic",
    "hours": null,
    "image_url": "https://www.bing.com/maps/geoplat/REST/v1/Imagery/Map/RoadVibrant?ms=92,112&key=AnTcaqBi2ypp0xI-OZNi4W_ik2KhjgpqioTAtXLC8GzkMBQRMlyxvxyTnd5b73im&c=en-US&ur=in&da=n&logo=n&fmt=png&od=1&shading=hill&pp=24.767357,79.879944;dfp"
  },
  {
    "name": "Dr SS Rajput Clinic",
    "address": "Dr Ss Rajput, Hata Se Panna, Hata, Hatta, Madhya Pradesh 470661",
    "phone": "Dr SS Rajput Clinic",
    "hours": null,
    "image_url": "https://www.bing.com/maps/geoplat/REST/v1/Imagery/Map/RoadVibrant?ms=92,112&key=AnTcaqBi2ypp0xI-OZNi4W_ik2KhjgpqioTAtXLC8GzkMBQRMlyxvxyTnd5b73im&c=en-US&ur=in&da=n&logo=n&fmt=png&od=1&shading=hill&pp=24.136921,79.606613;dfp"
  },
  {
    "name": "Pathan Clinic Madiyado",
    "address": "7MH5+F5G, Madhiyadoh, Madhya Pradesh",
    "phone": "Pathan Clinic Madiyado",
    "hours": null,
    "image_url": "https://www.bing.com/maps/geoplat/REST/v1/Imagery/Map/RoadVibrant?ms=92,112&key=AnTcaqBi2ypp0xI-OZNi4W_ik2KhjgpqioTAtXLC8GzkMBQRMlyxvxyTnd5b73im&c=en-US&ur=in&da=n&logo=n&fmt=png&od=1&shading=hill&pp=24.276863,79.649666;dfp"
  },
  {
    "name": "Arogya Clinic Dr Hemant Sharma",
    "address": "Dharamshala Marg, Near Post Office, Nagod, Madhya Pradesh 485446",
    "phone": "Arogya Clinic Dr Hemant Sharma",
    "hours": null,
    "image_url": "https://www.bing.com/maps/geoplat/REST/v1/Imagery/Map/RoadVibrant?ms=92,112&key=AnTcaqBi2ypp0xI-OZNi4W_ik2KhjgpqioTAtXLC8GzkMBQRMlyxvxyTnd5b73im&c=en-US&ur=in&da=n&logo=n&fmt=png&od=1&shading=hill&pp=24.568638,80.584518;dfp"
  },
  {
    "name": "Dr. Ramesh Vishwakarma- General Physician",
    "address": "Lokpriya Hospital, Chandranagar, Chattarpur, Rajnagar, Madhya Pradesh 471625",
    "phone": "Dr. Ramesh Vishwakarma- General Physician",
    "hours": "Open· Closes 18:00",
    "image_url": "https://www.bing.com/maps/geoplat/REST/v1/Imagery/Map/RoadVibrant?ms=92,134&key=AnTcaqBi2ypp0xI-OZNi4W_ik2KhjgpqioTAtXLC8GzkMBQRMlyxvxyTnd5b73im&c=en-US&ur=in&da=n&logo=n&fmt=png&od=1&shading=hill&pp=24.890558,79.875839;dfp"
  },
  {
    "name": "Shri Siddhivinayak Homoeopathic Clinic",
    "address": "Near Ganesh Temple, Sevagram, Khajuraho, Madhya Pradesh",
    "phone": "Shri Siddhivinayak Homoeopathic Clinic",
    "hours": null,
    "image_url": "https://www.bing.com/maps/geoplat/REST/v1/Imagery/Map/RoadVibrant?ms=92,112&key=AnTcaqBi2ypp0xI-OZNi4W_ik2KhjgpqioTAtXLC8GzkMBQRMlyxvxyTnd5b73im&c=en-US&ur=in&da=n&logo=n&fmt=png&od=1&shading=hill&pp=24.8519,79.922997;dfp"
  },
  {
    "name": "Dr Devendra Singh",
    "address": "Panna, Synidcate Bank Atm, Panna, Madhya Pradesh 488001",
    "phone": "Dr Devendra Singh",
    "hours": null,
    "image_url": "https://www.bing.com/maps/geoplat/REST/v1/Imagery/Map/RoadVibrant?ms=92,112&key=AnTcaqBi2ypp0xI-OZNi4W_ik2KhjgpqioTAtXLC8GzkMBQRMlyxvxyTnd5b73im&c=en-US&ur=in&da=n&logo=n&fmt=png&od=1&shading=hill&pp=24.719557,80.18499;dfp"
  },
  {
    "name": "Primary Health Centre",
    "address": "Chandra Nagar, Nh75 Panna Khajuraho Road, Raj Nagar, Madhya Pradesh 471101",
    "phone": "Primary Health Centre",
    "hours": null,
    "image_url": "https://www.bing.com/maps/geoplat/REST/v1/Imagery/Map/RoadVibrant?ms=92,112&key=AnTcaqBi2ypp0xI-OZNi4W_ik2KhjgpqioTAtXLC8GzkMBQRMlyxvxyTnd5b73im&c=en-US&ur=in&da=n&logo=n&fmt=png&od=1&shading=hill&pp=24.751444,79.956055;dfp"
  },
  {
    "name": "Dr Vijay Parmar Clinic",
    "address": "Galla Mandi Road, Galla Mandi, Tikuria Mohalla, Devendra Nagar, Madhya Pradesh 488333",
    "phone": "Dr Vijay Parmar Clinic",
    "hours": null,
    "image_url": "https://www.bing.com/maps/geoplat/REST/v1/Imagery/Map/RoadVibrant?ms=92,112&key=AnTcaqBi2ypp0xI-OZNi4W_ik2KhjgpqioTAtXLC8GzkMBQRMlyxvxyTnd5b73im&c=en-US&ur=in&da=n&logo=n&fmt=png&od=1&shading=hill&pp=24.725422,80.192375;dfp"
  },
  {
    "name": "Sr ayurveda panchkarma clinic & नशा मुक्ति केंद्र",
    "address": "Sr Ayurveda Singhpur, Choraha, Nagod, Madhya Pradesh",
    "phone": "Sr ayurveda panchkarma clinic & नशा मुक्ति केंद्र",
    "hours": null,
    "image_url": "https://www.bing.com/maps/geoplat/REST/v1/Imagery/Map/RoadVibrant?ms=92,112&key=AnTcaqBi2ypp0xI-OZNi4W_ik2KhjgpqioTAtXLC8GzkMBQRMlyxvxyTnd5b73im&c=en-US&ur=in&da=n&logo=n&fmt=png&od=1&shading=hill&pp=24.573099,80.584702;dfp"
  },
  {
    "name": "Best General Practitioner  - Dr. Singh|Cough | Cold | Fever | Asthma | Sugar",
    "address": "Singh Clinic, Near Science College, Panna, Madhya Pradesh",
    "phone": "Best General Practitioner  - Dr. Singh|Cough | Cold | Fever | Asthma | Sugar",
    "hours": null,
    "image_url": "https://www.bing.com/maps/geoplat/REST/v1/Imagery/Map/RoadVibrant?ms=92,112&key=AnTcaqBi2ypp0xI-OZNi4W_ik2KhjgpqioTAtXLC8GzkMBQRMlyxvxyTnd5b73im&c=en-US&ur=in&da=n&logo=n&fmt=png&od=1&shading=hill&pp=23.161425,79.920998;dfp"
  },
  {
    "name": "Raj Pathology",
    "address": "Mahoba Road, State Bank Of India, Amanganj, Madhya Pradesh 488441",
    "phone": "Raj Pathology",
    "hours": null,
    "image_url": "https://www.bing.com/maps/geoplat/REST/v1/Imagery/Map/RoadVibrant?ms=92,112&key=AnTcaqBi2ypp0xI-OZNi4W_ik2KhjgpqioTAtXLC8GzkMBQRMlyxvxyTnd5b73im&c=en-US&ur=in&da=n&logo=n&fmt=png&od=1&shading=hill&pp=24.429617,80.037338;dfp"
  },
  {
    "name": "Naveen Clinic",
    "address": "Acc Road, Shiv Mandir, Madhav Nagar Murwara Katni Madhya Pradesh, Murwara, Madhya Pradesh 483501",
    "phone": "Naveen Clinic",
    "hours": null,
    "image_url": "https://www.bing.com/maps/geoplat/REST/v1/Imagery/Map/RoadVibrant?ms=92,112&key=AnTcaqBi2ypp0xI-OZNi4W_ik2KhjgpqioTAtXLC8GzkMBQRMlyxvxyTnd5b73im&c=en-US&ur=in&da=n&logo=n&fmt=png&od=1&shading=hill&pp=23.798416,80.381287;dfp"
  }
]