[
  {
    "name": "Madhavbaug Clinic",
    "address": "Madhavbaug Building, Vasmat Rd, Near Vasantrao Naik Statue, Parbhani, Maharashtra",
    "phone": "Madhavbaug Clinic",
    "hours": "Open· Closes 19:00",
    "image_url": "https://www.bing.com/maps/geoplat/REST/v1/Imagery/Map/RoadVibrant?ms=92,112&key=AnTcaqBi2ypp0xI-OZNi4W_ik2KhjgpqioTAtXLC8GzkMBQRMlyxvxyTnd5b73im&c=en-US&ur=in&da=n&logo=n&fmt=png&od=1&shading=hill&pp=19.256008,76.785522;dfp"
  },
  {
    "name": "Dr. Ankush Pawar",
    "address": "Opp.Chintamani Maharaj Mandir, Parbhani, Maharashtra 431401",
    "phone": "Dr. Ankush Pawar",
    "hours": "Closed· Opens 11:00",
    "image_url": "/th?id=OLC.3rQD9YNt1vzsvQ480x360&w=92&h=134&c=8&rs=1&qlt=80&cdv=1&pid=Local"
  },
  {
    "name": "Vibhute's Anand Clinic",
    "address": "Anand Clinic, Vidya Nagar Corner, Parbhani, Parbhani, Maharashtra, Maharashtra 431401",
    "phone": "Vibhute's Anand Clinic",
    "hours": null,
    "image_url": "/th?id=OLC.6ksNPBYEH8CsIQ480x360&w=92&h=112&c=8&rs=1&qlt=80&cdv=1&pid=Local"
  },
  {
    "name": "DR.Prafulla Patil MULTI-Super Speciality Hospital",
    "address": "National Highway No.222, Pathari Road, Parbhani, Maharashtra 431401",
    "phone": "DR.Prafulla Patil MULTI-Super Speciality Hospital",
    "hours": null,
    "image_url": "/th?id=OLC.9MNtGSLekxF5UQ480x360&w=92&h=112&c=8&rs=1&qlt=80&cdv=1&pid=Local"
  },
  {
    "name": "Dr Santosh k Palve",
    "address": "Sparsh Multispeciality Hospital Rani Laximi Road, Gavhane Rd, Chowk, Parbhani, Maharashtra",
    "phone": "Dr Santosh k Palve",
    "hours": null,
    "image_url": "https://www.bing.com/maps/geoplat/REST/v1/Imagery/Map/RoadVibrant?ms=92,112&key=AnTcaqBi2ypp0xI-OZNi4W_ik2KhjgpqioTAtXLC8GzkMBQRMlyxvxyTnd5b73im&c=en-US&ur=in&da=n&logo=n&fmt=png&od=1&shading=hill&pp=19.263016,76.769241;dfp"
  },
  {
    "name": "Dr. Rampurkar's clinic",
    "address": "Karegaon Rd, Vikas Nagar, Parbhani, Maharashtra 431401, India, Parbhani, Maharashtra 431401",
    "phone": "Dr. Rampurkar's clinic",
    "hours": null,
    "image_url": "/th?id=OLC.gH%2fgmouaDg%2fs%2fQ480x360&w=92&h=112&c=8&rs=1&qlt=80&cdv=1&pid=Local"
  },
  {
    "name": "Dr. Rajani Varma- Gynaecologist",
    "address": "Varma Hospital, Opposite Police Headquarters, Shani Mandir Road, Parbhani, Maharashtra 431401",
    "phone": "Dr. Rajani Varma- Gynaecologist",
    "hours": "Open· Closes 14:00",
    "image_url": "https://www.bing.com/maps/geoplat/REST/v1/Imagery/Map/RoadVibrant?ms=92,134&key=AnTcaqBi2ypp0xI-OZNi4W_ik2KhjgpqioTAtXLC8GzkMBQRMlyxvxyTnd5b73im&c=en-US&ur=in&da=n&logo=n&fmt=png&od=1&shading=hill&pp=19.272129,76.768631;dfp"
  },
  {
    "name": "Dr. Dinesh Gaul ENT Clinic",
    "address": "Near Gandhi Vidyalaya, Gawane Road, New Mondha, Parbhani, Maharashtra 431401",
    "phone": "Dr. Dinesh Gaul ENT Clinic",
    "hours": "Open· Closes 15:00",
    "image_url": null
  },
  {
    "name": "Piles clinic",
    "address": "Patel Clinic, Parbhani, Maharashtra 431401",
    "phone": "Piles clinic",
    "hours": null,
    "image_url": "https://www.bing.com/maps/geoplat/REST/v1/Imagery/Map/RoadVibrant?ms=92,112&key=AnTcaqBi2ypp0xI-OZNi4W_ik2KhjgpqioTAtXLC8GzkMBQRMlyxvxyTnd5b73im&c=en-US&ur=in&da=n&logo=n&fmt=png&od=1&shading=hill&pp=19.265949,76.774078;dfp"
  },
  {
    "name": "Dr. Deepak Panditrao Gatti- Gynaecologist",
    "address": "Gatti Deepak Clinic, R R Petrol Pump, Ramkrishna Nagar, Basmat Road, Parbhani, Maharashtra 431401",
    "phone": "Dr. Deepak Panditrao Gatti- Gynaecologist",
    "hours": "Closed· Opens 17:00",
    "image_url": "https://www.bing.com/maps/geoplat/REST/v1/Imagery/Map/RoadVibrant?ms=92,134&key=AnTcaqBi2ypp0xI-OZNi4W_ik2KhjgpqioTAtXLC8GzkMBQRMlyxvxyTnd5b73im&c=en-US&ur=in&da=n&logo=n&fmt=png&od=1&shading=hill&pp=19.256081,76.784554;dfp"
  },
  {
    "name": "Dr.Shruti Gawali's Pure Perfection Skin Clinic",
    "address": "Municipal Council, 1st Floor, Above Balaji Medical Store, Near Tumsar, Tumsar, Maharashtra",
    "phone": "Dr.Shruti Gawali's Pure Perfection Skin Clinic",
    "hours": null,
    "image_url": null
  },
  {
    "name": "Ramdhave ENT Hospital",
    "address": "Dhanwantari Nagar, Near Bus Stand, Near Sai Medical, Parbhani, Maharashtra",
    "phone": "Ramdhave ENT Hospital",
    "hours": null,
    "image_url": "https://www.bing.com/maps/geoplat/REST/v1/Imagery/Map/RoadVibrant?ms=92,112&key=AnTcaqBi2ypp0xI-OZNi4W_ik2KhjgpqioTAtXLC8GzkMBQRMlyxvxyTnd5b73im&c=en-US&ur=in&da=n&logo=n&fmt=png&od=1&shading=hill&pp=19.261293,76.771263;dfp"
  },
  {
    "name": "Dr. Mohammed Nizamuddin | m.d homoeopathy | Dr. Mohammed Nizamuddin's clinic",
    "address": "Dr. Mohammed Nizamuddin's Clinic, Parbhani, Maharashtra, India, 431401, Parbhani, Madhya Prades…",
    "phone": "Dr. Mohammed Nizamuddin | m.d homoeopathy | Dr. Mohammed Nizamuddin's clinic",
    "hours": "Opens in 6 mins",
    "image_url": null
  },
  {
    "name": "Dr.Shingade's Shree Vishwasharada Multispeciality Ayurveda and Panchkarma Clinic",
    "address": "12133\\28, Vakil Colony, Garipir Chowk, Civil Hospital To 100Ft Road, Sangli, Maharashtra 416416",
    "phone": "Dr.Shingade's Shree Vishwasharada Multispeciality Ayurveda and Panchkarma Clinic",
    "hours": null,
    "image_url": "https://www.bing.com/maps/geoplat/REST/v1/Imagery/Map/RoadVibrant?ms=92,112&key=AnTcaqBi2ypp0xI-OZNi4W_ik2KhjgpqioTAtXLC8GzkMBQRMlyxvxyTnd5b73im&c=en-US&ur=in&da=n&logo=n&fmt=png&od=1&shading=hill&pp=19.26453,76.77935;dfp"
  },
  {
    "name": "Dr. Dinesh Bhutada Skin Clinic",
    "address": "House No 709 Ramkrishna Nagar Plot No 37 Vasmat Road 709, Parbhani, Maharashtra 431401",
    "phone": "Dr. Dinesh Bhutada Skin Clinic",
    "hours": null,
    "image_url": null
  },
  {
    "name": "Dr. Baheti’s Diabetes Superspeciality Center",
    "address": "Vasmath Road, Parbhani, Maharashtra, Maharashtra 431401",
    "phone": "Dr. Baheti’s Diabetes Superspeciality Center",
    "hours": null,
    "image_url": "https://www.bing.com/maps/geoplat/REST/v1/Imagery/Map/RoadVibrant?ms=92,112&key=AnTcaqBi2ypp0xI-OZNi4W_ik2KhjgpqioTAtXLC8GzkMBQRMlyxvxyTnd5b73im&c=en-US&ur=in&da=n&logo=n&fmt=png&od=1&shading=hill&pp=19.256426,76.785065;dfp"
  },
  {
    "name": "Manashanti Hospital",
    "address": "Selu Parbhani Road, Parbhani, Maharashtra 431401, India, Parbhani, Maharashtra 431401",
    "phone": "Manashanti Hospital",
    "hours": null,
    "image_url": null
  },
  {
    "name": "Medicine India",
    "address": "Govardhan Medical & General Stores, Doctors Lane, Near Bus Stand, Parbhani, Bus Stand Road, Parbhani …",
    "phone": "Medicine India",
    "hours": "Open· Closes 21:00",
    "image_url": "https://www.bing.com/maps/geoplat/REST/v1/Imagery/Map/RoadVibrant?ms=92,134&key=AnTcaqBi2ypp0xI-OZNi4W_ik2KhjgpqioTAtXLC8GzkMBQRMlyxvxyTnd5b73im&c=en-US&ur=in&da=n&logo=n&fmt=png&od=1&shading=hill&pp=19.259235,76.771294;dfp"
  }
]