[
  {
    "name": "Dr. Sanjay Sharma- General Physician in Gurdaspur",
    "address": "Sharma Hospital Opposite SBI Gurdaspur Road, Kolhua Dadar, NH 57, Pathankot, Punjab 145001",
    "phone": "Dr. Sanjay Sharma- General Physician in Gurdaspur",
    "hours": "Open· Closes 14:00",
    "image_url": "https://www.bing.com/maps/geoplat/REST/v1/Imagery/Map/RoadVibrant?ms=92,134&key=AnTcaqBi2ypp0xI-OZNi4W_ik2KhjgpqioTAtXLC8GzkMBQRMlyxvxyTnd5b73im&c=en-US&ur=in&da=n&logo=n&fmt=png&od=1&shading=hill&pp=32.273193,75.637177;dfp"
  },
  {
    "name": "Dr. Rajneesh Bedi- General Physician",
    "address": "Rajneesh Bedi Clinic, Behind Main Bus Stand, New Bank Colony, Pathankot, Punjab 145001",
    "phone": "Dr. Rajneesh Bedi- General Physician",
    "hours": "Closed· Opens 11:00",
    "image_url": "https://www.bing.com/maps/geoplat/REST/v1/Imagery/Map/RoadVibrant?ms=92,134&key=AnTcaqBi2ypp0xI-OZNi4W_ik2KhjgpqioTAtXLC8GzkMBQRMlyxvxyTnd5b73im&c=en-US&ur=in&da=n&logo=n&fmt=png&od=1&shading=hill&pp=32.278015,75.64061;dfp"
  },
  {
    "name": "Kashyap Clinic",
    "address": "'र'गढ़ Parmand Road, Pathankot, Punjab Region",
    "phone": "Kashyap Clinic",
    "hours": null,
    "image_url": "https://www.bing.com/maps/geoplat/REST/v1/Imagery/Map/RoadVibrant?ms=92,112&key=AnTcaqBi2ypp0xI-OZNi4W_ik2KhjgpqioTAtXLC8GzkMBQRMlyxvxyTnd5b73im&c=en-US&ur=in&da=n&logo=n&fmt=png&od=1&shading=hill&pp=32.269394,75.645035;dfp"
  },
  {
    "name": "Dr. Chetan Mahajan",
    "address": "Dhangu Road, Pathankot 145001",
    "phone": "Dr. Chetan Mahajan",
    "hours": "Closed· Opens tomorrow 14:00",
    "image_url": "/th?id=OLC.4mqCzR5JTMr2Kw480x360&w=92&h=134&c=8&rs=1&qlt=80&cdv=1&pid=Local"
  },
  {
    "name": "Dr. Chopra's Homoeo clinic, banga ( Homoeopathic clinic )",
    "address": "Near Khadar Bhandar, Gandhi Nagar Mohalla, Banga Rural, Punjab",
    "phone": "Dr. Chopra's Homoeo clinic, banga ( Homoeopathic clinic )",
    "hours": null,
    "image_url": "https://www.bing.com/maps/geoplat/REST/v1/Imagery/Map/RoadVibrant?ms=92,112&key=AnTcaqBi2ypp0xI-OZNi4W_ik2KhjgpqioTAtXLC8GzkMBQRMlyxvxyTnd5b73im&c=en-US&ur=in&da=n&logo=n&fmt=png&od=1&shading=hill&pp=32.272518,75.63797;dfp"
  },
  {
    "name": "Dr. Pankaj Sharma Hospital",
    "address": "Silver Estate, Pathankot, Punjab 145001",
    "phone": "Dr. Pankaj Sharma Hospital",
    "hours": "Opens in 5 mins",
    "image_url": "/th?id=OLC.92ymEfDKDVB6Sw480x360&w=92&h=134&c=8&rs=1&qlt=80&cdv=1&pid=Local"
  },
  {
    "name": "Dr Abinash Sharma",
    "address": "College Road, Chakki Bank, Pathankot, Punjab 145001",
    "phone": "Dr Abinash Sharma",
    "hours": null,
    "image_url": null
  },
  {
    "name": "Dr. Yash Pal Gupta",
    "address": "Gupta Ent Hospital, Patel Chowk, Landmark: Near Bhugland Showroom, Pathankot, Punjab 145001",
    "phone": "Dr. Yash Pal Gupta",
    "hours": "Open· Closes 14:00",
    "image_url": "https://www.bing.com/maps/geoplat/REST/v1/Imagery/Map/RoadVibrant?ms=92,134&key=AnTcaqBi2ypp0xI-OZNi4W_ik2KhjgpqioTAtXLC8GzkMBQRMlyxvxyTnd5b73im&c=en-US&ur=in&da=n&logo=n&fmt=png&od=1&shading=hill&pp=32.26944,75.653496;dfp"
  },
  {
    "name": "City Ortho Hospital and Trauma Centre",
    "address": "Near Shani dev Mandir, Pathankot 145001",
    "phone": "City Ortho Hospital and Trauma Centre",
    "hours": null,
    "image_url": null
  },
  {
    "name": "Raj Hospital",
    "address": "Simble Chowk, Pathankot (Punjab) - 145001, Pathankot 145001",
    "phone": "Raj Hospital",
    "hours": null,
    "image_url": null
  },
  {
    "name": "Dr. Pankaj Sharma- Paediatrics",
    "address": "Dr. Pankaj Sharma Hospital, Silver Estate, Saili Road, Behind Police Station Division Number 2, Pathankot, P…",
    "phone": "Dr. Pankaj Sharma- Paediatrics",
    "hours": "Open· Closes 12:00",
    "image_url": "https://www.bing.com/maps/geoplat/REST/v1/Imagery/Map/RoadVibrant?ms=92,134&key=AnTcaqBi2ypp0xI-OZNi4W_ik2KhjgpqioTAtXLC8GzkMBQRMlyxvxyTnd5b73im&c=en-US&ur=in&da=n&logo=n&fmt=png&od=1&shading=hill&pp=32.263878,75.658417;dfp"
  },
  {
    "name": "M V Clinic",
    "address": "Model Town, Pathankot(Punjab), Pathankot 145001",
    "phone": "M V Clinic",
    "hours": null,
    "image_url": "https://www.bing.com/maps/geoplat/REST/v1/Imagery/Map/RoadVibrant?ms=92,112&key=AnTcaqBi2ypp0xI-OZNi4W_ik2KhjgpqioTAtXLC8GzkMBQRMlyxvxyTnd5b73im&c=en-US&ur=in&da=n&logo=n&fmt=png&od=1&shading=hill&pp=32.26075,75.648827;dfp"
  },
  {
    "name": "Arogyaveda Arora Clinic",
    "address": "Mission Road, Pathankot 145001",
    "phone": "Arogyaveda Arora Clinic",
    "hours": "Open· Closes 15:00",
    "image_url": null
  },
  {
    "name": "Dr Batra's Homeopathy, Hair & Skin Clinic",
    "address": "Shree Complex 2nd Floor, Dalhousie Road, Near Pantaloons, Pathankot, Punjab 145001",
    "phone": "Dr Batra's Homeopathy, Hair & Skin Clinic",
    "hours": "Closed· Opens 11:00",
    "image_url": null
  },
  {
    "name": "Calcutta homoeopthic clinic",
    "address": "Main Bazar...Near Khadhi Bhandar Showroom, Pathankot 145001",
    "phone": "Calcutta homoeopthic clinic",
    "hours": null,
    "image_url": null
  },
  {
    "name": "Pathankot Kidney & Stone Clinic",
    "address": "Improvement Trust Road, Patel Chowk, Patel Nagar, Pathankot, Punjab",
    "phone": "Pathankot Kidney & Stone Clinic",
    "hours": null,
    "image_url": null
  },
  {
    "name": "SuKiran ENT Hospital",
    "address": "Opposite Sharma Sweets Vicky DI Hatti, Mission Chowk, Pathankot 145001",
    "phone": "SuKiran ENT Hospital",
    "hours": null,
    "image_url": null
  },
  {
    "name": "Dr. Gaurav Mahajan",
    "address": "Shop no.1, Sahni Market, Pathankot, Punjab",
    "phone": "Dr. Gaurav Mahajan",
    "hours": "Opens in 5 mins",
    "image_url": "https://www.bing.com/maps/geoplat/REST/v1/Imagery/Map/RoadVibrant?ms=92,112&key=AnTcaqBi2ypp0xI-OZNi4W_ik2KhjgpqioTAtXLC8GzkMBQRMlyxvxyTnd5b73im&c=en-US&ur=in&da=n&logo=n&fmt=png&od=1&shading=hill&pp=32.272972,75.658142;dfp"
  }
]