[
  {
    "name": "Dr Pooja Gupta",
    "address": "Medlink IVF Centre, Gurbax Colony, Main Rd, Patiala, Punjab 147001",
    "phone": "Dr Pooja Gupta",
    "hours": "Open· Closes 19:00",
    "image_url": "https://www.bing.com/maps/geoplat/REST/v1/Imagery/Map/RoadVibrant?ms=92,134&key=AnTcaqBi2ypp0xI-OZNi4W_ik2KhjgpqioTAtXLC8GzkMBQRMlyxvxyTnd5b73im&c=en-US&ur=in&da=n&logo=n&fmt=png&od=1&shading=hill&pp=30.343355,76.410309;dfp"
  },
  {
    "name": "Dr. Jagjeet Singh Parwana",
    "address": "514, SST Nagar, Patiala, Punjab",
    "phone": "Dr. Jagjeet Singh Parwana",
    "hours": null,
    "image_url": "https://www.bing.com/maps/geoplat/REST/v1/Imagery/Map/RoadVibrant?ms=92,112&key=AnTcaqBi2ypp0xI-OZNi4W_ik2KhjgpqioTAtXLC8GzkMBQRMlyxvxyTnd5b73im&c=en-US&ur=in&da=n&logo=n&fmt=png&od=1&shading=hill&pp=30.335886,76.41468;dfp"
  },
  {
    "name": "Manipal Hospitals",
    "address": "Bhupindra Road, Near 22 No. Phatak, Patiala, Punjab 147001",
    "phone": "Manipal Hospitals",
    "hours": "Open 24 hours",
    "image_url": "/th?id=OLC.FeDbu%2bDGgIiBrg480x360&w=92&h=134&c=8&rs=1&qlt=80&cdv=1&pid=Local"
  },
  {
    "name": "Dr Nitin ( Kidney Specialist)",
    "address": "C-1, Sanauri Adda, Near, Tej Bagh Colony, Patiala, Punjab 147001, India, Patiala, Punjab 147001",
    "phone": "Dr Nitin ( Kidney Specialist)",
    "hours": "Open· Closes 17:00",
    "image_url": "/th?id=OLC.2NCluX1ZmjlkSQ480x360&w=92&h=134&c=8&rs=1&qlt=80&cdv=1&pid=Local"
  },
  {
    "name": "Dr. Madhvi Arora Sethi",
    "address": "2nd Floor, Sehat Medicare, 50, Yadavindra Colony, Patiala, Punjab Region 147001",
    "phone": "Dr. Madhvi Arora Sethi",
    "hours": "Open· Closes 19:00",
    "image_url": "/th?id=OLC.2VInpvhe1Z7jOg480x360&w=92&h=134&c=8&rs=1&qlt=80&cdv=1&pid=Local"
  },
  {
    "name": "Ayush Clinic Vpo Chorah Patiala",
    "address": "Vpo Chorah, Patiala, Punjab 147001",
    "phone": "Ayush Clinic Vpo Chorah Patiala",
    "hours": null,
    "image_url": "/th?id=OLC.SYypMz7YKewyUg480x360&w=92&h=112&c=8&rs=1&qlt=80&cdv=1&pid=Local"
  },
  {
    "name": "Dr Vivek Singla",
    "address": "Amar Hospital, Patiala 147001",
    "phone": "Dr Vivek Singla",
    "hours": null,
    "image_url": null
  },
  {
    "name": "Dr. Napinder Singh Chahal",
    "address": "Adalat Bazaar, Sanauri Adda, Patiala, Punjab",
    "phone": "Dr. Napinder Singh Chahal",
    "hours": "Open· Closes 19:00",
    "image_url": null
  },
  {
    "name": "Dr Raheel Khan Clinic",
    "address": "Medical Colony, 31-B Lane 6, Bahawalpur Cantt, Bahawalpur, Punjab 63100, Pakistan, پٹیالہ 147001",
    "phone": "Dr Raheel Khan Clinic",
    "hours": null,
    "image_url": "https://www.bing.com/maps/geoplat/REST/v1/Imagery/Map/RoadVibrant?ms=92,112&key=AnTcaqBi2ypp0xI-OZNi4W_ik2KhjgpqioTAtXLC8GzkMBQRMlyxvxyTnd5b73im&c=en-US&ur=in&da=n&logo=n&fmt=png&od=1&shading=hill&pp=30.340048,76.353554;dfp"
  },
  {
    "name": "Dr. Rakesh Singla | M.D(Ay)",
    "address": "Shahi Samadhan Rd, Adalat Bazar, Patiala, Punjab, India, 147001, Patiala, Madhya Pradesh 147001",
    "phone": "Dr. Rakesh Singla | M.D(Ay)",
    "hours": "Open· Closes 18:00",
    "image_url": null
  },
  {
    "name": "Dr. Pankaj Kumar Garg",
    "address": "Bhupindra Road Near 22 No Phatak, Patiala, Punjab 147001",
    "phone": "Dr. Pankaj Kumar Garg",
    "hours": "Open· Closes 14:00",
    "image_url": "https://www.bing.com/maps/geoplat/REST/v1/Imagery/Map/RoadVibrant?ms=92,112&key=AnTcaqBi2ypp0xI-OZNi4W_ik2KhjgpqioTAtXLC8GzkMBQRMlyxvxyTnd5b73im&c=en-US&ur=in&da=n&logo=n&fmt=png&od=1&shading=hill&pp=30.347952,76.376213;dfp"
  },
  {
    "name": "Dr. Pooja K Singh",
    "address": "3, Hem Bagh Colony, Patiala 147001",
    "phone": "Dr. Pooja K Singh",
    "hours": null,
    "image_url": "https://www.bing.com/maps/geoplat/REST/v1/Imagery/Map/RoadVibrant?ms=92,112&key=AnTcaqBi2ypp0xI-OZNi4W_ik2KhjgpqioTAtXLC8GzkMBQRMlyxvxyTnd5b73im&c=en-US&ur=in&da=n&logo=n&fmt=png&od=1&shading=hill&pp=30.324427,76.38868;dfp"
  },
  {
    "name": "Dr. Karun Singla",
    "address": "Rajpura Road, Patiala",
    "phone": "Dr. Karun Singla",
    "hours": "Closed· Opens tomorrow 10:30",
    "image_url": null
  },
  {
    "name": "Dr. Bharti's Medikidz Hospital",
    "address": "1-A Green View Rajbaha Road Near 21 NO. Phatak Flyover Adjacent Hotel Garden Resort, Patiala - 14700…",
    "phone": "Dr. Bharti's Medikidz Hospital",
    "hours": null,
    "image_url": null
  },
  {
    "name": "Dr. Thind's Homoeopathic Clinic",
    "address": "Sheranwala Gate, Patiala 147001",
    "phone": "Dr. Thind's Homoeopathic Clinic",
    "hours": "Open· Closes 14:00",
    "image_url": null
  },
  {
    "name": "Bansal Jointline Orthopaedic Hospital",
    "address": "SCO 7, Main Market, SST Nagar, Patiala, Punjab",
    "phone": "Bansal Jointline Orthopaedic Hospital",
    "hours": null,
    "image_url": null
  },
  {
    "name": "Patiala Clinic And Hijama Center Nabha",
    "address": "Ranjit Nagar, Kala Peha, Near Avon Public School, Nabha 147201",
    "phone": "Patiala Clinic And Hijama Center Nabha",
    "hours": null,
    "image_url": null
  },
  {
    "name": "Dr. Vikas Nagi",
    "address": "Singhla Complex, 1st Floor, Patiala, Punjab",
    "phone": "Dr. Vikas Nagi",
    "hours": "Closed· Opens Thu 10:00",
    "image_url": "https://www.bing.com/maps/geoplat/REST/v1/Imagery/Map/RoadVibrant?ms=92,112&key=AnTcaqBi2ypp0xI-OZNi4W_ik2KhjgpqioTAtXLC8GzkMBQRMlyxvxyTnd5b73im&c=en-US&ur=in&da=n&logo=n&fmt=png&od=1&shading=hill&pp=30.335297,76.384361;dfp"
  }
]