[
  {
    "name": "Dr. R.K. Prasad",
    "address": "Patna-Gaya Road, Near Maa Durga Mandir, Punpun, Patna, Bihar 804453",
    "phone": "Dr. R.K. Prasad",
    "hours": null,
    "image_url": "/th?id=OLC.1pS0PsM384V00g480x360&w=92&h=112&c=8&rs=1&qlt=80&cdv=1&pid=Local"
  },
  {
    "name": "Dr. Ratan Prakash",
    "address": "Phani Ghosh Lane, Opp. Durga Mandir, Anisabad, Patna 800002",
    "phone": "Dr. Ratan Prakash",
    "hours": "Closed· Opens 18:00",
    "image_url": "/th?id=OLC.mxL70kbspLzNSQ480x360&w=92&h=134&c=8&rs=1&qlt=80&cdv=1&pid=Local"
  },
  {
    "name": "Dr.D.K.Sinha (General Physician)",
    "address": "Sadhnapuri Road, Near Sani Medical, Sadhnapuri, Patna, Bihar 800002",
    "phone": "Dr.D.K.Sinha (General Physician)",
    "hours": null,
    "image_url": "/th?id=OLC.Xb4BCYNAhcccyg480x360&w=92&h=112&c=8&rs=1&qlt=80&cdv=1&pid=Local"
  },
  {
    "name": "Dr. Qaisar Jamal - MBBS and MS - General Surgery",
    "address": "Chamber No.8 Shivpuri Rajbansi Nagar, Patna, Bihar 800029",
    "phone": "Dr. Qaisar Jamal - MBBS and MS - General Surgery",
    "hours": "Open 24 hours",
    "image_url": "/th?id=OLC.jpZqYXaLIL%2bzIA480x360&w=92&h=134&c=8&rs=1&qlt=80&cdv=1&pid=Local"
  },
  {
    "name": "Dr. Vijan Sharan",
    "address": "Sona Centre, 103, West of Main, Saguna More, Golambar, Patna, Bihar",
    "phone": "Dr. Vijan Sharan",
    "hours": "Closed· Opens 11:00",
    "image_url": "/th?id=OLC.7aVOwSk7FR1xqQ480x360&w=92&h=112&c=8&rs=1&qlt=80&cdv=1&pid=Local"
  },
  {
    "name": "Dr. Rakesh Kumar",
    "address": "Anishabad, Landmark: Behind Surya Mandir & Near SBI, Patna, Bihar",
    "phone": "Dr. Rakesh Kumar",
    "hours": "Closes in 6 mins",
    "image_url": "/th?id=OLC.GCk7%2foyjzgINRA480x360&w=92&h=112&c=8&rs=1&qlt=80&cdv=1&pid=Local"
  },
  {
    "name": "Dr. Sinha",
    "address": "Danapur Road, Near Ram Kumar Hotel, Lakhni Bigha, Khagaul, Patna, Bihar 801105",
    "phone": "Dr. Sinha",
    "hours": null,
    "image_url": "https://www.bing.com/maps/geoplat/REST/v1/Imagery/Map/RoadVibrant?ms=92,112&key=AnTcaqBi2ypp0xI-OZNi4W_ik2KhjgpqioTAtXLC8GzkMBQRMlyxvxyTnd5b73im&c=en-US&ur=in&da=n&logo=n&fmt=png&od=1&shading=hill&pp=25.580557,85.04229;dfp"
  },
  {
    "name": "Meditech Hospital & Sports Injury Centre– Dr. Ratnesh Singh (MS) best orthopaedic surgeon",
    "address": "Prince Apartment Maurya Path, Patna, Bihar 800025",
    "phone": "Meditech Hospital & Sports Injury Centre– Dr. Ratnesh Singh (MS) best orthopaedic surgeon",
    "hours": "Closed· Opens 17:00",
    "image_url": null
  },
  {
    "name": "Dr Abhishek Ranjan",
    "address": "Indian Bank Building, Danapur - Khagaul Rd, Patna, Bihar",
    "phone": "Dr Abhishek Ranjan",
    "hours": null,
    "image_url": "https://www.bing.com/maps/geoplat/REST/v1/Imagery/Map/RoadVibrant?ms=92,112&key=AnTcaqBi2ypp0xI-OZNi4W_ik2KhjgpqioTAtXLC8GzkMBQRMlyxvxyTnd5b73im&c=en-US&ur=in&da=n&logo=n&fmt=png&od=1&shading=hill&pp=25.576675,85.060692;clcp"
  },
  {
    "name": "Dr Nishikant Kumar",
    "address": "Mediversal, Doctors Colony, Kankarbagh, Patna, Bihar 800020",
    "phone": "Dr Nishikant Kumar",
    "hours": "Open 24 hours",
    "image_url": null
  },
  {
    "name": "DR Sanjay Chest Specialist and Diabetologist",
    "address": "43, Lawyers Chamber Bihar Bar Counsil Bhavan Patna High Court, Patna-800001, Patna 800007",
    "phone": "DR Sanjay Chest Specialist and Diabetologist",
    "hours": null,
    "image_url": null
  },
  {
    "name": "Dr. Sachchidanand Singh",
    "address": "CC/82, P C Colony, Patna, Bihar",
    "phone": "Dr. Sachchidanand Singh",
    "hours": "Closed· Opens 14:00",
    "image_url": null
  },
  {
    "name": "Dr. Anup Kumar",
    "address": "Kankarbagh Road, Patna, Bihar 800020",
    "phone": "Dr. Anup Kumar",
    "hours": "Closes in 21 mins",
    "image_url": null
  },
  {
    "name": "Dr. Sarita Sinha",
    "address": "Shamal Hospital Road, Magistrate Colony, Rukanpura, Patna, Bihar 800025",
    "phone": "Dr. Sarita Sinha",
    "hours": null,
    "image_url": "https://www.bing.com/maps/geoplat/REST/v1/Imagery/Map/RoadVibrant?ms=92,112&key=AnTcaqBi2ypp0xI-OZNi4W_ik2KhjgpqioTAtXLC8GzkMBQRMlyxvxyTnd5b73im&c=en-US&ur=in&da=n&logo=n&fmt=png&od=1&shading=hill&pp=25.612818,85.081169;dfp"
  },
  {
    "name": "Dr. Dhiraj Kumar",
    "address": "Gardanibagh Road, Near Dr Emmanuel Haq Clinic, New Jakkanpur, Gardanibagh, Patna, Bihar 800001",
    "phone": "Dr. Dhiraj Kumar",
    "hours": null,
    "image_url": "https://www.bing.com/maps/geoplat/REST/v1/Imagery/Map/RoadVibrant?ms=92,112&key=AnTcaqBi2ypp0xI-OZNi4W_ik2KhjgpqioTAtXLC8GzkMBQRMlyxvxyTnd5b73im&c=en-US&ur=in&da=n&logo=n&fmt=png&od=1&shading=hill&pp=25.592508,85.121628;dfp"
  },
  {
    "name": "Dr. Kumar",
    "address": "Gaya Line Road, Jai Prakash Nagar, Patna, Bihar 800001",
    "phone": "Dr. Kumar",
    "hours": null,
    "image_url": "https://www.bing.com/maps/geoplat/REST/v1/Imagery/Map/RoadVibrant?ms=92,112&key=AnTcaqBi2ypp0xI-OZNi4W_ik2KhjgpqioTAtXLC8GzkMBQRMlyxvxyTnd5b73im&c=en-US&ur=in&da=n&logo=n&fmt=png&od=1&shading=hill&pp=25.589052,85.138451;dfp"
  },
  {
    "name": "Dr. Shantam Mohan",
    "address": "Opposite Pillar No 72-73, Near Mangal Market Sheikpura, Raha Bazar, Patna, Bihar 800014",
    "phone": "Dr. Shantam Mohan",
    "hours": "Closed· Opens 18:00",
    "image_url": "https://www.bing.com/maps/geoplat/REST/v1/Imagery/Map/RoadVibrant?ms=92,134&key=AnTcaqBi2ypp0xI-OZNi4W_ik2KhjgpqioTAtXLC8GzkMBQRMlyxvxyTnd5b73im&c=en-US&ur=in&da=n&logo=n&fmt=png&od=1&shading=hill&pp=25.60471,85.089722;dfp"
  },
  {
    "name": "Vatsalya Clinic",
    "address": "Janta Road, Near Shiv City Enterprises, Jai Prakash Nagar, Patna, Bihar 800001",
    "phone": "Vatsalya Clinic",
    "hours": null,
    "image_url": "https://www.bing.com/maps/geoplat/REST/v1/Imagery/Map/RoadVibrant?ms=92,112&key=AnTcaqBi2ypp0xI-OZNi4W_ik2KhjgpqioTAtXLC8GzkMBQRMlyxvxyTnd5b73im&c=en-US&ur=in&da=n&logo=n&fmt=png&od=1&shading=hill&pp=25.589741,85.124367;dfp"
  }
]