[
  {
    "name": "Gwari Clinic - Best General Physician",
    "address": "Chandreshwar Nagar, Rishikesh, Uttarakhand 249137",
    "phone": "Gwari Clinic - Best General Physician",
    "hours": "Open· Closes 13:00",
    "image_url": "/th?id=OLC.lq65skF0nLlWhQ480x360&w=92&h=134&c=8&rs=1&qlt=80&cdv=1&pid=Local"
  },
  {
    "name": "Dr. Nadeema Rafiq | General Physician | Malik Medic",
    "address": "Rawalpora, Srinagar, Jammu and Kashmir, India, 190005, Srinagar, Madhya Pradesh 190005",
    "phone": "Dr. Nadeema Rafiq | General Physician | Malik Medic",
    "hours": "Closed· Opens 16:00",
    "image_url": "/th?id=OLC.6V1DZdsD%2f%2bf1tQ480x360&w=92&h=134&c=8&rs=1&qlt=80&cdv=1&pid=Local"
  },
  {
    "name": "Shri Ram Clinic, Rishikesh",
    "address": "74, Pragati Vihar, Tehsil Road, Rishikesh, Uttarakhand 249201",
    "phone": "Shri Ram Clinic, Rishikesh",
    "hours": null,
    "image_url": "/th?id=OLC.0YnyzU73zQn7%2fQ480x360&w=92&h=112&c=8&rs=1&qlt=80&cdv=1&pid=Local"
  },
  {
    "name": "Dr. Rakesh Agarwal | Best Sexologist  | Ayurvedic Doctor",
    "address": "Barthwal Colony, Near Janki Nagar, Najibabad Road, Kotdwar, Uttarakhand 246149",
    "phone": "Dr. Rakesh Agarwal | Best Sexologist  | Ayurvedic Doctor",
    "hours": "Open· Closes 22:00",
    "image_url": "/th?id=OLC.r83X3ra09tjoDA480x360&w=92&h=134&c=8&rs=1&qlt=80&cdv=1&pid=Local"
  },
  {
    "name": "Chaudhary Clinic",
    "address": "Kotdwar - Pauri Rd, Satpuli, Uttarakhand 246172, India, Satpuli, Uttarakhand 246172",
    "phone": "Chaudhary Clinic",
    "hours": null,
    "image_url": "/th?id=OLC.XSK7HaOgZ65DSw480x360&w=92&h=112&c=8&rs=1&qlt=80&cdv=1&pid=Local"
  },
  {
    "name": "Maa Gaytri Clinic",
    "address": "Badrinath Road, Hnb Government Base Hospital, Srikot, Pauri, Uttarakhand 246174",
    "phone": "Maa Gaytri Clinic",
    "hours": null,
    "image_url": "https://www.bing.com/maps/geoplat/REST/v1/Imagery/Map/RoadVibrant?ms=92,112&key=AnTcaqBi2ypp0xI-OZNi4W_ik2KhjgpqioTAtXLC8GzkMBQRMlyxvxyTnd5b73im&c=en-US&ur=in&da=n&logo=n&fmt=png&od=1&shading=hill&pp=30.222725,78.815132;dfp"
  },
  {
    "name": "Bahuguna Clinic",
    "address": "Karanprayag Haridwar Road, Uttaranchal Tourist Loudge, Pauri, Pauri Garhwal, Uttarakhand 246001",
    "phone": "Bahuguna Clinic",
    "hours": null,
    "image_url": "https://www.bing.com/maps/geoplat/REST/v1/Imagery/Map/RoadVibrant?ms=92,112&key=AnTcaqBi2ypp0xI-OZNi4W_ik2KhjgpqioTAtXLC8GzkMBQRMlyxvxyTnd5b73im&c=en-US&ur=in&da=n&logo=n&fmt=png&od=1&shading=hill&pp=30.147017,78.776268;dfp"
  },
  {
    "name": "Kerala panchkarma clinic",
    "address": "Kerala Panchkarma Clinic Opposite District Hospital, Rudraprayag, Madhya Pradesh 246471",
    "phone": "Kerala panchkarma clinic",
    "hours": "Open· Closes 18:00",
    "image_url": null
  },
  {
    "name": "Dr Arun Rawat Clinic",
    "address": "Devi Road, Navyug Public School, Padampur, Lansdowne, Uttarakhand 246149",
    "phone": "Dr Arun Rawat Clinic",
    "hours": null,
    "image_url": "https://www.bing.com/maps/geoplat/REST/v1/Imagery/Map/RoadVibrant?ms=92,112&key=AnTcaqBi2ypp0xI-OZNi4W_ik2KhjgpqioTAtXLC8GzkMBQRMlyxvxyTnd5b73im&c=en-US&ur=in&da=n&logo=n&fmt=png&od=1&shading=hill&pp=29.758574,78.458557;dfp"
  },
  {
    "name": "Dr Lal PathLabs",
    "address": "District Hospital, Suvidha Nagar, Jakholi Badma, Uttarakhand",
    "phone": "Dr Lal PathLabs",
    "hours": "Open· Closes 19:30",
    "image_url": "https://www.bing.com/maps/geoplat/REST/v1/Imagery/Map/RoadVibrant?ms=92,134&key=AnTcaqBi2ypp0xI-OZNi4W_ik2KhjgpqioTAtXLC8GzkMBQRMlyxvxyTnd5b73im&c=en-US&ur=in&da=n&logo=n&fmt=png&od=1&shading=hill&pp=30.285994,78.980804;dfp"
  },
  {
    "name": "Ayuskama Ayurveda Clinic & Panchakarma Center",
    "address": "Arogya Residency Plot No. 4 Inside Deecon Valley, Badrinath Rd, Tapovan, Rishikesh, Uttarakhand",
    "phone": "Ayuskama Ayurveda Clinic & Panchakarma Center",
    "hours": null,
    "image_url": null
  },
  {
    "name": "Sri R. Pandey's Memorial Surgical Clinic",
    "address": "In Front Of Ggic Near Base Goverment Hospital, Badrinath Marg Kotdwar, Duggada, Badrinath Marg, Ko…",
    "phone": "Sri R. Pandey's Memorial Surgical Clinic",
    "hours": null,
    "image_url": "https://www.bing.com/maps/geoplat/REST/v1/Imagery/Map/RoadVibrant?ms=92,112&key=AnTcaqBi2ypp0xI-OZNi4W_ik2KhjgpqioTAtXLC8GzkMBQRMlyxvxyTnd5b73im&c=en-US&ur=in&da=n&logo=n&fmt=png&od=1&shading=hill&pp=30.222284,78.817223;dfp"
  },
  {
    "name": "Ayurved Path Clinic",
    "address": "Badrinath Rd, Below Nainital Bank, Srinagar, Uttarakhand",
    "phone": "Ayurved Path Clinic",
    "hours": null,
    "image_url": "https://www.bing.com/maps/geoplat/REST/v1/Imagery/Map/RoadVibrant?ms=92,112&key=AnTcaqBi2ypp0xI-OZNi4W_ik2KhjgpqioTAtXLC8GzkMBQRMlyxvxyTnd5b73im&c=en-US&ur=in&da=n&logo=n&fmt=png&od=1&shading=hill&pp=30.221838,78.78875;dfp"
  },
  {
    "name": "Skinglo Clinic Haridwar (Dr Rahul Ahar)",
    "address": "118, New Haridwar Colony, Near Matrachhaya Hospital, Haridwar, Uttarakhand 249401",
    "phone": "Skinglo Clinic Haridwar (Dr Rahul Ahar)",
    "hours": null,
    "image_url": null
  },
  {
    "name": "Garhwal Pathology Lab & Homeopathic Clinic",
    "address": "Near Meat Market, Church Road, Kotdwara, Uttarakhand 246149",
    "phone": "Garhwal Pathology Lab & Homeopathic Clinic",
    "hours": "Open· Closes 20:00",
    "image_url": null
  },
  {
    "name": "Dr Lal PathLabs",
    "address": "Near And Opp.Distt.Hospital, Pauri, Uttarakhand-246001, Pauri, Uttarakhand, Uttarakhand 246001",
    "phone": "Dr Lal PathLabs",
    "hours": "Open· Closes 19:30",
    "image_url": "https://www.bing.com/maps/geoplat/REST/v1/Imagery/Map/RoadVibrant?ms=92,134&key=AnTcaqBi2ypp0xI-OZNi4W_ik2KhjgpqioTAtXLC8GzkMBQRMlyxvxyTnd5b73im&c=en-US&ur=in&da=n&logo=n&fmt=png&od=1&shading=hill&pp=30.147116,78.774536;dfp"
  },
  {
    "name": "Dr Lal Pathology",
    "address": "Pauri District Hospital, Opposite Government, Pauri, Uttarakhand",
    "phone": "Dr Lal Pathology",
    "hours": null,
    "image_url": "https://www.bing.com/maps/geoplat/REST/v1/Imagery/Map/RoadVibrant?ms=92,112&key=AnTcaqBi2ypp0xI-OZNi4W_ik2KhjgpqioTAtXLC8GzkMBQRMlyxvxyTnd5b73im&c=en-US&ur=in&da=n&logo=n&fmt=png&od=1&shading=hill&pp=30.223223,78.814796;dfp"
  },
  {
    "name": "Dev Bhumi Clinic",
    "address": "Railway Road, Chacha Nehru Bal Academy, Jagdish Nagar, Haridwar, Uttarakhand 249407",
    "phone": "Dev Bhumi Clinic",
    "hours": null,
    "image_url": "https://www.bing.com/maps/geoplat/REST/v1/Imagery/Map/RoadVibrant?ms=92,112&key=AnTcaqBi2ypp0xI-OZNi4W_ik2KhjgpqioTAtXLC8GzkMBQRMlyxvxyTnd5b73im&c=en-US&ur=in&da=n&logo=n&fmt=png&od=1&shading=hill&pp=29.930126,78.121429;dfp"
  }
]