[
  {
    "name": "DR Mohamed Habeeb (HOMOEOPATHIC HOSPITAL)",
    "address": "Renga Nagar, Perambalur, Tamil Nadu",
    "phone": "DR Mohamed Habeeb (HOMOEOPATHIC HOSPITAL)",
    "hours": null,
    "image_url": "https://www.bing.com/maps/geoplat/REST/v1/Imagery/Map/RoadVibrant?ms=92,112&key=AnTcaqBi2ypp0xI-OZNi4W_ik2KhjgpqioTAtXLC8GzkMBQRMlyxvxyTnd5b73im&c=en-US&ur=in&da=n&logo=n&fmt=png&od=1&shading=hill&pp=11.240332,78.863762;dfp"
  },
  {
    "name": "Dr. R. Bhavidra- Cardiologist",
    "address": "Perambalur Cardiac Clinic, 118 O Trr Complex, Trichy Main Road, Thuraimangalam, Tamil Nadu 621220",
    "phone": "Dr. R. Bhavidra- Cardiologist",
    "hours": "Closed· Opens 16:30",
    "image_url": "https://www.bing.com/maps/geoplat/REST/v1/Imagery/Map/RoadVibrant?ms=92,134&key=AnTcaqBi2ypp0xI-OZNi4W_ik2KhjgpqioTAtXLC8GzkMBQRMlyxvxyTnd5b73im&c=en-US&ur=in&da=n&logo=n&fmt=png&od=1&shading=hill&pp=11.230757,78.88633;dfp"
  },
  {
    "name": "Venkatesan Hospital",
    "address": "121, Venkatesapuram, Trichy Main Road, Perambalur, Tamil Nadu",
    "phone": "Venkatesan Hospital",
    "hours": null,
    "image_url": "/th?id=OLC.rxCGEOOcxemo2Q480x360&w=92&h=112&c=8&rs=1&qlt=80&cdv=1&pid=Local"
  },
  {
    "name": "Sivabala Clinic",
    "address": "26/2-Pathima Complex, NEW BUS Stand Backside, MM Nagar, Perambalur, Tamil Nadu 621212",
    "phone": "Sivabala Clinic",
    "hours": null,
    "image_url": "https://www.bing.com/maps/geoplat/REST/v1/Imagery/Map/RoadVibrant?ms=92,112&key=AnTcaqBi2ypp0xI-OZNi4W_ik2KhjgpqioTAtXLC8GzkMBQRMlyxvxyTnd5b73im&c=en-US&ur=in&da=n&logo=n&fmt=png&od=1&shading=hill&pp=11.235813,78.865173;dfp"
  },
  {
    "name": "Dr. Ponni Sivagurunathan | General Physician | SUGAM CLINIC",
    "address": "Sugam Clinic, South Street, Kurichikkulam, தமிழ் நாடு, India, 621719, Kurichikkulam, Madhya Prade…",
    "phone": "Dr. Ponni Sivagurunathan | General Physician | SUGAM CLINIC",
    "hours": "Open· Closes 18:00",
    "image_url": "/th?id=OLC.H%2bkFLdT2IjGFSA480x360&w=92&h=134&c=8&rs=1&qlt=80&cdv=1&pid=Local"
  },
  {
    "name": "Government Primary Health Care Centre",
    "address": "Sh142, Thuraiyur Perambalur Road, Adaikampatti, Perambalur, Tamil Nadu 621010",
    "phone": "Government Primary Health Care Centre",
    "hours": null,
    "image_url": "https://www.bing.com/maps/geoplat/REST/v1/Imagery/Map/RoadVibrant?ms=92,112&key=AnTcaqBi2ypp0xI-OZNi4W_ik2KhjgpqioTAtXLC8GzkMBQRMlyxvxyTnd5b73im&c=en-US&ur=in&da=n&logo=n&fmt=png&od=1&shading=hill&pp=11.157766,78.689804;dfp"
  },
  {
    "name": "Sai Agri Clinic",
    "address": "3\\347, Saranraj Complex, Muruga Nagar, Irur, Perambalur, Tamil Nadu 621109",
    "phone": "Sai Agri Clinic",
    "hours": null,
    "image_url": "https://www.bing.com/maps/geoplat/REST/v1/Imagery/Map/RoadVibrant?ms=92,112&key=AnTcaqBi2ypp0xI-OZNi4W_ik2KhjgpqioTAtXLC8GzkMBQRMlyxvxyTnd5b73im&c=en-US&ur=in&da=n&logo=n&fmt=png&od=1&shading=hill&pp=11.229893,78.891335;dfp"
  },
  {
    "name": "Kumaran Clinic",
    "address": "Thuraiur Perambalur Main Road, Thuraiur, Turaiyur, Tamil Nadu 621010",
    "phone": "Kumaran Clinic",
    "hours": null,
    "image_url": "https://www.bing.com/maps/geoplat/REST/v1/Imagery/Map/RoadVibrant?ms=92,112&key=AnTcaqBi2ypp0xI-OZNi4W_ik2KhjgpqioTAtXLC8GzkMBQRMlyxvxyTnd5b73im&c=en-US&ur=in&da=n&logo=n&fmt=png&od=1&shading=hill&pp=11.149853,78.594894;dfp"
  },
  {
    "name": "Sidharth Eye And Ent Hospital",
    "address": "Sh27, Perambalur Ariyalur Manamadurai Road, Ariyalur, Tamil Nadu 621704",
    "phone": "Sidharth Eye And Ent Hospital",
    "hours": null,
    "image_url": "https://www.bing.com/maps/geoplat/REST/v1/Imagery/Map/RoadVibrant?ms=92,112&key=AnTcaqBi2ypp0xI-OZNi4W_ik2KhjgpqioTAtXLC8GzkMBQRMlyxvxyTnd5b73im&c=en-US&ur=in&da=n&logo=n&fmt=png&od=1&shading=hill&pp=11.143398,79.069;dfp"
  },
  {
    "name": "Sri Tharumayee Agri Clinic",
    "address": "Door NO 6\\277, T Kalathur Pirivu Road, OPP.Market, Adaikampatti PO, Alathur TK, Perambalur, Tamil Nadu …",
    "phone": "Sri Tharumayee Agri Clinic",
    "hours": null,
    "image_url": "https://www.bing.com/maps/geoplat/REST/v1/Imagery/Map/RoadVibrant?ms=92,112&key=AnTcaqBi2ypp0xI-OZNi4W_ik2KhjgpqioTAtXLC8GzkMBQRMlyxvxyTnd5b73im&c=en-US&ur=in&da=n&logo=n&fmt=png&od=1&shading=hill&pp=11.140326,79.069649;dfp"
  },
  {
    "name": "Vasantha Agri Clinic",
    "address": "4/397C, SRI Muthaiya Complex, Padalur, Alathur, Ootathur Main Road, Perambalur, Tamil Nadu 621109",
    "phone": "Vasantha Agri Clinic",
    "hours": null,
    "image_url": "https://www.bing.com/maps/geoplat/REST/v1/Imagery/Map/RoadVibrant?ms=92,112&key=AnTcaqBi2ypp0xI-OZNi4W_ik2KhjgpqioTAtXLC8GzkMBQRMlyxvxyTnd5b73im&c=en-US&ur=in&da=n&logo=n&fmt=png&od=1&shading=hill&pp=11.149,79.065239;dfp"
  },
  {
    "name": "Annai Speciality Skin And Laser Clinic",
    "address": "130, Sungu Pettai, Venketwasapuram, Tamil Nadu",
    "phone": "Annai Speciality Skin And Laser Clinic",
    "hours": null,
    "image_url": "https://www.bing.com/maps/geoplat/REST/v1/Imagery/Map/RoadVibrant?ms=92,112&key=AnTcaqBi2ypp0xI-OZNi4W_ik2KhjgpqioTAtXLC8GzkMBQRMlyxvxyTnd5b73im&c=en-US&ur=in&da=n&logo=n&fmt=png&od=1&shading=hill&pp=11.233678,78.875656;dfp"
  },
  {
    "name": "Rasi Agri Clinic",
    "address": "NO 1\\251, Ariyalur Main Road, Agaramsigoor Kunnam TK, Perambalur, Tamil Nadu 621716",
    "phone": "Rasi Agri Clinic",
    "hours": null,
    "image_url": "https://www.bing.com/maps/geoplat/REST/v1/Imagery/Map/RoadVibrant?ms=92,112&key=AnTcaqBi2ypp0xI-OZNi4W_ik2KhjgpqioTAtXLC8GzkMBQRMlyxvxyTnd5b73im&c=en-US&ur=in&da=n&logo=n&fmt=png&od=1&shading=hill&pp=11.119689,79.072472;dfp"
  },
  {
    "name": "Dr. Sujatha K- General Physician in Coimbatore",
    "address": "Dr. Sujatha K, Near Paripoorna Estates, Thillai Nagar, Kovaipudur, Tamil Nadu",
    "phone": "Dr. Sujatha K- General Physician in Coimbatore",
    "hours": null,
    "image_url": "https://www.bing.com/maps/geoplat/REST/v1/Imagery/Map/RoadVibrant?ms=92,112&key=AnTcaqBi2ypp0xI-OZNi4W_ik2KhjgpqioTAtXLC8GzkMBQRMlyxvxyTnd5b73im&c=en-US&ur=in&da=n&logo=n&fmt=png&od=1&shading=hill&pp=10.822827,78.678963;dfp"
  },
  {
    "name": "Selva Clinic Pallathur",
    "address": "No.1, Sankar Santhi Complex, No.10, East West Street, Karumariamman Kovil Arch Street, Near Ariyanayaki H…",
    "phone": "Selva Clinic Pallathur",
    "hours": null,
    "image_url": null
  },
  {
    "name": "Neelam clinic",
    "address": "Salem, Muthikalipatty, Rasipuram Main Road, Rasipuram, Tamil Nadu",
    "phone": "Neelam clinic",
    "hours": null,
    "image_url": "https://www.bing.com/maps/geoplat/REST/v1/Imagery/Map/RoadVibrant?ms=92,112&key=AnTcaqBi2ypp0xI-OZNi4W_ik2KhjgpqioTAtXLC8GzkMBQRMlyxvxyTnd5b73im&c=en-US&ur=in&da=n&logo=n&fmt=png&od=1&shading=hill&pp=11.597017,78.572769;dfp"
  },
  {
    "name": "Dr. Gnanasundaram",
    "address": "2Nd Street, Alagappa Nagar, Sendurai Road, Ariyalur, Tamil Nadu",
    "phone": "Dr. Gnanasundaram",
    "hours": "Open· Closes 14:00",
    "image_url": "https://www.bing.com/maps/geoplat/REST/v1/Imagery/Map/RoadVibrant?ms=92,112&key=AnTcaqBi2ypp0xI-OZNi4W_ik2KhjgpqioTAtXLC8GzkMBQRMlyxvxyTnd5b73im&c=en-US&ur=in&da=n&logo=n&fmt=png&od=1&shading=hill&pp=11.139571,79.074821;dfp"
  },
  {
    "name": "Dr. Janagiraman Ramachandran",
    "address": "Vagai Muscut Complex, Trichy Main Road, Ramanatham, Tholudur Landmark: Near Lamcy Super Market, Cuddal…",
    "phone": "Dr. Janagiraman Ramachandran",
    "hours": "Open· Closes 12:00",
    "image_url": null
  }
]