[
  {
    "name": "Agarwal Clinic",
    "address": "RV8Q+R4R, Gularia Bhindara, Uttarakhand",
    "phone": "Agarwal Clinic",
    "hours": null,
    "image_url": "https://www.bing.com/maps/geoplat/REST/v1/Imagery/Map/RoadVibrant?ms=92,112&key=AnTcaqBi2ypp0xI-OZNi4W_ik2KhjgpqioTAtXLC8GzkMBQRMlyxvxyTnd5b73im&c=en-US&ur=in&da=n&logo=n&fmt=png&od=1&shading=hill&pp=28.61899,79.813728;dfp"
  },
  {
    "name": "S S Hospital, Pilibhit",
    "address": "SH 29, Ashok Colony, Ekta Nagar, Pilibhit, Uttar Pradesh",
    "phone": "S S Hospital, Pilibhit",
    "hours": null,
    "image_url": "/th?id=OLC.rQOiRxUe795svQ480x360&w=92&h=112&c=8&rs=1&qlt=80&cdv=1&pid=Local"
  },
  {
    "name": "Shuddhi Clinic By Guru Manish Ji - Best Ayurveda Doctor & Ayurvedic Treatment",
    "address": "Vasundhra Colony, Near Gramidh Bank of Baroda, Pilibhit, Uttar Pradesh",
    "phone": "Shuddhi Clinic By Guru Manish Ji - Best Ayurveda Doctor & Ayurvedic Treatment",
    "hours": "Open· Closes 18:00",
    "image_url": "/th?id=OLC.ay4fzFhLpcXT8Q480x360&w=92&h=134&c=8&rs=1&qlt=80&cdv=1&pid=Local"
  },
  {
    "name": "Dr. Narendra kumar Dixit",
    "address": "A-238, Tagore Nagar, Avas Vikas Colony, Pilibhit, Madhya Pradesh 262001",
    "phone": "Dr. Narendra kumar Dixit",
    "hours": "Open· Closes 14:00",
    "image_url": "/th?id=OLC.Mv0Z9iXtKEWVHg480x360&w=92&h=134&c=8&rs=1&qlt=80&cdv=1&pid=Local"
  },
  {
    "name": "Katiyar Clinic",
    "address": "Degree College Road, Godan Hospital, Tularam Pilibhit, Pilibhit, Uttar Pradesh 262001",
    "phone": "Katiyar Clinic",
    "hours": null,
    "image_url": "https://www.bing.com/maps/geoplat/REST/v1/Imagery/Map/RoadVibrant?ms=92,112&key=AnTcaqBi2ypp0xI-OZNi4W_ik2KhjgpqioTAtXLC8GzkMBQRMlyxvxyTnd5b73im&c=en-US&ur=in&da=n&logo=n&fmt=png&od=1&shading=hill&pp=28.623716,79.806068;dfp"
  },
  {
    "name": "Dr ZKRM",
    "address": "Gali Number 4, Sirsi, Uttar Pradesh",
    "phone": "Dr ZKRM",
    "hours": null,
    "image_url": "https://www.bing.com/maps/geoplat/REST/v1/Imagery/Map/RoadVibrant?ms=92,112&key=AnTcaqBi2ypp0xI-OZNi4W_ik2KhjgpqioTAtXLC8GzkMBQRMlyxvxyTnd5b73im&c=en-US&ur=in&da=n&logo=n&fmt=png&od=1&shading=hill&pp=28.628204,79.813164;dfp"
  },
  {
    "name": "Kumar Clinic",
    "address": "Pilibhit Road, Bank Of Baroda, Khamriapul, Pilibhit, Uttar Pradesh 262001",
    "phone": "Kumar Clinic",
    "hours": null,
    "image_url": "https://www.bing.com/maps/geoplat/REST/v1/Imagery/Map/RoadVibrant?ms=92,112&key=AnTcaqBi2ypp0xI-OZNi4W_ik2KhjgpqioTAtXLC8GzkMBQRMlyxvxyTnd5b73im&c=en-US&ur=in&da=n&logo=n&fmt=png&od=1&shading=hill&pp=28.627682,79.804161;dfp"
  },
  {
    "name": "Dr. Dushyant Kumar Tyagi- Orthopedics",
    "address": "Mahajan Health Care Center, Mohalla Durga Pratab, Imli Chowk, Pilibhit, Uttar Pradesh 262001",
    "phone": "Dr. Dushyant Kumar Tyagi- Orthopedics",
    "hours": "Open· Closes 20:00",
    "image_url": "https://www.bing.com/maps/geoplat/REST/v1/Imagery/Map/RoadVibrant?ms=92,134&key=AnTcaqBi2ypp0xI-OZNi4W_ik2KhjgpqioTAtXLC8GzkMBQRMlyxvxyTnd5b73im&c=en-US&ur=in&da=n&logo=n&fmt=png&od=1&shading=hill&pp=28.634829,79.799622;dfp"
  },
  {
    "name": "Dr Neeraj Surgical Hospital",
    "address": "Station Rd, Ballabh Nagar Colony, Pilibhit, Uttar Pradesh 262001, India, Pilibhit, Uttar Pradesh 262001",
    "phone": "Dr Neeraj Surgical Hospital",
    "hours": null,
    "image_url": null
  },
  {
    "name": "Prakash Clinic",
    "address": "Bypass Road Pilibhit, Chhatri Chauraha Pilibhit, Pilibhit, Uttar Pradesh 262001",
    "phone": "Prakash Clinic",
    "hours": null,
    "image_url": "https://www.bing.com/maps/geoplat/REST/v1/Imagery/Map/RoadVibrant?ms=92,112&key=AnTcaqBi2ypp0xI-OZNi4W_ik2KhjgpqioTAtXLC8GzkMBQRMlyxvxyTnd5b73im&c=en-US&ur=in&da=n&logo=n&fmt=png&od=1&shading=hill&pp=28.612118,79.819855;dfp"
  },
  {
    "name": "Shahji Clinic",
    "address": "Bareilly Road Pilibhit Bypass, Pilibhit, Uttar Pradesh 262001",
    "phone": "Shahji Clinic",
    "hours": null,
    "image_url": "https://www.bing.com/maps/geoplat/REST/v1/Imagery/Map/RoadVibrant?ms=92,112&key=AnTcaqBi2ypp0xI-OZNi4W_ik2KhjgpqioTAtXLC8GzkMBQRMlyxvxyTnd5b73im&c=en-US&ur=in&da=n&logo=n&fmt=png&od=1&shading=hill&pp=28.609018,79.797325;dfp"
  },
  {
    "name": "Shekhar Clinic",
    "address": "Puranpur Road, Maa Durga Mandir, Vasundhra Pilibhit, Pilibhit, Uttar Pradesh 262001",
    "phone": "Shekhar Clinic",
    "hours": null,
    "image_url": "https://www.bing.com/maps/geoplat/REST/v1/Imagery/Map/RoadVibrant?ms=92,112&key=AnTcaqBi2ypp0xI-OZNi4W_ik2KhjgpqioTAtXLC8GzkMBQRMlyxvxyTnd5b73im&c=en-US&ur=in&da=n&logo=n&fmt=png&od=1&shading=hill&pp=28.608477,79.803291;dfp"
  },
  {
    "name": "Dr. Paramjeet Kaur- Gynecology And Fertility Specialist",
    "address": "Gurunanak Nursing Home, Ramleela Road, In Front Of Shiv Shakti Lawn 2, Pilibhit, Uttar Pradesh 262001",
    "phone": "Dr. Paramjeet Kaur- Gynecology And Fertility Specialist",
    "hours": "Closed· Opens 11:00",
    "image_url": "https://www.bing.com/maps/geoplat/REST/v1/Imagery/Map/RoadVibrant?ms=92,134&key=AnTcaqBi2ypp0xI-OZNi4W_ik2KhjgpqioTAtXLC8GzkMBQRMlyxvxyTnd5b73im&c=en-US&ur=in&da=n&logo=n&fmt=png&od=1&shading=hill&pp=28.620564,79.80146;dfp"
  },
  {
    "name": "Dr.lal Pathlabs",
    "address": "Gandhi Stadium Road, Pilibhit 262001",
    "phone": "Dr.lal Pathlabs",
    "hours": "Open· Closes 19:00",
    "image_url": null
  },
  {
    "name": "Laser Skin Center (Dr. Ayush Agarwal)",
    "address": "Rama College Road, in Front of, Degree College Rd, Pilibhit, Uttar Pradesh",
    "phone": "Laser Skin Center (Dr. Ayush Agarwal)",
    "hours": null,
    "image_url": "https://www.bing.com/maps/geoplat/REST/v1/Imagery/Map/RoadVibrant?ms=92,112&key=AnTcaqBi2ypp0xI-OZNi4W_ik2KhjgpqioTAtXLC8GzkMBQRMlyxvxyTnd5b73im&c=en-US&ur=in&da=n&logo=n&fmt=png&od=1&shading=hill&pp=28.622097,79.80426;dfp"
  },
  {
    "name": "Satyam Diagnostic Centre",
    "address": "Tanakpur Rd, Near Chhatri Chauraha, By Pass, Ballabh Nagar Colony, Pilibhit, Uttar Pradesh",
    "phone": "Satyam Diagnostic Centre",
    "hours": null,
    "image_url": "https://www.bing.com/maps/geoplat/REST/v1/Imagery/Map/RoadVibrant?ms=92,112&key=AnTcaqBi2ypp0xI-OZNi4W_ik2KhjgpqioTAtXLC8GzkMBQRMlyxvxyTnd5b73im&c=en-US&ur=in&da=n&logo=n&fmt=png&od=1&shading=hill&pp=28.627079,79.805305;dfp"
  }
]