[
  {
    "name": "Dr. P.Muthaiyan",
    "address": "211, Bussy Street, Puducherry, Landmark:Bussy Street, Puducherry",
    "phone": "Dr. P.Muthaiyan",
    "hours": "Closed· Opens 18:00",
    "image_url": "/th?id=OLC.I6tqB5DMJKzyqQ480x360&w=92&h=112&c=8&rs=1&qlt=80&cdv=1&pid=Local"
  },
  {
    "name": "Dr. Sundaraamoorthy",
    "address": "North Veli Street, Villianur, Puducherry, Landmark: Sri Arul Medical Near, Puducherry",
    "phone": "Dr. Sundaraamoorthy",
    "hours": "Open· Closes 19:00",
    "image_url": "/th?id=OLC.zw4uTmMQ90OTKQ480x360&w=92&h=112&c=8&rs=1&qlt=80&cdv=1&pid=Local"
  },
  {
    "name": "Dr. D.Pannirselvam",
    "address": "3-A, Chellaperumalpet, Lawspet, Landmark: Lawspet Main Road, Puducherry",
    "phone": "Dr. D.Pannirselvam",
    "hours": "Closed· Opens 18:00",
    "image_url": "https://www.bing.com/maps/geoplat/REST/v1/Imagery/Map/RoadVibrant?ms=92,112&key=AnTcaqBi2ypp0xI-OZNi4W_ik2KhjgpqioTAtXLC8GzkMBQRMlyxvxyTnd5b73im&c=en-US&ur=in&da=n&logo=n&fmt=png&od=1&shading=hill&pp=11.9571,79.816872;dfp"
  },
  {
    "name": "Dr K Kannan",
    "address": "398, Villinur Main Road, Nellithope, Landmark: Near Second Signal, Puducherry",
    "phone": "Dr K Kannan",
    "hours": "Opens in 6 mins",
    "image_url": "/th?id=OLC.KMgRPJ%2btPX9%2fdw480x360&w=92&h=112&c=8&rs=1&qlt=80&cdv=1&pid=Local"
  },
  {
    "name": "Bella Clinic",
    "address": "5th Cross Street, Ozhukarai, Puducherry 605010",
    "phone": "Bella Clinic",
    "hours": "Closed· Opens 18:30",
    "image_url": "https://www.bing.com/maps/geoplat/REST/v1/Imagery/Map/RoadVibrant?ms=92,134&key=AnTcaqBi2ypp0xI-OZNi4W_ik2KhjgpqioTAtXLC8GzkMBQRMlyxvxyTnd5b73im&c=en-US&ur=in&da=n&logo=n&fmt=png&od=1&shading=hill&pp=11.929448,79.800545;dfp"
  },
  {
    "name": "Dr.Dhananjayas Piles and Fistula Clinic",
    "address": "Dr.Dhananjayas Hospital, 2nd Main Road, West Natesan Nagar, Puducherry 605005",
    "phone": "Dr.Dhananjayas Piles and Fistula Clinic",
    "hours": "Open· Closes 21:00",
    "image_url": "/th?id=OLC.VW9mQRBZ1WcLmw480x360&w=92&h=134&c=8&rs=1&qlt=80&cdv=1&pid=Local"
  },
  {
    "name": "Dr. Jagadesan Pandjatcharam",
    "address": "Jipmer, Puducherry",
    "phone": "Dr. Jagadesan Pandjatcharam",
    "hours": "Open· Closes 12:00",
    "image_url": null
  },
  {
    "name": "Dr. Ravikannan",
    "address": "16, 100 Feet Road, Puducherry, Landmark: Ellaipillaichavady, Puducherry",
    "phone": "Dr. Ravikannan",
    "hours": "Closed· Opens 18:00",
    "image_url": null
  },
  {
    "name": "Dr. S.Kumaravel",
    "address": "6, Krishna Nagar, Lawspet, Landmark: Near Be Well Hospital, Puducherry",
    "phone": "Dr. S.Kumaravel",
    "hours": "Closes in 6 mins",
    "image_url": null
  },
  {
    "name": "Dr. Anand Arokiaraj",
    "address": "Mahaveer Nagar, Landmark: Near Lawspet Police Station, Puducherry",
    "phone": "Dr. Anand Arokiaraj",
    "hours": "Open· Closes 13:00",
    "image_url": "https://www.bing.com/maps/geoplat/REST/v1/Imagery/Map/RoadVibrant?ms=92,112&key=AnTcaqBi2ypp0xI-OZNi4W_ik2KhjgpqioTAtXLC8GzkMBQRMlyxvxyTnd5b73im&c=en-US&ur=in&da=n&logo=n&fmt=png&od=1&shading=hill&pp=11.958895,79.822639;dfp"
  },
  {
    "name": "DR. Arul Murugan Clinic",
    "address": "26, Muncipality Main Rd, Pavazha Nagar, Reddiarpalayam, Puducherry",
    "phone": "DR. Arul Murugan Clinic",
    "hours": null,
    "image_url": "https://www.bing.com/maps/geoplat/REST/v1/Imagery/Map/RoadVibrant?ms=92,112&key=AnTcaqBi2ypp0xI-OZNi4W_ik2KhjgpqioTAtXLC8GzkMBQRMlyxvxyTnd5b73im&c=en-US&ur=in&da=n&logo=n&fmt=png&od=1&shading=hill&pp=11.931485,79.802574;clcp"
  },
  {
    "name": "Dr. R Sachidanandam",
    "address": "446, Bharthi Street, Land Mark (Opp Jayarani Nursery School ), Puducherry",
    "phone": "Dr. R Sachidanandam",
    "hours": "Opens in 6 mins",
    "image_url": null
  },
  {
    "name": "Dr.t.l.vasudevan's Ent Surgical Clinic",
    "address": "216, Bussy Street, Aka Lal Bahadur Sastry Street, Puducherry, 605001, India, Puducherry (Ciudad), Pudu…",
    "phone": "Dr.t.l.vasudevan's Ent Surgical Clinic",
    "hours": null,
    "image_url": "https://www.bing.com/maps/geoplat/REST/v1/Imagery/Map/RoadVibrant?ms=92,112&key=AnTcaqBi2ypp0xI-OZNi4W_ik2KhjgpqioTAtXLC8GzkMBQRMlyxvxyTnd5b73im&c=en-US&ur=in&da=n&logo=n&fmt=png&od=1&shading=hill&pp=11.92888,79.813622;dfp"
  },
  {
    "name": "Dr. S..Chandran",
    "address": "238, Bussy Street, Puducherry, Landmark:Bussy Street, Puducherry",
    "phone": "Dr. S..Chandran",
    "hours": "Closed· Opens 11:00",
    "image_url": null
  },
  {
    "name": "Sri Sandhya Clinic",
    "address": "228, Vazhudavur Road, Icici Atm, Kathirkamam Moutrepaleam, Pondicherry, Puducherry 605009",
    "phone": "Sri Sandhya Clinic",
    "hours": null,
    "image_url": "https://www.bing.com/maps/geoplat/REST/v1/Imagery/Map/RoadVibrant?ms=92,112&key=AnTcaqBi2ypp0xI-OZNi4W_ik2KhjgpqioTAtXLC8GzkMBQRMlyxvxyTnd5b73im&c=en-US&ur=in&da=n&logo=n&fmt=png&od=1&shading=hill&pp=11.941489,79.796692;dfp"
  },
  {
    "name": "Sri Vijaya Health Clinic",
    "address": "352, Villianar Main Road, Nellithupe, Pondicherry, Puducherry 605005",
    "phone": "Sri Vijaya Health Clinic",
    "hours": null,
    "image_url": "https://www.bing.com/maps/geoplat/REST/v1/Imagery/Map/RoadVibrant?ms=92,112&key=AnTcaqBi2ypp0xI-OZNi4W_ik2KhjgpqioTAtXLC8GzkMBQRMlyxvxyTnd5b73im&c=en-US&ur=in&da=n&logo=n&fmt=png&od=1&shading=hill&pp=11.932262,79.810677;dfp"
  },
  {
    "name": "Udhi BIO Clinic",
    "address": "Peramasamy Pallai Street, Pondicherry 605004",
    "phone": "Udhi BIO Clinic",
    "hours": null,
    "image_url": null
  },
  {
    "name": "Dr. Mahalakshmi Saravanan",
    "address": "116, Villianur Road, Reddiarpalayam, Puducherry",
    "phone": "Dr. Mahalakshmi Saravanan",
    "hours": "Open· Closes 17:00",
    "image_url": "https://www.bing.com/maps/geoplat/REST/v1/Imagery/Map/RoadVibrant?ms=92,112&key=AnTcaqBi2ypp0xI-OZNi4W_ik2KhjgpqioTAtXLC8GzkMBQRMlyxvxyTnd5b73im&c=en-US&ur=in&da=n&logo=n&fmt=png&od=1&shading=hill&pp=11.93072,79.793922;dfp"
  }
]