[
  {
    "name": "Dr. Paryant Vala General Physician",
    "address": "M k Thakrar Hospital, Near Paradise Fountain, Porbandar, Gujarat 360575",
    "phone": "Dr. Paryant Vala General Physician",
    "hours": "Open· Closes 14:00",
    "image_url": "https://www.bing.com/maps/geoplat/REST/v1/Imagery/Map/RoadVibrant?ms=92,134&key=AnTcaqBi2ypp0xI-OZNi4W_ik2KhjgpqioTAtXLC8GzkMBQRMlyxvxyTnd5b73im&c=en-US&ur=in&da=n&logo=n&fmt=png&od=1&shading=hill&pp=21.638271,69.612518;dfp"
  },
  {
    "name": "Dr. Ambedkar Bhavan",
    "address": "Kadiya Plot Porbandar, Porbandar, Gujarat 360575",
    "phone": "Dr. Ambedkar Bhavan",
    "hours": null,
    "image_url": "https://www.bing.com/maps/geoplat/REST/v1/Imagery/Map/RoadVibrant?ms=92,112&key=AnTcaqBi2ypp0xI-OZNi4W_ik2KhjgpqioTAtXLC8GzkMBQRMlyxvxyTnd5b73im&c=en-US&ur=in&da=n&logo=n&fmt=png&od=1&shading=hill&pp=21.643295,69.626915;dfp"
  },
  {
    "name": "Dr. Sayeed Kazi",
    "address": "Dr Kazi eye Hospital, Chita Khana Chowk, Gujarat",
    "phone": "Dr. Sayeed Kazi",
    "hours": null,
    "image_url": "https://www.bing.com/maps/geoplat/REST/v1/Imagery/Map/RoadVibrant?ms=92,112&key=AnTcaqBi2ypp0xI-OZNi4W_ik2KhjgpqioTAtXLC8GzkMBQRMlyxvxyTnd5b73im&c=en-US&ur=in&da=n&logo=n&fmt=png&od=1&shading=hill&pp=21.6364,69.607834;dfp"
  },
  {
    "name": "Dr. Kirit P. Kottak Clinic",
    "address": "M G Road, Gopal, Panch Hatdi, Porbandar, Gujarat 360575",
    "phone": "Dr. Kirit P. Kottak Clinic",
    "hours": null,
    "image_url": "https://www.bing.com/maps/geoplat/REST/v1/Imagery/Map/RoadVibrant?ms=92,112&key=AnTcaqBi2ypp0xI-OZNi4W_ik2KhjgpqioTAtXLC8GzkMBQRMlyxvxyTnd5b73im&c=en-US&ur=in&da=n&logo=n&fmt=png&od=1&shading=hill&pp=21.639891,69.608604;dfp"
  },
  {
    "name": "M K Thakrar Hospital",
    "address": "Geb Colony, Porbandar, Gujarat 360575, India, Porbandar, Gujarat 360575",
    "phone": "M K Thakrar Hospital",
    "hours": null,
    "image_url": "/th?id=OLC.vTM0c8hNR5xBwA480x360&w=92&h=112&c=8&rs=1&qlt=80&cdv=1&pid=Local"
  },
  {
    "name": "Dr. Arun Shah",
    "address": "Parth, Wadia Rd, Near Dsp Office, Porbandar, Gujarat 360575",
    "phone": "Dr. Arun Shah",
    "hours": null,
    "image_url": "https://www.bing.com/maps/geoplat/REST/v1/Imagery/Map/RoadVibrant?ms=92,112&key=AnTcaqBi2ypp0xI-OZNi4W_ik2KhjgpqioTAtXLC8GzkMBQRMlyxvxyTnd5b73im&c=en-US&ur=in&da=n&logo=n&fmt=png&od=1&shading=hill&pp=21.634251,69.615021;dfp"
  },
  {
    "name": "Dr. Paras | Gynecologist",
    "address": "Uganda Road, Near Vishal Medical, Porbandar, Gujarat, India, 360575, Porbandar, Madhya Pradesh 360575",
    "phone": "Dr. Paras | Gynecologist",
    "hours": "Open· Closes 18:00",
    "image_url": "https://www.bing.com/maps/geoplat/REST/v1/Imagery/Map/RoadVibrant?ms=92,134&key=AnTcaqBi2ypp0xI-OZNi4W_ik2KhjgpqioTAtXLC8GzkMBQRMlyxvxyTnd5b73im&c=en-US&ur=in&da=n&logo=n&fmt=png&od=1&shading=hill&pp=21.64068,69.613441;dfp"
  },
  {
    "name": "Rajshree Clinic",
    "address": "S. T. Stand Road, Porbandar, Gujarat 360575",
    "phone": "Rajshree Clinic",
    "hours": null,
    "image_url": "https://www.bing.com/maps/geoplat/REST/v1/Imagery/Map/RoadVibrant?ms=92,112&key=AnTcaqBi2ypp0xI-OZNi4W_ik2KhjgpqioTAtXLC8GzkMBQRMlyxvxyTnd5b73im&c=en-US&ur=in&da=n&logo=n&fmt=png&od=1&shading=hill&pp=21.638464,69.605476;dfp"
  },
  {
    "name": "Dr. Rajvee Rajshakha - Skin | Hair | Cosmetics",
    "address": "Third Floor Cross Road Complex, MG Rd, Near Friends Petrol Pump, Porbandar, Gujarat",
    "phone": "Dr. Rajvee Rajshakha - Skin | Hair | Cosmetics",
    "hours": null,
    "image_url": null
  },
  {
    "name": "Dr.Harun A.Shaikh(Homeopath)",
    "address": "Kaidyawad Chawk, Opp. Dr.Mithiborwala Hospital, Near Patent Medical, Godhra, Gujarat",
    "phone": "Dr.Harun A.Shaikh(Homeopath)",
    "hours": null,
    "image_url": "https://www.bing.com/maps/geoplat/REST/v1/Imagery/Map/RoadVibrant?ms=92,112&key=AnTcaqBi2ypp0xI-OZNi4W_ik2KhjgpqioTAtXLC8GzkMBQRMlyxvxyTnd5b73im&c=en-US&ur=in&da=n&logo=n&fmt=png&od=1&shading=hill&pp=21.641632,69.620514;dfp"
  },
  {
    "name": "Om Clinic",
    "address": "Matiarana Mill Road, Porbandar, Gujarat 360575",
    "phone": "Om Clinic",
    "hours": null,
    "image_url": "https://www.bing.com/maps/geoplat/REST/v1/Imagery/Map/RoadVibrant?ms=92,112&key=AnTcaqBi2ypp0xI-OZNi4W_ik2KhjgpqioTAtXLC8GzkMBQRMlyxvxyTnd5b73im&c=en-US&ur=in&da=n&logo=n&fmt=png&od=1&shading=hill&pp=21.646399,69.612236;dfp"
  },
  {
    "name": "Asad Surgical & Daignostic",
    "address": "Hospital Road Near Hbl Bank, Rahimyar Khan",
    "phone": "Asad Surgical & Daignostic",
    "hours": null,
    "image_url": null
  },
  {
    "name": "Ojas Eye Hospital",
    "address": "Railway Station Road, Opp. Ravaliya Plot, Port Porbandar, Gujarat, Gujarat 360575",
    "phone": "Ojas Eye Hospital",
    "hours": null,
    "image_url": "https://www.bing.com/maps/geoplat/REST/v1/Imagery/Map/RoadVibrant?ms=92,112&key=AnTcaqBi2ypp0xI-OZNi4W_ik2KhjgpqioTAtXLC8GzkMBQRMlyxvxyTnd5b73im&c=en-US&ur=in&da=n&logo=n&fmt=png&od=1&shading=hill&pp=21.641632,69.620514;dfp"
  },
  {
    "name": "Joshi Homoeopathic Clinic",
    "address": "Near Friends Petrolium, M.G.Road, Porbandar, Porbandar, Gujarat, Gujarat 360575",
    "phone": "Joshi Homoeopathic Clinic",
    "hours": null,
    "image_url": "https://www.bing.com/maps/geoplat/REST/v1/Imagery/Map/RoadVibrant?ms=92,112&key=AnTcaqBi2ypp0xI-OZNi4W_ik2KhjgpqioTAtXLC8GzkMBQRMlyxvxyTnd5b73im&c=en-US&ur=in&da=n&logo=n&fmt=png&od=1&shading=hill&pp=21.639158,69.615768;dfp"
  },
  {
    "name": "Jeel Homoeopathic Clinic",
    "address": "Opposite Head Post Office, Aryasamaj Road, Porbandar, Gujarat, Gujarat 360575",
    "phone": "Jeel Homoeopathic Clinic",
    "hours": null,
    "image_url": "https://www.bing.com/maps/geoplat/REST/v1/Imagery/Map/RoadVibrant?ms=92,112&key=AnTcaqBi2ypp0xI-OZNi4W_ik2KhjgpqioTAtXLC8GzkMBQRMlyxvxyTnd5b73im&c=en-US&ur=in&da=n&logo=n&fmt=png&od=1&shading=hill&pp=21.638466,69.619766;dfp"
  },
  {
    "name": "Om Homeopathic Clinic Dr Ketan Pala",
    "address": "Swami Dayanand Saraswati Road, पंच हातडी, Gujarat 360575",
    "phone": "Om Homeopathic Clinic Dr Ketan Pala",
    "hours": null,
    "image_url": "https://www.bing.com/maps/geoplat/REST/v1/Imagery/Map/RoadVibrant?ms=92,112&key=AnTcaqBi2ypp0xI-OZNi4W_ik2KhjgpqioTAtXLC8GzkMBQRMlyxvxyTnd5b73im&c=en-US&ur=in&da=n&logo=n&fmt=png&od=1&shading=hill&pp=21.639795,69.60582;dfp"
  },
  {
    "name": "Home Clinic",
    "address": "1ST Floor Ronak Comp Home Clinic Chhaya Chowk, Porbandar, Gujarat 360575",
    "phone": "Home Clinic",
    "hours": null,
    "image_url": "https://www.bing.com/maps/geoplat/REST/v1/Imagery/Map/RoadVibrant?ms=92,112&key=AnTcaqBi2ypp0xI-OZNi4W_ik2KhjgpqioTAtXLC8GzkMBQRMlyxvxyTnd5b73im&c=en-US&ur=in&da=n&logo=n&fmt=png&od=1&shading=hill&pp=21.639204,69.612816;dfp"
  },
  {
    "name": "Dr. Nikhil Kargathra",
    "address": "169, Krishna Park, Porbandar, Gujarat 360575",
    "phone": "Dr. Nikhil Kargathra",
    "hours": "Open· Closes 13:00",
    "image_url": null
  }
]