[
  {
    "name": "Dr. Gorantla Krishna Chaitanya",
    "address": "Government Hospital Road, Wood Nagar Colony, Prakasam, Andhra Pradesh",
    "phone": "Dr. Gorantla Krishna Chaitanya",
    "hours": "Open· Closes 15:00",
    "image_url": "https://www.bing.com/maps/geoplat/REST/v1/Imagery/Map/RoadVibrant?ms=92,112&key=AnTcaqBi2ypp0xI-OZNi4W_ik2KhjgpqioTAtXLC8GzkMBQRMlyxvxyTnd5b73im&c=en-US&ur=in&da=n&logo=n&fmt=png&od=1&shading=hill&pp=15.824547,80.361053;dfp"
  },
  {
    "name": "Dr. Sravana Deepika Bathula - Best General Physician | Prakasam",
    "address": "CG54+37R, Sanjeevanihospital, Near Sai Baba Temple, Kanigiri, Andhra Pradesh",
    "phone": "Dr. Sravana Deepika Bathula - Best General Physician | Prakasam",
    "hours": null,
    "image_url": "https://www.bing.com/maps/geoplat/REST/v1/Imagery/Map/RoadVibrant?ms=92,112&key=AnTcaqBi2ypp0xI-OZNi4W_ik2KhjgpqioTAtXLC8GzkMBQRMlyxvxyTnd5b73im&c=en-US&ur=in&da=n&logo=n&fmt=png&od=1&shading=hill&pp=15.407654,79.501244;dfp"
  },
  {
    "name": "Amrutha Heart Hospital",
    "address": "60 Feet Road, Opp To Bus Stand, Prakasam, Andhra Pradesh 523002",
    "phone": "Amrutha Heart Hospital",
    "hours": null,
    "image_url": "/th?id=OLC.fKZNeoLvaWxcJw480x360&w=92&h=112&c=8&rs=1&qlt=80&cdv=1&pid=Local"
  },
  {
    "name": "Dr Sri Aaradhya Multipl Specialty",
    "address": "Kondepi Road 0 Town Thaguntturu Prakasam Ongole, Prakasam, Andhra Pradesh 523274",
    "phone": "Dr Sri Aaradhya Multipl Specialty",
    "hours": null,
    "image_url": "https://www.bing.com/maps/geoplat/REST/v1/Imagery/Map/RoadVibrant?ms=92,112&key=AnTcaqBi2ypp0xI-OZNi4W_ik2KhjgpqioTAtXLC8GzkMBQRMlyxvxyTnd5b73im&c=en-US&ur=in&da=n&logo=n&fmt=png&od=1&shading=hill&pp=15.520056,80.027824;dfp"
  },
  {
    "name": "Sai Chaitanya Clinic",
    "address": "Nehru Road, Markapur, Andhra Pradesh 523316",
    "phone": "Sai Chaitanya Clinic",
    "hours": null,
    "image_url": "https://www.bing.com/maps/geoplat/REST/v1/Imagery/Map/RoadVibrant?ms=92,112&key=AnTcaqBi2ypp0xI-OZNi4W_ik2KhjgpqioTAtXLC8GzkMBQRMlyxvxyTnd5b73im&c=en-US&ur=in&da=n&logo=n&fmt=png&od=1&shading=hill&pp=15.738695,79.269173;dfp"
  },
  {
    "name": "Lakshmi Narayana Clinic",
    "address": "Ongole To Podili Road, Podili, Andhra Pradesh 523240",
    "phone": "Lakshmi Narayana Clinic",
    "hours": null,
    "image_url": "https://www.bing.com/maps/geoplat/REST/v1/Imagery/Map/RoadVibrant?ms=92,112&key=AnTcaqBi2ypp0xI-OZNi4W_ik2KhjgpqioTAtXLC8GzkMBQRMlyxvxyTnd5b73im&c=en-US&ur=in&da=n&logo=n&fmt=png&od=1&shading=hill&pp=15.606919,79.614746;dfp"
  },
  {
    "name": "Sri Karthikeya Clinic",
    "address": "Shop NO 6, OPP Heritage Super Market, OPP Haritage Super Market, Kanigiri Road, Kandukur, Prakasam, An…",
    "phone": "Sri Karthikeya Clinic",
    "hours": null,
    "image_url": "https://www.bing.com/maps/geoplat/REST/v1/Imagery/Map/RoadVibrant?ms=92,112&key=AnTcaqBi2ypp0xI-OZNi4W_ik2KhjgpqioTAtXLC8GzkMBQRMlyxvxyTnd5b73im&c=en-US&ur=in&da=n&logo=n&fmt=png&od=1&shading=hill&pp=15.400542,79.506531;dfp"
  },
  {
    "name": "M G Clinic",
    "address": "Main Road, Podili, Andhra Pradesh 523240",
    "phone": "M G Clinic",
    "hours": null,
    "image_url": null
  },
  {
    "name": "Shankar clinic& Diognostic Center",
    "address": "Valla Potha Vari Vedi, Cheemakurthy, Ongole, Andhra Pradesh 523226",
    "phone": "Shankar clinic& Diognostic Center",
    "hours": null,
    "image_url": null
  },
  {
    "name": "Sri Venkateswara Clinic",
    "address": "Main Road, Darsi, Andhra Pradesh 523247",
    "phone": "Sri Venkateswara Clinic",
    "hours": null,
    "image_url": "https://www.bing.com/maps/geoplat/REST/v1/Imagery/Map/RoadVibrant?ms=92,112&key=AnTcaqBi2ypp0xI-OZNi4W_ik2KhjgpqioTAtXLC8GzkMBQRMlyxvxyTnd5b73im&c=en-US&ur=in&da=n&logo=n&fmt=png&od=1&shading=hill&pp=15.771384,79.681358;dfp"
  },
  {
    "name": "Ramesh Clinic",
    "address": "Mulagunta Padu Road, Singaraya Konda, Singarayakonda, Andhra Pradesh 523101",
    "phone": "Ramesh Clinic",
    "hours": null,
    "image_url": null
  },
  {
    "name": "Avulayya Marma Kala Clinic",
    "address": "NH765, Dornala, Andhra Pradesh 523331",
    "phone": "Avulayya Marma Kala Clinic",
    "hours": null,
    "image_url": "https://www.bing.com/maps/geoplat/REST/v1/Imagery/Map/RoadVibrant?ms=92,112&key=AnTcaqBi2ypp0xI-OZNi4W_ik2KhjgpqioTAtXLC8GzkMBQRMlyxvxyTnd5b73im&c=en-US&ur=in&da=n&logo=n&fmt=png&od=1&shading=hill&pp=15.900561,79.121391;dfp"
  },
  {
    "name": "Swasa Chest Clinic",
    "address": "College Road, Markapur, Andhra Pradesh 523316",
    "phone": "Swasa Chest Clinic",
    "hours": null,
    "image_url": "https://www.bing.com/maps/geoplat/REST/v1/Imagery/Map/RoadVibrant?ms=92,112&key=AnTcaqBi2ypp0xI-OZNi4W_ik2KhjgpqioTAtXLC8GzkMBQRMlyxvxyTnd5b73im&c=en-US&ur=in&da=n&logo=n&fmt=png&od=1&shading=hill&pp=15.742409,79.274178;dfp"
  },
  {
    "name": "Moksha Diagnostic Centre",
    "address": "Nehru Bazar, Near Balaji Hospital, Ganesh Nagar, Markapur, Andhra Pradesh",
    "phone": "Moksha Diagnostic Centre",
    "hours": null,
    "image_url": "https://www.bing.com/maps/geoplat/REST/v1/Imagery/Map/RoadVibrant?ms=92,112&key=AnTcaqBi2ypp0xI-OZNi4W_ik2KhjgpqioTAtXLC8GzkMBQRMlyxvxyTnd5b73im&c=en-US&ur=in&da=n&logo=n&fmt=png&od=1&shading=hill&pp=15.738334,79.26757;dfp"
  },
  {
    "name": "Lupin Diagnostics Markapuram I Pathology Care Centre I Blood Sample Collection Near You I Advanced Diagnos…",
    "address": "D NO 7/472, Balaji Hospital Opposite Street, Near Nehru Bazaar, Prakasam District, Markapur, Andhra Pradesh …",
    "phone": "Lupin Diagnostics Markapuram I Pathology Care Centre I Blood Sample Collection Near You I Advanced Diagnos…",
    "hours": "Open· Closes 16:00",
    "image_url": null
  },
  {
    "name": "Pidatala Padu Health Care & Clinic",
    "address": "Main Road, Pidatala Vari Palem, Ongole, Andhra Pradesh 523225",
    "phone": "Pidatala Padu Health Care & Clinic",
    "hours": null,
    "image_url": "https://www.bing.com/maps/geoplat/REST/v1/Imagery/Map/RoadVibrant?ms=92,112&key=AnTcaqBi2ypp0xI-OZNi4W_ik2KhjgpqioTAtXLC8GzkMBQRMlyxvxyTnd5b73im&c=en-US&ur=in&da=n&logo=n&fmt=png&od=1&shading=hill&pp=15.548441,79.91774;dfp"
  },
  {
    "name": "Sri Vijaya Durga Clinic",
    "address": "Main Road, Giddalur, Andhra Pradesh 523357",
    "phone": "Sri Vijaya Durga Clinic",
    "hours": null,
    "image_url": "https://www.bing.com/maps/geoplat/REST/v1/Imagery/Map/RoadVibrant?ms=92,112&key=AnTcaqBi2ypp0xI-OZNi4W_ik2KhjgpqioTAtXLC8GzkMBQRMlyxvxyTnd5b73im&c=en-US&ur=in&da=n&logo=n&fmt=png&od=1&shading=hill&pp=15.375265,78.922691;dfp"
  },
  {
    "name": "Government Hospital",
    "address": "9w99+ppc, P R Colony, Giddalur, Andhra Pradesh 523357, India, Giddaluru, Andhra Pradesh 523357",
    "phone": "Government Hospital",
    "hours": null,
    "image_url": "https://www.bing.com/maps/geoplat/REST/v1/Imagery/Map/RoadVibrant?ms=92,112&key=AnTcaqBi2ypp0xI-OZNi4W_ik2KhjgpqioTAtXLC8GzkMBQRMlyxvxyTnd5b73im&c=en-US&ur=in&da=n&logo=n&fmt=png&od=1&shading=hill&pp=15.369274,78.91954;dfp"
  }
]