[
  {
    "name": "Dr. Jaideep Singh- General Physician",
    "address": "Geetanjali Life Care & Surgical Pvt. Ltd., Milkypur, Tengramore, Ram Nagar, Varanasi, Uttar Pradesh 231…",
    "phone": "Dr. Jaideep Singh- General Physician",
    "hours": "Open· Closes 14:00",
    "image_url": "https://www.bing.com/maps/geoplat/REST/v1/Imagery/Map/RoadVibrant?ms=92,134&key=AnTcaqBi2ypp0xI-OZNi4W_ik2KhjgpqioTAtXLC8GzkMBQRMlyxvxyTnd5b73im&c=en-US&ur=in&da=n&logo=n&fmt=png&od=1&shading=hill&pp=25.920599,81.907227;dfp"
  },
  {
    "name": "Doctor Van Dev Clinic",
    "address": "Katra Road, Vikas Bhawan, Bela Pratapgarh, Uttar Pradesh 230001",
    "phone": "Doctor Van Dev Clinic",
    "hours": null,
    "image_url": "https://www.bing.com/maps/geoplat/REST/v1/Imagery/Map/RoadVibrant?ms=92,112&key=AnTcaqBi2ypp0xI-OZNi4W_ik2KhjgpqioTAtXLC8GzkMBQRMlyxvxyTnd5b73im&c=en-US&ur=in&da=n&logo=n&fmt=png&od=1&shading=hill&pp=25.907084,81.977875;dfp"
  },
  {
    "name": "Rajat Hospital Doctor Alok",
    "address": "Malgodam Road, Rajat Hospital Dr Alok, Pratapgarh, Uttar Pradesh 230001",
    "phone": "Rajat Hospital Doctor Alok",
    "hours": null,
    "image_url": "https://www.bing.com/maps/geoplat/REST/v1/Imagery/Map/RoadVibrant?ms=92,112&key=AnTcaqBi2ypp0xI-OZNi4W_ik2KhjgpqioTAtXLC8GzkMBQRMlyxvxyTnd5b73im&c=en-US&ur=in&da=n&logo=n&fmt=png&od=1&shading=hill&pp=25.915579,81.99968;dfp"
  },
  {
    "name": "Dr Sanjay Singh's Multi Speciality Homeopathic Clinic",
    "address": "City Road, Near Meera Bhawan Choraha Beside Baroda Up Bank, Pratapgarh, Pratapgarh 230001",
    "phone": "Dr Sanjay Singh's Multi Speciality Homeopathic Clinic",
    "hours": "Open· Closes 21:00",
    "image_url": "/th?id=OLC.xMvja3tkM4Duvg480x360&w=92&h=112&c=8&rs=1&qlt=80&cdv=1&pid=Local"
  },
  {
    "name": "Dr. Ashutosh Homeo Clinic",
    "address": "Pratapgarh - Raebareli Rd, Lalganj Ajhara, Uttar Pradesh",
    "phone": "Dr. Ashutosh Homeo Clinic",
    "hours": null,
    "image_url": "https://www.bing.com/maps/geoplat/REST/v1/Imagery/Map/RoadVibrant?ms=92,112&key=AnTcaqBi2ypp0xI-OZNi4W_ik2KhjgpqioTAtXLC8GzkMBQRMlyxvxyTnd5b73im&c=en-US&ur=in&da=n&logo=n&fmt=png&od=1&shading=hill&pp=25.892645,81.893616;dfp"
  },
  {
    "name": "Pal Clinic",
    "address": "Bela Rae Bareli Road, Pratapgarh, Uttar Pradesh 230403",
    "phone": "Pal Clinic",
    "hours": null,
    "image_url": "https://www.bing.com/maps/geoplat/REST/v1/Imagery/Map/RoadVibrant?ms=92,112&key=AnTcaqBi2ypp0xI-OZNi4W_ik2KhjgpqioTAtXLC8GzkMBQRMlyxvxyTnd5b73im&c=en-US&ur=in&da=n&logo=n&fmt=png&od=1&shading=hill&pp=25.9186,81.981796;dfp"
  },
  {
    "name": "Arogya Dham Clinic",
    "address": "Chowk Kachehri Road, Shri Ram Chauraha Pratapgarh, Pratapgarh, Uttar Pradesh 230001",
    "phone": "Arogya Dham Clinic",
    "hours": null,
    "image_url": "https://www.bing.com/maps/geoplat/REST/v1/Imagery/Map/RoadVibrant?ms=92,112&key=AnTcaqBi2ypp0xI-OZNi4W_ik2KhjgpqioTAtXLC8GzkMBQRMlyxvxyTnd5b73im&c=en-US&ur=in&da=n&logo=n&fmt=png&od=1&shading=hill&pp=25.921043,81.998642;dfp"
  },
  {
    "name": "Dr. Ajit Kumar Kulshrestha- Ent",
    "address": "Kusum Hospital, Katra Road, Karanpur, Lalganj, Pratapgarh, Uttar Pradesh 230132",
    "phone": "Dr. Ajit Kumar Kulshrestha- Ent",
    "hours": "Open· Closes 19:00",
    "image_url": "https://www.bing.com/maps/geoplat/REST/v1/Imagery/Map/RoadVibrant?ms=92,134&key=AnTcaqBi2ypp0xI-OZNi4W_ik2KhjgpqioTAtXLC8GzkMBQRMlyxvxyTnd5b73im&c=en-US&ur=in&da=n&logo=n&fmt=png&od=1&shading=hill&pp=25.912663,81.983559;dfp"
  },
  {
    "name": "Anand Hospital - Dr. Kamayani Upadhyay - Infertility / Tubal Blockage Treatment (Uttar Basti) - Pratapgarh",
    "address": "Jail Road, Bela Pratapgarh, Uttar Pradesh",
    "phone": "Anand Hospital - Dr. Kamayani Upadhyay - Infertility / Tubal Blockage Treatment (Uttar Basti) - Pratapgarh",
    "hours": null,
    "image_url": "https://www.bing.com/maps/geoplat/REST/v1/Imagery/Map/RoadVibrant?ms=92,112&key=AnTcaqBi2ypp0xI-OZNi4W_ik2KhjgpqioTAtXLC8GzkMBQRMlyxvxyTnd5b73im&c=en-US&ur=in&da=n&logo=n&fmt=png&od=1&shading=hill&pp=25.948811,82.015945;dfp"
  },
  {
    "name": "Dr Shankar Lal Pratihar",
    "address": "Hotel Satkar, Nh 113, Neemuch, Pratapgarh, Rajasthan 312605",
    "phone": "Dr Shankar Lal Pratihar",
    "hours": null,
    "image_url": "https://www.bing.com/maps/geoplat/REST/v1/Imagery/Map/RoadVibrant?ms=92,112&key=AnTcaqBi2ypp0xI-OZNi4W_ik2KhjgpqioTAtXLC8GzkMBQRMlyxvxyTnd5b73im&c=en-US&ur=in&da=n&logo=n&fmt=png&od=1&shading=hill&pp=24.035088,74.780884;dfp"
  },
  {
    "name": "Jain Clinic",
    "address": "Bus Station, Nh 113, Neemuch, Pratapgarh, Rajasthan 312605",
    "phone": "Jain Clinic",
    "hours": null,
    "image_url": "https://www.bing.com/maps/geoplat/REST/v1/Imagery/Map/RoadVibrant?ms=92,112&key=AnTcaqBi2ypp0xI-OZNi4W_ik2KhjgpqioTAtXLC8GzkMBQRMlyxvxyTnd5b73im&c=en-US&ur=in&da=n&logo=n&fmt=png&od=1&shading=hill&pp=24.034794,74.781792;dfp"
  },
  {
    "name": "Dr Lal PathLabs – Patient Service Centre",
    "address": "Rajapal Choraha, in Front of PNB ATM, Pratapgarh, Bela Pratapgarh, Uttar Pradesh",
    "phone": "Dr Lal PathLabs – Patient Service Centre",
    "hours": null,
    "image_url": "https://www.bing.com/maps/geoplat/REST/v1/Imagery/Map/RoadVibrant?ms=92,112&key=AnTcaqBi2ypp0xI-OZNi4W_ik2KhjgpqioTAtXLC8GzkMBQRMlyxvxyTnd5b73im&c=en-US&ur=in&da=n&logo=n&fmt=png&od=1&shading=hill&pp=25.921507,82.001984;dfp"
  },
  {
    "name": "Government Ayurvedic Hospital",
    "address": "Suhagpura, Pratapgarh, Nh-113, Partapgarh Road, Pratapgarh, Rajasthan, Rajasthan 312605",
    "phone": "Government Ayurvedic Hospital",
    "hours": null,
    "image_url": "https://www.bing.com/maps/geoplat/REST/v1/Imagery/Map/RoadVibrant?ms=92,112&key=AnTcaqBi2ypp0xI-OZNi4W_ik2KhjgpqioTAtXLC8GzkMBQRMlyxvxyTnd5b73im&c=en-US&ur=in&da=n&logo=n&fmt=png&od=1&shading=hill&pp=24.035088,74.780884;dfp"
  },
  {
    "name": "S G S City Scan Centre",
    "address": "Ajeet Nagar, Ald Fzd Road, Sadar, Pratapgarh, Uttar Pradesh 230001",
    "phone": "S G S City Scan Centre",
    "hours": null,
    "image_url": "https://www.bing.com/maps/geoplat/REST/v1/Imagery/Map/RoadVibrant?ms=92,112&key=AnTcaqBi2ypp0xI-OZNi4W_ik2KhjgpqioTAtXLC8GzkMBQRMlyxvxyTnd5b73im&c=en-US&ur=in&da=n&logo=n&fmt=png&od=1&shading=hill&pp=25.928085,82.004089;dfp"
  },
  {
    "name": "Star Path Lab",
    "address": "Infront of Union Bank Rajapal Tanki Chauraha Pratapgarh, Bela Pratapgarh, Uttar Pradesh",
    "phone": "Star Path Lab",
    "hours": null,
    "image_url": "https://www.bing.com/maps/geoplat/REST/v1/Imagery/Map/RoadVibrant?ms=92,112&key=AnTcaqBi2ypp0xI-OZNi4W_ik2KhjgpqioTAtXLC8GzkMBQRMlyxvxyTnd5b73im&c=en-US&ur=in&da=n&logo=n&fmt=png&od=1&shading=hill&pp=25.92123,81.992882;dfp"
  },
  {
    "name": "Dr. Shamsuddoha Shamsher",
    "address": "48, Paltan Bazaar, Pratapgarh, Uttar Pradesh",
    "phone": "Dr. Shamsuddoha Shamsher",
    "hours": "Open· Closes 13:30",
    "image_url": "https://www.bing.com/maps/geoplat/REST/v1/Imagery/Map/RoadVibrant?ms=92,112&key=AnTcaqBi2ypp0xI-OZNi4W_ik2KhjgpqioTAtXLC8GzkMBQRMlyxvxyTnd5b73im&c=en-US&ur=in&da=n&logo=n&fmt=png&od=1&shading=hill&pp=25.92009,81.994446;dfp"
  },
  {
    "name": "Dr Lal PathLabs - Patient Service Centre",
    "address": "Plot No 482, Pratapgarh 230001",
    "phone": "Dr Lal PathLabs - Patient Service Centre",
    "hours": "Open· Closes 19:30",
    "image_url": "https://www.bing.com/maps/geoplat/REST/v1/Imagery/Map/RoadVibrant?ms=92,134&key=AnTcaqBi2ypp0xI-OZNi4W_ik2KhjgpqioTAtXLC8GzkMBQRMlyxvxyTnd5b73im&c=en-US&ur=in&da=n&logo=n&fmt=png&od=1&shading=hill&pp=25.917173,81.998901;dfp"
  },
  {
    "name": "Jaiswal Pathology",
    "address": "Raja Pratap Bahadur Park, Bela Pratapgarh, Uttar Pradesh",
    "phone": "Jaiswal Pathology",
    "hours": null,
    "image_url": "https://www.bing.com/maps/geoplat/REST/v1/Imagery/Map/RoadVibrant?ms=92,112&key=AnTcaqBi2ypp0xI-OZNi4W_ik2KhjgpqioTAtXLC8GzkMBQRMlyxvxyTnd5b73im&c=en-US&ur=in&da=n&logo=n&fmt=png&od=1&shading=hill&pp=25.921562,81.9981;dfp"
  }
]