[
  {
    "name": "Dr.rameshscans4D",
    "address": "Periyar Nagar, Near RTO, Pudukkottai, Tamil Nadu",
    "phone": "Dr.rameshscans4D",
    "hours": "Open· Closes 21:00",
    "image_url": "https://www.bing.com/maps/geoplat/REST/v1/Imagery/Map/RoadVibrant?ms=92,134&key=AnTcaqBi2ypp0xI-OZNi4W_ik2KhjgpqioTAtXLC8GzkMBQRMlyxvxyTnd5b73im&c=en-US&ur=in&da=n&logo=n&fmt=png&od=1&shading=hill&pp=10.37601,78.813011;dfp"
  },
  {
    "name": "PT Clinic",
    "address": "Nizam Colony Road, Pudukkottai New Bus Stand, Nizam Colony, Pudukkottai, Tamil Nadu 622001",
    "phone": "PT Clinic",
    "hours": null,
    "image_url": "https://www.bing.com/maps/geoplat/REST/v1/Imagery/Map/RoadVibrant?ms=92,112&key=AnTcaqBi2ypp0xI-OZNi4W_ik2KhjgpqioTAtXLC8GzkMBQRMlyxvxyTnd5b73im&c=en-US&ur=in&da=n&logo=n&fmt=png&od=1&shading=hill&pp=10.375192,78.820206;dfp"
  },
  {
    "name": "Dr A.R.Rayappan Kumar",
    "address": "South 4Thstreet, Pudukkotai, Pudukkottai, Tamil Nadu 622001",
    "phone": "Dr A.R.Rayappan Kumar",
    "hours": null,
    "image_url": "https://www.bing.com/maps/geoplat/REST/v1/Imagery/Map/RoadVibrant?ms=92,112&key=AnTcaqBi2ypp0xI-OZNi4W_ik2KhjgpqioTAtXLC8GzkMBQRMlyxvxyTnd5b73im&c=en-US&ur=in&da=n&logo=n&fmt=png&od=1&shading=hill&pp=10.378287,78.823929;dfp"
  },
  {
    "name": "Dr Saradamani Clinic",
    "address": "Sh71, Manapparai Pudukottai Alangudi Peravurani Road, Pudukkottai, Tamil Nadu 622001",
    "phone": "Dr Saradamani Clinic",
    "hours": null,
    "image_url": "https://www.bing.com/maps/geoplat/REST/v1/Imagery/Map/RoadVibrant?ms=92,112&key=AnTcaqBi2ypp0xI-OZNi4W_ik2KhjgpqioTAtXLC8GzkMBQRMlyxvxyTnd5b73im&c=en-US&ur=in&da=n&logo=n&fmt=png&od=1&shading=hill&pp=10.386878,78.814651;dfp"
  },
  {
    "name": "Team Physio Clinic & Research Centre",
    "address": "5666, Opposite To G.h, Pudukkottai, Tamil Nadu, Tamil Nadu 622001",
    "phone": "Team Physio Clinic & Research Centre",
    "hours": "Open· Closes 21:00",
    "image_url": "/th?id=OLC.Rz7a5SBPvy9nPg480x360&w=92&h=134&c=8&rs=1&qlt=80&cdv=1&pid=Local"
  },
  {
    "name": "DR.Rahamathunnisa Clinic",
    "address": "Ts No:4069, Harvey Complex, South 4Th Street, Pudukottai, Pudukkottai, Tamil Nadu 622001",
    "phone": "DR.Rahamathunnisa Clinic",
    "hours": null,
    "image_url": "https://www.bing.com/maps/geoplat/REST/v1/Imagery/Map/RoadVibrant?ms=92,112&key=AnTcaqBi2ypp0xI-OZNi4W_ik2KhjgpqioTAtXLC8GzkMBQRMlyxvxyTnd5b73im&c=en-US&ur=in&da=n&logo=n&fmt=png&od=1&shading=hill&pp=10.379311,78.821884;dfp"
  },
  {
    "name": "DR.K.Shanmugasundaram",
    "address": "Be Well Hospitals, 5371/5, Alangudi Road, Pudukkottai, Tamil Nadu 622001",
    "phone": "DR.K.Shanmugasundaram",
    "hours": null,
    "image_url": "https://www.bing.com/maps/geoplat/REST/v1/Imagery/Map/RoadVibrant?ms=92,112&key=AnTcaqBi2ypp0xI-OZNi4W_ik2KhjgpqioTAtXLC8GzkMBQRMlyxvxyTnd5b73im&c=en-US&ur=in&da=n&logo=n&fmt=png&od=1&shading=hill&pp=10.375427,78.827347;dfp"
  },
  {
    "name": "Meenakshi Poly Clinic",
    "address": "4215 South 4th Street, Pudukkottai, Tamil Nadu 622001",
    "phone": "Meenakshi Poly Clinic",
    "hours": null,
    "image_url": "https://www.bing.com/maps/geoplat/REST/v1/Imagery/Map/RoadVibrant?ms=92,112&key=AnTcaqBi2ypp0xI-OZNi4W_ik2KhjgpqioTAtXLC8GzkMBQRMlyxvxyTnd5b73im&c=en-US&ur=in&da=n&logo=n&fmt=png&od=1&shading=hill&pp=10.379474,78.823196;dfp"
  },
  {
    "name": "Dr D Malathi",
    "address": "3032 East Second Street, Pudukkottai, Tamil Nadu 622001",
    "phone": "Dr D Malathi",
    "hours": null,
    "image_url": "https://www.bing.com/maps/geoplat/REST/v1/Imagery/Map/RoadVibrant?ms=92,112&key=AnTcaqBi2ypp0xI-OZNi4W_ik2KhjgpqioTAtXLC8GzkMBQRMlyxvxyTnd5b73im&c=en-US&ur=in&da=n&logo=n&fmt=png&od=1&shading=hill&pp=10.383685,78.823158;dfp"
  },
  {
    "name": "Dr. Santhosh R",
    "address": "South 4th Street, Pudukkottai, Tamil Nadu",
    "phone": "Dr. Santhosh R",
    "hours": "Open· Closes 14:00",
    "image_url": "https://www.bing.com/maps/geoplat/REST/v1/Imagery/Map/RoadVibrant?ms=92,112&key=AnTcaqBi2ypp0xI-OZNi4W_ik2KhjgpqioTAtXLC8GzkMBQRMlyxvxyTnd5b73im&c=en-US&ur=in&da=n&logo=n&fmt=png&od=1&shading=hill&pp=10.379209,78.821716;dfp"
  },
  {
    "name": "DR. N. Senthil Kumar",
    "address": "31 AND 32 S A S Residency Valliappa Nagar Near Poonga Nagar, Pudukkottai, Tamil Nadu 622003",
    "phone": "DR. N. Senthil Kumar",
    "hours": null,
    "image_url": "https://www.bing.com/maps/geoplat/REST/v1/Imagery/Map/RoadVibrant?ms=92,112&key=AnTcaqBi2ypp0xI-OZNi4W_ik2KhjgpqioTAtXLC8GzkMBQRMlyxvxyTnd5b73im&c=en-US&ur=in&da=n&logo=n&fmt=png&od=1&shading=hill&pp=10.369993,78.805595;dfp"
  },
  {
    "name": "Jayavedha Clinic",
    "address": "Sh71, Manapparai Alangudi Sethubavachatram Road, Pudukkottai, Tamil Nadu 622001",
    "phone": "Jayavedha Clinic",
    "hours": null,
    "image_url": "https://www.bing.com/maps/geoplat/REST/v1/Imagery/Map/RoadVibrant?ms=92,112&key=AnTcaqBi2ypp0xI-OZNi4W_ik2KhjgpqioTAtXLC8GzkMBQRMlyxvxyTnd5b73im&c=en-US&ur=in&da=n&logo=n&fmt=png&od=1&shading=hill&pp=10.376903,78.821167;dfp"
  },
  {
    "name": "Dr.Rajakumaran.Bhms",
    "address": "Senthangudi, Pudukkottai, Tamil Nadu 614624",
    "phone": "Dr.Rajakumaran.Bhms",
    "hours": null,
    "image_url": null
  },
  {
    "name": "Vasantham Clinic",
    "address": "TS NO 4047 DR.Karthik, South 4TH Street, Pudukkottai, Tamil Nadu 622001",
    "phone": "Vasantham Clinic",
    "hours": null,
    "image_url": "https://www.bing.com/maps/geoplat/REST/v1/Imagery/Map/RoadVibrant?ms=92,112&key=AnTcaqBi2ypp0xI-OZNi4W_ik2KhjgpqioTAtXLC8GzkMBQRMlyxvxyTnd5b73im&c=en-US&ur=in&da=n&logo=n&fmt=png&od=1&shading=hill&pp=10.379311,78.821884;dfp"
  },
  {
    "name": "Tamil Siddha Speciality Clinic",
    "address": "Sh71, Manapparai Pudukottai Alangudi Peravurani Road, Pudukkottai, Tamil Nadu 622001",
    "phone": "Tamil Siddha Speciality Clinic",
    "hours": null,
    "image_url": "https://www.bing.com/maps/geoplat/REST/v1/Imagery/Map/RoadVibrant?ms=92,112&key=AnTcaqBi2ypp0xI-OZNi4W_ik2KhjgpqioTAtXLC8GzkMBQRMlyxvxyTnd5b73im&c=en-US&ur=in&da=n&logo=n&fmt=png&od=1&shading=hill&pp=10.380839,78.814323;dfp"
  },
  {
    "name": "Rajalakshmi Clinic",
    "address": "Nh226, Thanjavur Gandharvakottai Pudukkottai Road, Pudukkottai, Tamil Nadu 622001",
    "phone": "Rajalakshmi Clinic",
    "hours": null,
    "image_url": "https://www.bing.com/maps/geoplat/REST/v1/Imagery/Map/RoadVibrant?ms=92,112&key=AnTcaqBi2ypp0xI-OZNi4W_ik2KhjgpqioTAtXLC8GzkMBQRMlyxvxyTnd5b73im&c=en-US&ur=in&da=n&logo=n&fmt=png&od=1&shading=hill&pp=10.382728,78.822678;dfp"
  },
  {
    "name": "DR.Inkarsal Child Clinic and Vaccination Centre",
    "address": "3rd St, Near Kannan Hospital, Santhanathapuram, Pudukkottai, Tamil Nadu",
    "phone": "DR.Inkarsal Child Clinic and Vaccination Centre",
    "hours": null,
    "image_url": "https://www.bing.com/maps/geoplat/REST/v1/Imagery/Map/RoadVibrant?ms=92,112&key=AnTcaqBi2ypp0xI-OZNi4W_ik2KhjgpqioTAtXLC8GzkMBQRMlyxvxyTnd5b73im&c=en-US&ur=in&da=n&logo=n&fmt=png&od=1&shading=hill&pp=10.388007,78.822517;dfp"
  },
  {
    "name": "Sri Krishna Eye Hospital",
    "address": "5594/1 South 4th Street, Pudukkottai, Tamil Nadu 622001",
    "phone": "Sri Krishna Eye Hospital",
    "hours": null,
    "image_url": null
  }
]