[
  {
    "name": "Lal Ded Clinic",
    "address": "Near District Hospital Pulwama, Pulwama, Jammu and Kashmir (State) 192301",
    "phone": "Lal Ded Clinic",
    "hours": null,
    "image_url": "/th?id=OLC.JEB0s1ZNGa8dUQ480x360&w=92&h=112&c=8&rs=1&qlt=80&cdv=1&pid=Local"
  },
  {
    "name": "Dr. Mir Showkat | Md Internal Medicine",
    "address": "Opposite SDH Rajpora Pulwama, Rajpora, Jammu and Kashmir, India, 192306, Rajpora, Madhya Pradesh 192…",
    "phone": "Dr. Mir Showkat | Md Internal Medicine",
    "hours": "Open· Closes 18:00",
    "image_url": "https://www.bing.com/maps/geoplat/REST/v1/Imagery/Map/RoadVibrant?ms=92,134&key=AnTcaqBi2ypp0xI-OZNi4W_ik2KhjgpqioTAtXLC8GzkMBQRMlyxvxyTnd5b73im&c=en-US&ur=in&da=n&logo=n&fmt=png&od=1&shading=hill&pp=33.815689,74.855827;dfp"
  },
  {
    "name": "Dr Lal PathLabs - Patient Service Centre",
    "address": "Pulwama Nowgam Road, Pulwama 192301",
    "phone": "Dr Lal PathLabs - Patient Service Centre",
    "hours": "Open· Closes 19:00",
    "image_url": "https://www.bing.com/maps/geoplat/REST/v1/Imagery/Map/RoadVibrant?ms=92,134&key=AnTcaqBi2ypp0xI-OZNi4W_ik2KhjgpqioTAtXLC8GzkMBQRMlyxvxyTnd5b73im&c=en-US&ur=in&da=n&logo=n&fmt=png&od=1&shading=hill&pp=33.881737,74.899101;dfp"
  },
  {
    "name": "Agri Clinic",
    "address": "22, Sana Complex Pulwama, Pulwama 192301",
    "phone": "Agri Clinic",
    "hours": null,
    "image_url": "https://www.bing.com/maps/geoplat/REST/v1/Imagery/Map/RoadVibrant?ms=92,112&key=AnTcaqBi2ypp0xI-OZNi4W_ik2KhjgpqioTAtXLC8GzkMBQRMlyxvxyTnd5b73im&c=en-US&ur=in&da=n&logo=n&fmt=png&od=1&shading=hill&pp=33.880505,74.8993;dfp"
  },
  {
    "name": "Modern Clinical Lab - MCL",
    "address": "Opp. District Hospital, Pulwama, Jammu and Kashmir 192301",
    "phone": "Modern Clinical Lab - MCL",
    "hours": null,
    "image_url": "/th?id=OLC.f%2fa18Wdja5us%2bQ480x360&w=92&h=112&c=8&rs=1&qlt=80&cdv=1&pid=Local"
  },
  {
    "name": "Dr Naseer's Unani And Panchkarma Hospital",
    "address": "Court Road, Shopain, Jammu And Kashmir 192303, Pulwama 192303",
    "phone": "Dr Naseer's Unani And Panchkarma Hospital",
    "hours": null,
    "image_url": "https://www.bing.com/maps/geoplat/REST/v1/Imagery/Map/RoadVibrant?ms=92,112&key=AnTcaqBi2ypp0xI-OZNi4W_ik2KhjgpqioTAtXLC8GzkMBQRMlyxvxyTnd5b73im&c=en-US&ur=in&da=n&logo=n&fmt=png&od=1&shading=hill&pp=33.721146,74.826164;dfp"
  },
  {
    "name": "Dr Lal PathLabs - Patient Service Centre",
    "address": "Hospital, 144, Opposite Primary Health Center, Newa, Pulwama",
    "phone": "Dr Lal PathLabs - Patient Service Centre",
    "hours": "Open· Closes 19:00",
    "image_url": "https://www.bing.com/maps/geoplat/REST/v1/Imagery/Map/RoadVibrant?ms=92,134&key=AnTcaqBi2ypp0xI-OZNi4W_ik2KhjgpqioTAtXLC8GzkMBQRMlyxvxyTnd5b73im&c=en-US&ur=in&da=n&logo=n&fmt=png&od=1&shading=hill&pp=33.871613,74.894569;dfp"
  },
  {
    "name": "Bismillah X Ray",
    "address": "01, Chatapora Pulwama Near Old Bus Stand, Chatapora Pulwama, Pulwama 192301",
    "phone": "Bismillah X Ray",
    "hours": null,
    "image_url": "https://www.bing.com/maps/geoplat/REST/v1/Imagery/Map/RoadVibrant?ms=92,112&key=AnTcaqBi2ypp0xI-OZNi4W_ik2KhjgpqioTAtXLC8GzkMBQRMlyxvxyTnd5b73im&c=en-US&ur=in&da=n&logo=n&fmt=png&od=1&shading=hill&pp=33.883652,74.898743;dfp"
  },
  {
    "name": "Dr Lal PathLabs – Patient Service Centre",
    "address": "Hospita Road, Kadlabal, Pampore",
    "phone": "Dr Lal PathLabs – Patient Service Centre",
    "hours": null,
    "image_url": "https://www.bing.com/maps/geoplat/REST/v1/Imagery/Map/RoadVibrant?ms=92,112&key=AnTcaqBi2ypp0xI-OZNi4W_ik2KhjgpqioTAtXLC8GzkMBQRMlyxvxyTnd5b73im&c=en-US&ur=in&da=n&logo=n&fmt=png&od=1&shading=hill&pp=34.007069,74.913475;dfp"
  },
  {
    "name": "Dr Lal PathLabs - Patient Service Centre",
    "address": "Shop No 1, Gulshan Abad, Badgam, Charari Sharief, Budgam 191112",
    "phone": "Dr Lal PathLabs - Patient Service Centre",
    "hours": "Open· Closes 19:00",
    "image_url": "https://www.bing.com/maps/geoplat/REST/v1/Imagery/Map/RoadVibrant?ms=92,134&key=AnTcaqBi2ypp0xI-OZNi4W_ik2KhjgpqioTAtXLC8GzkMBQRMlyxvxyTnd5b73im&c=en-US&ur=in&da=n&logo=n&fmt=png&od=1&shading=hill&pp=33.863773,74.771652;dfp"
  },
  {
    "name": "Khansa Diagnostic Centre",
    "address": "66, Near Hospital Pulwama, Pulwama 192301",
    "phone": "Khansa Diagnostic Centre",
    "hours": null,
    "image_url": "https://www.bing.com/maps/geoplat/REST/v1/Imagery/Map/RoadVibrant?ms=92,112&key=AnTcaqBi2ypp0xI-OZNi4W_ik2KhjgpqioTAtXLC8GzkMBQRMlyxvxyTnd5b73im&c=en-US&ur=in&da=n&logo=n&fmt=png&od=1&shading=hill&pp=33.888744,74.897591;dfp"
  },
  {
    "name": "Life View Diagnostic Centre Kadlabal Pampore",
    "address": "Kadlabal Pampore, Near Icici Bank, Srinagar Road, Pampore, Pulwama 192121",
    "phone": "Life View Diagnostic Centre Kadlabal Pampore",
    "hours": null,
    "image_url": "https://www.bing.com/maps/geoplat/REST/v1/Imagery/Map/RoadVibrant?ms=92,112&key=AnTcaqBi2ypp0xI-OZNi4W_ik2KhjgpqioTAtXLC8GzkMBQRMlyxvxyTnd5b73im&c=en-US&ur=in&da=n&logo=n&fmt=png&od=1&shading=hill&pp=34.01754,74.91848;dfp"
  },
  {
    "name": "Mercy Kidney Care Diabetic and Dialysis Centre",
    "address": "Pulwama, Drussu Road Pulwama, Srinagar, Pulwama 192301",
    "phone": "Mercy Kidney Care Diabetic and Dialysis Centre",
    "hours": null,
    "image_url": "https://www.bing.com/maps/geoplat/REST/v1/Imagery/Map/RoadVibrant?ms=92,112&key=AnTcaqBi2ypp0xI-OZNi4W_ik2KhjgpqioTAtXLC8GzkMBQRMlyxvxyTnd5b73im&c=en-US&ur=in&da=n&logo=n&fmt=png&od=1&shading=hill&pp=33.94698,74.927399;dfp"
  },
  {
    "name": "Dr Jasiras Modern Dental Care Centre",
    "address": "Near Jamia Masjid Kamad Herpora Kamad KA Road, Anantnag 192210",
    "phone": "Dr Jasiras Modern Dental Care Centre",
    "hours": null,
    "image_url": "https://www.bing.com/maps/geoplat/REST/v1/Imagery/Map/RoadVibrant?ms=92,112&key=AnTcaqBi2ypp0xI-OZNi4W_ik2KhjgpqioTAtXLC8GzkMBQRMlyxvxyTnd5b73im&c=en-US&ur=in&da=n&logo=n&fmt=png&od=1&shading=hill&pp=33.94698,74.927399;dfp"
  }
]