[
  {
    "name": "Healing Hands Clinic",
    "address": "Healing Hands Clinic, Ground Floor, Millenium Star Extension, Dhole Patil, Rd, Near Ruby Hall, Pune, Mah…",
    "phone": "Healing Hands Clinic",
    "hours": "Open 24 hours",
    "image_url": "/th?id=OLC.k%2bEyVrkRM0SW%2fw480x360&w=92&h=134&c=8&rs=1&qlt=80&cdv=1&pid=Local"
  },
  {
    "name": "Dr. Shivaji.B. Deokar",
    "address": "Gera Enclave, Shop Number 9, Near Ganpati Chowk, Pune, Maharashtra",
    "phone": "Dr. Shivaji.B. Deokar",
    "hours": "Opens in 5 mins",
    "image_url": "https://www.bing.com/maps/geoplat/REST/v1/Imagery/Map/RoadVibrant?ms=92,112&key=AnTcaqBi2ypp0xI-OZNi4W_ik2KhjgpqioTAtXLC8GzkMBQRMlyxvxyTnd5b73im&c=en-US&ur=in&da=n&logo=n&fmt=png&od=1&shading=hill&pp=18.533989,73.880615;dfp"
  },
  {
    "name": "Dr. Avinash Vagha - Best Surgeon",
    "address": "Apollo Spectra Hospitals Pune, P.no.9+10a S.no.2/64, Opp Sanas Play Ground, Renata Chambers, Pune, Ma…",
    "phone": "Dr. Avinash Vagha - Best Surgeon",
    "hours": "Open· Closes 18:00",
    "image_url": "/th?id=OLC.j%2fJYdOF6TjFp%2bQ480x360&w=92&h=134&c=8&rs=1&qlt=80&cdv=1&pid=Local"
  },
  {
    "name": "Dr. Nikhil Dhande",
    "address": "Shop Number-3, At Rohan Park, Chowdhary Park, Chandramauli Garden, Pune, Maharashtra",
    "phone": "Dr. Nikhil Dhande",
    "hours": "Open· Closes 13:00",
    "image_url": "/th?id=OLC.axGudbGhLV%2bD3Q480x360&w=92&h=112&c=8&rs=1&qlt=80&cdv=1&pid=Local"
  },
  {
    "name": "Dr. Ravindra Chhajed",
    "address": "Harsh Hospital, Todkar Garden, Bibwewadi Kondhwa Rd, Above South Indian Bank, Market Yard, Gultekadi, Pun…",
    "phone": "Dr. Ravindra Chhajed",
    "hours": "Closed· Opens 12:00",
    "image_url": "/th?id=OLC.6VbZmhBPqASXlg480x360&w=92&h=134&c=8&rs=1&qlt=80&cdv=1&pid=Local"
  },
  {
    "name": "Dr. Ajit Nalawade",
    "address": "Choice Apartments, A-204, 2, 38 Sassoon Road, Opp Ruby Hall Clinic, Pune, Maharashtra 411001",
    "phone": "Dr. Ajit Nalawade",
    "hours": "Closed· Opens 12:30",
    "image_url": "/th?id=OLC.js%2bNenxHiLNmLg480x360&w=92&h=134&c=8&rs=1&qlt=80&cdv=1&pid=Local"
  },
  {
    "name": "Dr. Paresh Gandhi",
    "address": "4th Floor, Millenium Star Extension, Pune, Maharashtra",
    "phone": "Dr. Paresh Gandhi",
    "hours": "Closed· Opens 11:00",
    "image_url": null
  },
  {
    "name": "Dr. Pravin Patil",
    "address": "Opp Fergusson College Main Gate, Behind Starbucks, Bio-era Lane, Pune, Pune 411001",
    "phone": "Dr. Pravin Patil",
    "hours": "Open· Closes 13:00",
    "image_url": null
  },
  {
    "name": "Dr. Piyush Ashok Chaudhari",
    "address": "32, Sasson Road, Sangamvadi, Pune, Maharashtra",
    "phone": "Dr. Piyush Ashok Chaudhari",
    "hours": "Closed· Opens 11:00",
    "image_url": null
  },
  {
    "name": "Dr. Ajit Nalawade",
    "address": "16, Narveer Tanaji Wadi, Pune, Maharashtra",
    "phone": "Dr. Ajit Nalawade",
    "hours": "Closed· Opens tomorrow 09:00",
    "image_url": null
  },
  {
    "name": "Solo Clinic IVF & Obgyn - Dr Sunita Tandulwadkar",
    "address": "C - 50/51, Shardaram Park 37/37/1, Sasoon Road, Pune, Maharashtra 411001",
    "phone": "Solo Clinic IVF & Obgyn - Dr Sunita Tandulwadkar",
    "hours": "Open· Closes 18:00",
    "image_url": null
  },
  {
    "name": "Dr. Madhavi Nachane",
    "address": "Krishnkunj, 1st Floor, S.no. 252/2, Plot No.1, Ramban Hsg. Soc., Opp Aundh Telephone Exchange, D.P. Roa…",
    "phone": "Dr. Madhavi Nachane",
    "hours": "Open· Closes 13:00",
    "image_url": null
  },
  {
    "name": "Dr. Ramesh Maheshwari, Director Sexology Institute Pune, India",
    "address": "2014, 3, Danvantari Complex, Tilak Road, Sadashiv Peth, Pune, Maharashtra 411030",
    "phone": "Dr. Ramesh Maheshwari, Director Sexology Institute Pune, India",
    "hours": "Open· Closes 20:00",
    "image_url": null
  },
  {
    "name": "Dr Nilesh S Patil Rheumatologist Pune | Rheumatologist  | Best Rheumatologist , India",
    "address": "16, Narveer Tanaji Wadi, Pune, Maharashtra",
    "phone": "Dr Nilesh S Patil Rheumatologist Pune | Rheumatologist  | Best Rheumatologist , India",
    "hours": "Closed· Opens 12:00",
    "image_url": null
  },
  {
    "name": "Dr. Surajsinh Chauhan - Best Plastic Surgeon | Gynecomastia | Lipoma | Sebaceous Cyst",
    "address": "Bus Stop, Shakuntal Chembers, Near Sus, Pune, Maharashtra 411021",
    "phone": "Dr. Surajsinh Chauhan - Best Plastic Surgeon | Gynecomastia | Lipoma | Sebaceous Cyst",
    "hours": "Open 24 hours",
    "image_url": null
  },
  {
    "name": "Dr. Anshu Sethi - Best Neonatal Physician",
    "address": "Jehangir Hospital, 32, Sassoon Road, Near Pune Railway Station, Pune, Maharashtra 411001",
    "phone": "Dr. Anshu Sethi - Best Neonatal Physician",
    "hours": "Open· Closes 18:00",
    "image_url": "https://www.bing.com/maps/geoplat/REST/v1/Imagery/Map/RoadVibrant?ms=92,134&key=AnTcaqBi2ypp0xI-OZNi4W_ik2KhjgpqioTAtXLC8GzkMBQRMlyxvxyTnd5b73im&c=en-US&ur=in&da=n&logo=n&fmt=png&od=1&shading=hill&pp=18.530174,73.876709;dfp"
  },
  {
    "name": "Dr. Vardhaman Kankariya",
    "address": "10, 3rd Floor, Sasoon Road, Sakar, Pune, Maharashtra",
    "phone": "Dr. Vardhaman Kankariya",
    "hours": "Open· Closes 18:00",
    "image_url": null
  },
  {
    "name": "Dr. Lalit Shimpi",
    "address": "Next To Yes Bank, Bhandarkar Instt. Rd, Shivajinagar, Pune, Pune 411004",
    "phone": "Dr. Lalit Shimpi",
    "hours": "Closed· Opens tomorrow 09:00",
    "image_url": null
  }
]