[
  {
    "name": "Ayurdwar Clinic",
    "address": "Dr.Belarani Dutta's House, Railway Station Square, Government Women's College Road, Puri, Odisha 752…",
    "phone": "Ayurdwar Clinic",
    "hours": "Open· Closes 12:00",
    "image_url": "https://www.bing.com/maps/geoplat/REST/v1/Imagery/Map/RoadVibrant?ms=92,134&key=AnTcaqBi2ypp0xI-OZNi4W_ik2KhjgpqioTAtXLC8GzkMBQRMlyxvxyTnd5b73im&c=en-US&ur=in&da=n&logo=n&fmt=png&od=1&shading=hill&pp=19.805441,85.837509;dfp"
  },
  {
    "name": "Dr RN Gosh Clinic",
    "address": "Heragoharisahi Road, Jaduani Mandir, Nuapatna, Puri, Odisha 752001",
    "phone": "Dr RN Gosh Clinic",
    "hours": null,
    "image_url": "https://www.bing.com/maps/geoplat/REST/v1/Imagery/Map/RoadVibrant?ms=92,112&key=AnTcaqBi2ypp0xI-OZNi4W_ik2KhjgpqioTAtXLC8GzkMBQRMlyxvxyTnd5b73im&c=en-US&ur=in&da=n&logo=n&fmt=png&od=1&shading=hill&pp=19.808928,85.827843;dfp"
  },
  {
    "name": "Dr Abhijit Ghose Clinic",
    "address": "Marine Drive Road, Sea View Hotel, Nuapatna, Puri, Odisha 752001",
    "phone": "Dr Abhijit Ghose Clinic",
    "hours": null,
    "image_url": "https://www.bing.com/maps/geoplat/REST/v1/Imagery/Map/RoadVibrant?ms=92,112&key=AnTcaqBi2ypp0xI-OZNi4W_ik2KhjgpqioTAtXLC8GzkMBQRMlyxvxyTnd5b73im&c=en-US&ur=in&da=n&logo=n&fmt=png&od=1&shading=hill&pp=19.794025,85.82058;dfp"
  },
  {
    "name": "Dr B Mohapatra Clinic",
    "address": "Heragoharisahi Road, Samaj Offuce, Nuapatna, Puri, Odisha 752001",
    "phone": "Dr B Mohapatra Clinic",
    "hours": null,
    "image_url": "https://www.bing.com/maps/geoplat/REST/v1/Imagery/Map/RoadVibrant?ms=92,112&key=AnTcaqBi2ypp0xI-OZNi4W_ik2KhjgpqioTAtXLC8GzkMBQRMlyxvxyTnd5b73im&c=en-US&ur=in&da=n&logo=n&fmt=png&od=1&shading=hill&pp=19.80843,85.827309;dfp"
  },
  {
    "name": "Dr Pranab Prakash Purna",
    "address": "Grand Rd, Balagandi, Puri, Odisha",
    "phone": "Dr Pranab Prakash Purna",
    "hours": null,
    "image_url": "https://www.bing.com/maps/geoplat/REST/v1/Imagery/Map/RoadVibrant?ms=92,112&key=AnTcaqBi2ypp0xI-OZNi4W_ik2KhjgpqioTAtXLC8GzkMBQRMlyxvxyTnd5b73im&c=en-US&ur=in&da=n&logo=n&fmt=png&od=1&shading=hill&pp=19.804207,85.819061;dfp"
  },
  {
    "name": "Maa Tarini Clinic",
    "address": "Kali Mandir Road, Near Kali Mandir, Jharsuguda, Odisha",
    "phone": "Maa Tarini Clinic",
    "hours": null,
    "image_url": "https://www.bing.com/maps/geoplat/REST/v1/Imagery/Map/RoadVibrant?ms=92,112&key=AnTcaqBi2ypp0xI-OZNi4W_ik2KhjgpqioTAtXLC8GzkMBQRMlyxvxyTnd5b73im&c=en-US&ur=in&da=n&logo=n&fmt=png&od=1&shading=hill&pp=19.799192,85.817741;dfp"
  },
  {
    "name": "Dr SK Pradhan Clinic",
    "address": "Chakra Tirtha Road, Vijay Laxmi Niwas, Nuapatna, Puri, Odisha 752002",
    "phone": "Dr SK Pradhan Clinic",
    "hours": null,
    "image_url": "https://www.bing.com/maps/geoplat/REST/v1/Imagery/Map/RoadVibrant?ms=92,112&key=AnTcaqBi2ypp0xI-OZNi4W_ik2KhjgpqioTAtXLC8GzkMBQRMlyxvxyTnd5b73im&c=en-US&ur=in&da=n&logo=n&fmt=png&od=1&shading=hill&pp=19.812344,85.833557;dfp"
  },
  {
    "name": "Clinic Saswat",
    "address": "Bada Danda Road, Orissa Hotel, Puri Dham, Puri, Odisha 752001",
    "phone": "Clinic Saswat",
    "hours": null,
    "image_url": "https://www.bing.com/maps/geoplat/REST/v1/Imagery/Map/RoadVibrant?ms=92,112&key=AnTcaqBi2ypp0xI-OZNi4W_ik2KhjgpqioTAtXLC8GzkMBQRMlyxvxyTnd5b73im&c=en-US&ur=in&da=n&logo=n&fmt=png&od=1&shading=hill&pp=19.807396,85.821663;dfp"
  },
  {
    "name": "Dr Girishch Behera Clinic",
    "address": "Red Cross Road, City Hardware Academy, Gundicha Vihar, Puri, Odisha 752001",
    "phone": "Dr Girishch Behera Clinic",
    "hours": null,
    "image_url": "https://www.bing.com/maps/geoplat/REST/v1/Imagery/Map/RoadVibrant?ms=92,112&key=AnTcaqBi2ypp0xI-OZNi4W_ik2KhjgpqioTAtXLC8GzkMBQRMlyxvxyTnd5b73im&c=en-US&ur=in&da=n&logo=n&fmt=png&od=1&shading=hill&pp=19.811888,85.834854;dfp"
  },
  {
    "name": "Dr Satya Priya Mishra Clinic",
    "address": "Chakra Tirtha Road, Power House 5, Gundicha Vihar, Puri, Odisha 752002",
    "phone": "Dr Satya Priya Mishra Clinic",
    "hours": null,
    "image_url": "https://www.bing.com/maps/geoplat/REST/v1/Imagery/Map/RoadVibrant?ms=92,112&key=AnTcaqBi2ypp0xI-OZNi4W_ik2KhjgpqioTAtXLC8GzkMBQRMlyxvxyTnd5b73im&c=en-US&ur=in&da=n&logo=n&fmt=png&od=1&shading=hill&pp=19.812227,85.842049;dfp"
  },
  {
    "name": "Dr Sahoo Clinic",
    "address": "Chakra Tirtha Road, Narayan Bhawan, Gundicha Vihar, Puri, Odisha 752002",
    "phone": "Dr Sahoo Clinic",
    "hours": null,
    "image_url": "https://www.bing.com/maps/geoplat/REST/v1/Imagery/Map/RoadVibrant?ms=92,112&key=AnTcaqBi2ypp0xI-OZNi4W_ik2KhjgpqioTAtXLC8GzkMBQRMlyxvxyTnd5b73im&c=en-US&ur=in&da=n&logo=n&fmt=png&od=1&shading=hill&pp=19.818602,85.843361;dfp"
  },
  {
    "name": "Maa Sadhana Clinic",
    "address": "Red Cross Road, Puri, Odisha 752002",
    "phone": "Maa Sadhana Clinic",
    "hours": null,
    "image_url": "https://www.bing.com/maps/geoplat/REST/v1/Imagery/Map/RoadVibrant?ms=92,112&key=AnTcaqBi2ypp0xI-OZNi4W_ik2KhjgpqioTAtXLC8GzkMBQRMlyxvxyTnd5b73im&c=en-US&ur=in&da=n&logo=n&fmt=png&od=1&shading=hill&pp=19.813889,85.833992;dfp"
  },
  {
    "name": "Dr L Mahapatra Clinic",
    "address": "Bada Danda Road, Bharati Lodge, Puri Dham, Puri, Odisha 752001",
    "phone": "Dr L Mahapatra Clinic",
    "hours": null,
    "image_url": "https://www.bing.com/maps/geoplat/REST/v1/Imagery/Map/RoadVibrant?ms=92,112&key=AnTcaqBi2ypp0xI-OZNi4W_ik2KhjgpqioTAtXLC8GzkMBQRMlyxvxyTnd5b73im&c=en-US&ur=in&da=n&logo=n&fmt=png&od=1&shading=hill&pp=19.806911,85.821175;dfp"
  },
  {
    "name": "Rasayani Ayurvedic Clinic (dr. Narayan Panda)",
    "address": "Nearby Mangala Temple, Sarbodaya Nagar, Puri, Odisha",
    "phone": "Rasayani Ayurvedic Clinic (dr. Narayan Panda)",
    "hours": null,
    "image_url": null
  },
  {
    "name": "Dr RK Shukla Clinic",
    "address": "Temple Rd, Puri, Odisha",
    "phone": "Dr RK Shukla Clinic",
    "hours": null,
    "image_url": "https://www.bing.com/maps/geoplat/REST/v1/Imagery/Map/RoadVibrant?ms=92,112&key=AnTcaqBi2ypp0xI-OZNi4W_ik2KhjgpqioTAtXLC8GzkMBQRMlyxvxyTnd5b73im&c=en-US&ur=in&da=n&logo=n&fmt=png&od=1&shading=hill&pp=19.807743,85.822662;dfp"
  },
  {
    "name": "Dr. Amlan Jyoti Mohanty (pt)",
    "address": "Grand Road, Orissa",
    "phone": "Dr. Amlan Jyoti Mohanty (pt)",
    "hours": "Open· Closes 20:00",
    "image_url": "https://www.bing.com/maps/geoplat/REST/v1/Imagery/Map/RoadVibrant?ms=92,112&key=AnTcaqBi2ypp0xI-OZNi4W_ik2KhjgpqioTAtXLC8GzkMBQRMlyxvxyTnd5b73im&c=en-US&ur=in&da=n&logo=n&fmt=png&od=1&shading=hill&pp=19.813625,85.833252;dfp"
  },
  {
    "name": "Ayurvedic Clinic for Tonsillitis cure (Usha Ayurvedic Clinic)",
    "address": "Tiadi Bagicha Ln 1, Near Bali School, Baseli Sahi, Puri, Odisha",
    "phone": "Ayurvedic Clinic for Tonsillitis cure (Usha Ayurvedic Clinic)",
    "hours": null,
    "image_url": "https://www.bing.com/maps/geoplat/REST/v1/Imagery/Map/RoadVibrant?ms=92,112&key=AnTcaqBi2ypp0xI-OZNi4W_ik2KhjgpqioTAtXLC8GzkMBQRMlyxvxyTnd5b73im&c=en-US&ur=in&da=n&logo=n&fmt=png&od=1&shading=hill&pp=19.808109,85.833382;dfp"
  },
  {
    "name": "Dr. Aditya Das",
    "address": "Gopinathpur Nuasahi Road, Orissa",
    "phone": "Dr. Aditya Das",
    "hours": "Closed· Opens tomorrow 09:00",
    "image_url": "https://www.bing.com/maps/geoplat/REST/v1/Imagery/Map/RoadVibrant?ms=92,112&key=AnTcaqBi2ypp0xI-OZNi4W_ik2KhjgpqioTAtXLC8GzkMBQRMlyxvxyTnd5b73im&c=en-US&ur=in&da=n&logo=n&fmt=png&od=1&shading=hill&pp=19.823341,85.828407;dfp"
  }
]