[
  {
    "name": "Dr. Chinmoy Lath",
    "address": "Health Care, Sadar Para, Near Durga Mandir, Purulia, West Bengal, West Bengal 723101",
    "phone": "Dr. Chinmoy Lath",
    "hours": "Closed· Opens 11:00",
    "image_url": "/th?id=OLC.BO43nJBG1TgWlA480x360&w=92&h=134&c=8&rs=1&qlt=80&cdv=1&pid=Local"
  },
  {
    "name": "Dr Subhendu Dey's CLINIC",
    "address": "Smritikona Apartment, North Lake Road, Purulia, West Bengal 723101",
    "phone": "Dr Subhendu Dey's CLINIC",
    "hours": null,
    "image_url": "/th?id=OLC.%2fgjphOtcZpfbiQ480x360&w=92&h=112&c=8&rs=1&qlt=80&cdv=1&pid=Local"
  },
  {
    "name": "Dr D Patra Clinic",
    "address": "Sashadhar Ganguly Road, Purulia, Puruliya, West Bengal 723101",
    "phone": "Dr D Patra Clinic",
    "hours": null,
    "image_url": "https://www.bing.com/maps/geoplat/REST/v1/Imagery/Map/RoadVibrant?ms=92,112&key=AnTcaqBi2ypp0xI-OZNi4W_ik2KhjgpqioTAtXLC8GzkMBQRMlyxvxyTnd5b73im&c=en-US&ur=in&da=n&logo=n&fmt=png&od=1&shading=hill&pp=23.324593,86.373451;dfp"
  },
  {
    "name": "Dr Anwar Jamal",
    "address": "J K College Road, Purulia, Puruliya, West Bengal 723101",
    "phone": "Dr Anwar Jamal",
    "hours": null,
    "image_url": "https://www.bing.com/maps/geoplat/REST/v1/Imagery/Map/RoadVibrant?ms=92,112&key=AnTcaqBi2ypp0xI-OZNi4W_ik2KhjgpqioTAtXLC8GzkMBQRMlyxvxyTnd5b73im&c=en-US&ur=in&da=n&logo=n&fmt=png&od=1&shading=hill&pp=23.322132,86.367805;dfp"
  },
  {
    "name": "Dr Sumanta Das",
    "address": "Supritha Medical, Munsifdanga, Katin Para, Purulia, West Bengal",
    "phone": "Dr Sumanta Das",
    "hours": null,
    "image_url": "https://www.bing.com/maps/geoplat/REST/v1/Imagery/Map/RoadVibrant?ms=92,112&key=AnTcaqBi2ypp0xI-OZNi4W_ik2KhjgpqioTAtXLC8GzkMBQRMlyxvxyTnd5b73im&c=en-US&ur=in&da=n&logo=n&fmt=png&od=1&shading=hill&pp=23.334578,86.363937;dfp"
  },
  {
    "name": "Dr Ananda Khedia, MBBS",
    "address": "Natha Babu Lane, Puruliya, West Bengal 723101",
    "phone": "Dr Ananda Khedia, MBBS",
    "hours": null,
    "image_url": "https://www.bing.com/maps/geoplat/REST/v1/Imagery/Map/RoadVibrant?ms=92,112&key=AnTcaqBi2ypp0xI-OZNi4W_ik2KhjgpqioTAtXLC8GzkMBQRMlyxvxyTnd5b73im&c=en-US&ur=in&da=n&logo=n&fmt=png&od=1&shading=hill&pp=23.331903,86.367004;dfp"
  },
  {
    "name": "Dr Tapan Chakraborty",
    "address": "Raghunathpur To Chelyama Road, Moutorh M.S. High School, Moutorh Block, Puruliya, West Bengal 723145",
    "phone": "Dr Tapan Chakraborty",
    "hours": null,
    "image_url": "https://www.bing.com/maps/geoplat/REST/v1/Imagery/Map/RoadVibrant?ms=92,112&key=AnTcaqBi2ypp0xI-OZNi4W_ik2KhjgpqioTAtXLC8GzkMBQRMlyxvxyTnd5b73im&c=en-US&ur=in&da=n&logo=n&fmt=png&od=1&shading=hill&pp=23.333578,86.367577;dfp"
  },
  {
    "name": "Dr Balaram Prasad",
    "address": "Amla Para, Purulia, Puruliya, West Bengal 723101",
    "phone": "Dr Balaram Prasad",
    "hours": null,
    "image_url": "https://www.bing.com/maps/geoplat/REST/v1/Imagery/Map/RoadVibrant?ms=92,112&key=AnTcaqBi2ypp0xI-OZNi4W_ik2KhjgpqioTAtXLC8GzkMBQRMlyxvxyTnd5b73im&c=en-US&ur=in&da=n&logo=n&fmt=png&od=1&shading=hill&pp=23.331684,86.369446;dfp"
  },
  {
    "name": "Dr. Noni Gopal Singha- Dermatologists",
    "address": "Pranabananda Sebalay, B T Sarkar Road, Dulmi Nadiha, Purulia, West Bengal 723102",
    "phone": "Dr. Noni Gopal Singha- Dermatologists",
    "hours": "Closed· Opens 13:00",
    "image_url": "https://www.bing.com/maps/geoplat/REST/v1/Imagery/Map/RoadVibrant?ms=92,134&key=AnTcaqBi2ypp0xI-OZNi4W_ik2KhjgpqioTAtXLC8GzkMBQRMlyxvxyTnd5b73im&c=en-US&ur=in&da=n&logo=n&fmt=png&od=1&shading=hill&pp=23.324446,86.358032;dfp"
  },
  {
    "name": "Dr Ak Gupta",
    "address": "Upen Babu Lane, Marwari Panchayet Temple, Munsiff Danga Area Purulia, Puruliya, West Bengal 723101",
    "phone": "Dr Ak Gupta",
    "hours": null,
    "image_url": "https://www.bing.com/maps/geoplat/REST/v1/Imagery/Map/RoadVibrant?ms=92,112&key=AnTcaqBi2ypp0xI-OZNi4W_ik2KhjgpqioTAtXLC8GzkMBQRMlyxvxyTnd5b73im&c=en-US&ur=in&da=n&logo=n&fmt=png&od=1&shading=hill&pp=23.335234,86.364975;dfp"
  },
  {
    "name": "Dr K.Singha",
    "address": "Napit Para, Puruliya, West Bengal 723101",
    "phone": "Dr K.Singha",
    "hours": null,
    "image_url": "https://www.bing.com/maps/geoplat/REST/v1/Imagery/Map/RoadVibrant?ms=92,112&key=AnTcaqBi2ypp0xI-OZNi4W_ik2KhjgpqioTAtXLC8GzkMBQRMlyxvxyTnd5b73im&c=en-US&ur=in&da=n&logo=n&fmt=png&od=1&shading=hill&pp=23.33144,86.374557;dfp"
  },
  {
    "name": "Dr Aneekjeet Pal Clinic",
    "address": "Balarampur Purulia Road, Hdfc Bank Atm, Chowk Bazar, Balarampur, West Bengal 723143",
    "phone": "Dr Aneekjeet Pal Clinic",
    "hours": null,
    "image_url": "https://www.bing.com/maps/geoplat/REST/v1/Imagery/Map/RoadVibrant?ms=92,112&key=AnTcaqBi2ypp0xI-OZNi4W_ik2KhjgpqioTAtXLC8GzkMBQRMlyxvxyTnd5b73im&c=en-US&ur=in&da=n&logo=n&fmt=png&od=1&shading=hill&pp=23.095978,86.22168;dfp"
  },
  {
    "name": "Dr Amalesh Mandal",
    "address": "Sc Sen Road, Msa Stadium Purulia, Hattola More Purulia, Puruliya, West Bengal 723101",
    "phone": "Dr Amalesh Mandal",
    "hours": null,
    "image_url": "https://www.bing.com/maps/geoplat/REST/v1/Imagery/Map/RoadVibrant?ms=92,112&key=AnTcaqBi2ypp0xI-OZNi4W_ik2KhjgpqioTAtXLC8GzkMBQRMlyxvxyTnd5b73im&c=en-US&ur=in&da=n&logo=n&fmt=png&od=1&shading=hill&pp=23.328266,86.364464;dfp"
  },
  {
    "name": "Dr S Mahato",
    "address": "Santamoyee Girls High School Road, Radha Krishna More Purulia, Puruliya, West Bengal 723101",
    "phone": "Dr S Mahato",
    "hours": null,
    "image_url": "https://www.bing.com/maps/geoplat/REST/v1/Imagery/Map/RoadVibrant?ms=92,112&key=AnTcaqBi2ypp0xI-OZNi4W_ik2KhjgpqioTAtXLC8GzkMBQRMlyxvxyTnd5b73im&c=en-US&ur=in&da=n&logo=n&fmt=png&od=1&shading=hill&pp=23.328617,86.360977;dfp"
  },
  {
    "name": "Biswas Ent Clinic Purulia",
    "address": "Nandalal Ghosh Street. Near Jeevan Deep Medical And Taxi Stand, Purulia, West Bengal, West Bengal 723101",
    "phone": "Biswas Ent Clinic Purulia",
    "hours": null,
    "image_url": null
  },
  {
    "name": "Nath Niwas Clinic",
    "address": "Nath Niwas, Main Road, Near Chuna Godam, Saraidhella, Jharkhand",
    "phone": "Nath Niwas Clinic",
    "hours": null,
    "image_url": "https://www.bing.com/maps/geoplat/REST/v1/Imagery/Map/RoadVibrant?ms=92,112&key=AnTcaqBi2ypp0xI-OZNi4W_ik2KhjgpqioTAtXLC8GzkMBQRMlyxvxyTnd5b73im&c=en-US&ur=in&da=n&logo=n&fmt=png&od=1&shading=hill&pp=23.328592,86.377335;dfp"
  },
  {
    "name": "Ent Clinic",
    "address": "Nandalal Ghosh Street. Near Jeevan Deep Medical and Taxi Stand, Purulia, West Bengal, West Bengal 723101",
    "phone": "Ent Clinic",
    "hours": null,
    "image_url": "https://www.bing.com/maps/geoplat/REST/v1/Imagery/Map/RoadVibrant?ms=92,112&key=AnTcaqBi2ypp0xI-OZNi4W_ik2KhjgpqioTAtXLC8GzkMBQRMlyxvxyTnd5b73im&c=en-US&ur=in&da=n&logo=n&fmt=png&od=1&shading=hill&pp=23.331816,86.360329;dfp"
  },
  {
    "name": "Suraksha Pathology",
    "address": "1, Near Chakaltore, B.P.H.C, Chakaltore, Purulia -1, Manbazar Road, Purulia, West Bengal 723102",
    "phone": "Suraksha Pathology",
    "hours": null,
    "image_url": "https://www.bing.com/maps/geoplat/REST/v1/Imagery/Map/RoadVibrant?ms=92,112&key=AnTcaqBi2ypp0xI-OZNi4W_ik2KhjgpqioTAtXLC8GzkMBQRMlyxvxyTnd5b73im&c=en-US&ur=in&da=n&logo=n&fmt=png&od=1&shading=hill&pp=23.32987,86.368301;dfp"
  }
]