[
  {
    "name": "Dr Ajay Gupta",
    "address": "Gandhi Chowk, Raigarh, Chhattisgarh 496001",
    "phone": "Dr Ajay Gupta",
    "hours": "Closed· Opens 11:00",
    "image_url": "/th?id=OLC.0tRZFSDWMkTR4A480x360&w=92&h=134&c=8&rs=1&qlt=80&cdv=1&pid=Local"
  },
  {
    "name": "Aura Clinic Raigarh",
    "address": "Aura Akin Clinic Darogapara, Raigarh, Chhattisgarh, Chhattisgarh 496001",
    "phone": "Aura Clinic Raigarh",
    "hours": "Open· Closes 13:00",
    "image_url": "/th?id=OLC.AVwW2tpQeuMy%2bA480x360&w=92&h=134&c=8&rs=1&qlt=80&cdv=1&pid=Local"
  },
  {
    "name": "Dr. Pravin Kumar- Orthopedics in Raigarh",
    "address": "Kirat Polyclinic. Opposite to Gujral Medical Store, Ramnivas Talkies Chowk, Main Hospital Road, Raigarh…",
    "phone": "Dr. Pravin Kumar- Orthopedics in Raigarh",
    "hours": "Closed· Opens 14:30",
    "image_url": "https://www.bing.com/maps/geoplat/REST/v1/Imagery/Map/RoadVibrant?ms=92,134&key=AnTcaqBi2ypp0xI-OZNi4W_ik2KhjgpqioTAtXLC8GzkMBQRMlyxvxyTnd5b73im&c=en-US&ur=in&da=n&logo=n&fmt=png&od=1&shading=hill&pp=21.891607,83.395485;dfp"
  },
  {
    "name": "Dr Raghuvar Patwa Clinic",
    "address": "Darogapara Road, Manorama Child Care, Agrasen Colony, Raigarh, Chhattisgarh 496001",
    "phone": "Dr Raghuvar Patwa Clinic",
    "hours": null,
    "image_url": "https://www.bing.com/maps/geoplat/REST/v1/Imagery/Map/RoadVibrant?ms=92,112&key=AnTcaqBi2ypp0xI-OZNi4W_ik2KhjgpqioTAtXLC8GzkMBQRMlyxvxyTnd5b73im&c=en-US&ur=in&da=n&logo=n&fmt=png&od=1&shading=hill&pp=21.89707,83.388626;dfp"
  },
  {
    "name": "Dr Ganesh Patel Allergist & Chest Physician Raigarh",
    "address": "Dr Ganesh Patel, Opposite Aghariya Sadan, Raigarh, Chhattisgarh, Chhattisgarh 496001",
    "phone": "Dr Ganesh Patel Allergist & Chest Physician Raigarh",
    "hours": null,
    "image_url": "https://www.bing.com/maps/geoplat/REST/v1/Imagery/Map/RoadVibrant?ms=92,112&key=AnTcaqBi2ypp0xI-OZNi4W_ik2KhjgpqioTAtXLC8GzkMBQRMlyxvxyTnd5b73im&c=en-US&ur=in&da=n&logo=n&fmt=png&od=1&shading=hill&pp=21.893208,83.405708;dfp"
  },
  {
    "name": "Kanha Hospital",
    "address": "Singh Complex, NA, Ward NO 32 Shop NO 7, OLD Sarangarh BUS Stand, Jute Mill Road, Raigarh, Chhatti…",
    "phone": "Kanha Hospital",
    "hours": null,
    "image_url": "/th?id=OLC.%2bqbGu%2bGVJrdKzQ480x360&w=92&h=112&c=8&rs=1&qlt=80&cdv=1&pid=Local"
  },
  {
    "name": "Dr Batras Homeopathy Clinic, Jharsuguda",
    "address": "Narayani Kunj, Sarbahal Rd, Beside Westside, Jharsuguda, Odisha 768201, Odisha",
    "phone": "Dr Batras Homeopathy Clinic, Jharsuguda",
    "hours": null,
    "image_url": "https://www.bing.com/maps/geoplat/REST/v1/Imagery/Map/RoadVibrant?ms=92,112&key=AnTcaqBi2ypp0xI-OZNi4W_ik2KhjgpqioTAtXLC8GzkMBQRMlyxvxyTnd5b73im&c=en-US&ur=in&da=n&logo=n&fmt=png&od=1&shading=hill&pp=21.895786,83.394516;dfp"
  },
  {
    "name": "Aarogya Sanjeevani",
    "address": "MIG-22, Near Degree College, Lochan Nagar, Chakradhar Nagar, Raigarh, Chhattisgarh",
    "phone": "Aarogya Sanjeevani",
    "hours": null,
    "image_url": null
  },
  {
    "name": "Niruj Multispeciality Clinic",
    "address": "Opposite Aghariya Sadan Kotra Road, Raigarh, Chhattisgarh, Chhattisgarh 496001",
    "phone": "Niruj Multispeciality Clinic",
    "hours": "Open· Closes 17:00",
    "image_url": null
  },
  {
    "name": "Sparsh Clinic- Touching lives with caring hands",
    "address": "Sparsh Clinic, Kabir Chowk, Raigarh, Chhattisgarh 496001",
    "phone": "Sparsh Clinic- Touching lives with caring hands",
    "hours": null,
    "image_url": null
  },
  {
    "name": "Dr. Anant Singh",
    "address": "Natwar Scholl, Raigarh, Chhattisgarh",
    "phone": "Dr. Anant Singh",
    "hours": "Open· Closes 13:00",
    "image_url": "https://www.bing.com/maps/geoplat/REST/v1/Imagery/Map/RoadVibrant?ms=92,112&key=AnTcaqBi2ypp0xI-OZNi4W_ik2KhjgpqioTAtXLC8GzkMBQRMlyxvxyTnd5b73im&c=en-US&ur=in&da=n&logo=n&fmt=png&od=1&shading=hill&pp=21.89451,83.390419;dfp"
  },
  {
    "name": "Dr.PANKAJ BEST PHYSIOTHERAPIST CITY CLINIC",
    "address": "Mahatma Gandhi Eye Hospital, Beside Dr Rupendra Patel Hospital, Buji Bhawan Chowk, Raigarh, Chhattisg…",
    "phone": "Dr.PANKAJ BEST PHYSIOTHERAPIST CITY CLINIC",
    "hours": "Open 24 hours",
    "image_url": null
  },
  {
    "name": "Shri Siddhi Vinayak Skin Care And Maternity Clinic Raigarh Cg",
    "address": "Near Dasrath Paan Bhandaar Kotra Road Raigarh, Raigarh, Chhattisgarh 496001",
    "phone": "Shri Siddhi Vinayak Skin Care And Maternity Clinic Raigarh Cg",
    "hours": "Closed· Opens 16:00",
    "image_url": "https://www.bing.com/maps/geoplat/REST/v1/Imagery/Map/RoadVibrant?ms=92,134&key=AnTcaqBi2ypp0xI-OZNi4W_ik2KhjgpqioTAtXLC8GzkMBQRMlyxvxyTnd5b73im&c=en-US&ur=in&da=n&logo=n&fmt=png&od=1&shading=hill&pp=21.897394,83.388649;dfp"
  },
  {
    "name": "Dr. Manohar Lal Patel",
    "address": "Civil Line, Raigarh, Chhattisgarh",
    "phone": "Dr. Manohar Lal Patel",
    "hours": "Open· Closes 13:30",
    "image_url": null
  },
  {
    "name": "Dr R L Hospital & Infertility Center",
    "address": "Goushala Road, Darogapara, Chhattisgarh, Raigarh",
    "phone": "Dr R L Hospital & Infertility Center",
    "hours": null,
    "image_url": null
  },
  {
    "name": "Dr. Naval Patel",
    "address": "Jute Mill Road, Old Sarangarh Bus Stand, Raigarh, Chhattisgarh",
    "phone": "Dr. Naval Patel",
    "hours": "Open· Closes 20:00",
    "image_url": null
  },
  {
    "name": "Dr. Dilip Kumar Sa",
    "address": "Gauri Shankar Mandir Road, Gopi Talkies, Nayaganj, Raigarh, Chhattisgarh 496001",
    "phone": "Dr. Dilip Kumar Sa",
    "hours": "Closed· Opens 13:30",
    "image_url": null
  }
]