[
  {
    "name": "Dr. Vaibhav Raj Singh - MBBS, MS - General Surgery, FMAS",
    "address": "Chamber No. 2, Opp. Mandigate Street Number 1 Pandri Road Main Rd, Raipur, Chhattisgarh 492001",
    "phone": "Dr. Vaibhav Raj Singh - MBBS, MS - General Surgery, FMAS",
    "hours": "Open 24 hours",
    "image_url": "https://www.bing.com/maps/geoplat/REST/v1/Imagery/Map/RoadVibrant?ms=92,134&key=AnTcaqBi2ypp0xI-OZNi4W_ik2KhjgpqioTAtXLC8GzkMBQRMlyxvxyTnd5b73im&c=en-US&ur=in&da=n&logo=n&fmt=png&od=1&shading=hill&pp=21.257711,81.655113;dfp"
  },
  {
    "name": "Dr Sandeep Jain Clinic",
    "address": "Gandhi Chowk, Raipur, Chhattisgarh, Raipur, Raipur 492001",
    "phone": "Dr Sandeep Jain Clinic",
    "hours": "Open· Closes 14:00",
    "image_url": "/th?id=OLC.UAOXvNaUzgUcIw480x360&w=92&h=134&c=8&rs=1&qlt=80&cdv=1&pid=Local"
  },
  {
    "name": "Dr. Balram",
    "address": "1st Floor, Amrit Sandesh Complex, GE Road, Raipur, Chhattisgarh",
    "phone": "Dr. Balram",
    "hours": "Closed· Opens 11:00",
    "image_url": "https://www.bing.com/maps/geoplat/REST/v1/Imagery/Map/RoadVibrant?ms=92,112&key=AnTcaqBi2ypp0xI-OZNi4W_ik2KhjgpqioTAtXLC8GzkMBQRMlyxvxyTnd5b73im&c=en-US&ur=in&da=n&logo=n&fmt=png&od=1&shading=hill&pp=21.232414,81.648064;dfp"
  },
  {
    "name": "Dr. Ritesh Sahu",
    "address": "216, Lalganga Business Park, New Dhamtari Road, Pachpedi Naka, Raipur 492001",
    "phone": "Dr. Ritesh Sahu",
    "hours": "Closed· Opens 18:30",
    "image_url": "/th?id=OLC.QI9VViRM1T59nQ480x360&w=92&h=134&c=8&rs=1&qlt=80&cdv=1&pid=Local"
  },
  {
    "name": "Shishu care clinic",
    "address": "Shop no 2, Apartments, Kool Homes, Daldal Seoni Main Rd, Dubey Colony, Mowa, Raipur, Chhattisgarh",
    "phone": "Shishu care clinic",
    "hours": "Closed· Opens 18:00",
    "image_url": "https://www.bing.com/maps/geoplat/REST/v1/Imagery/Map/RoadVibrant?ms=92,134&key=AnTcaqBi2ypp0xI-OZNi4W_ik2KhjgpqioTAtXLC8GzkMBQRMlyxvxyTnd5b73im&c=en-US&ur=in&da=n&logo=n&fmt=png&od=1&shading=hill&pp=21.269642,81.663078;dfp"
  },
  {
    "name": "Dr. Ambar Garg",
    "address": "Sanjeevani Cbcc usa Cancer Hopital, Dawda Colony Pachpedi Naka Raipur, Raipur, Chhattisgarh",
    "phone": "Dr. Ambar Garg",
    "hours": "Open· Closes 14:00",
    "image_url": "https://www.bing.com/maps/geoplat/REST/v1/Imagery/Map/RoadVibrant?ms=92,112&key=AnTcaqBi2ypp0xI-OZNi4W_ik2KhjgpqioTAtXLC8GzkMBQRMlyxvxyTnd5b73im&c=en-US&ur=in&da=n&logo=n&fmt=png&od=1&shading=hill&pp=21.213766,81.650764;dfp"
  },
  {
    "name": "Dr. Siddharth Turkar",
    "address": "Radiant Superspeciality and Cancer Hospital, Near old Toll Plaza, Ring Road No. 1, Khushalpur Raipur, Raipur…",
    "phone": "Dr. Siddharth Turkar",
    "hours": "Open· Closes 21:00",
    "image_url": null
  },
  {
    "name": "Dr. Sanjay Agrawal",
    "address": "Jail Road, Kuchare Chowk, Landmark- Below Raipur Hospital, Raipur, Raipur 492001",
    "phone": "Dr. Sanjay Agrawal",
    "hours": "Open· Closes 13:00",
    "image_url": null
  },
  {
    "name": "Dr. Minoo Tripathi",
    "address": "Street Number 3, New Shanti Nagar, Raipur, Chhattisgarh",
    "phone": "Dr. Minoo Tripathi",
    "hours": "Open· Closes 15:00",
    "image_url": null
  },
  {
    "name": "Dr. Amit Agrawal",
    "address": "Devkripa Hospital, Kachna Road, Shankar Nagar, Near BTI Ground, Raipur, Chhattisgarh 492004",
    "phone": "Dr. Amit Agrawal",
    "hours": "Closed· Opens 11:30",
    "image_url": null
  },
  {
    "name": "Dr. Rajesh Jain",
    "address": "Gali Number 6, Shree Narayan Gurumandir, Geetanjali Colony Raipur, Raipur, Chhattisgarh 492001",
    "phone": "Dr. Rajesh Jain",
    "hours": "Open· Closes 18:00",
    "image_url": null
  },
  {
    "name": "Dr Jayesh Sharma",
    "address": "Sector 36, Naya Raipur, Raipur, Chhattisgarh 493661",
    "phone": "Dr Jayesh Sharma",
    "hours": "Open 24 hours",
    "image_url": null
  },
  {
    "name": "Dr. Vikas Agrawal Clinic",
    "address": "Shukrawari Bazar Rd, Sukrawari Bazar, Gudhiyari, Chhattisgarh",
    "phone": "Dr. Vikas Agrawal Clinic",
    "hours": null,
    "image_url": "https://www.bing.com/maps/geoplat/REST/v1/Imagery/Map/RoadVibrant?ms=92,112&key=AnTcaqBi2ypp0xI-OZNi4W_ik2KhjgpqioTAtXLC8GzkMBQRMlyxvxyTnd5b73im&c=en-US&ur=in&da=n&logo=n&fmt=png&od=1&shading=hill&pp=21.259628,81.627823;dfp"
  },
  {
    "name": "Dr Bharat Singhania",
    "address": "Makeover, Ravi Nagar, Anand Nagar - Pandri Link Rd, Near Rani Sati Mandir, Raja Talab, Raipur, Chhattisgar…",
    "phone": "Dr Bharat Singhania",
    "hours": "Open· Closes 20:00",
    "image_url": null
  },
  {
    "name": "Dr. Alok Agrawal",
    "address": "Main Road Dubey Colony Mova, Raipur, Chhattisgarh",
    "phone": "Dr. Alok Agrawal",
    "hours": "Opens in 5 mins",
    "image_url": null
  },
  {
    "name": "Dr. Bharti Tiwari",
    "address": "Bharti Tiwari Clinic, Near Chhattisgarh College, Civil Line, Raipur, Chhattisgarh 492001",
    "phone": "Dr. Bharti Tiwari",
    "hours": "Closed· Opens 16:00",
    "image_url": "https://www.bing.com/maps/geoplat/REST/v1/Imagery/Map/RoadVibrant?ms=92,112&key=AnTcaqBi2ypp0xI-OZNi4W_ik2KhjgpqioTAtXLC8GzkMBQRMlyxvxyTnd5b73im&c=en-US&ur=in&da=n&logo=n&fmt=png&od=1&shading=hill&pp=21.236286,81.647598;dfp"
  },
  {
    "name": "Dr. Lalit Nihal",
    "address": "Main Road, New Shanti Nagar, Raipur, Chhattisgarh",
    "phone": "Dr. Lalit Nihal",
    "hours": "Closes in 5 mins",
    "image_url": "https://www.bing.com/maps/geoplat/REST/v1/Imagery/Map/RoadVibrant?ms=92,112&key=AnTcaqBi2ypp0xI-OZNi4W_ik2KhjgpqioTAtXLC8GzkMBQRMlyxvxyTnd5b73im&c=en-US&ur=in&da=n&logo=n&fmt=png&od=1&shading=hill&pp=21.24951,81.657417;dfp"
  },
  {
    "name": "DR. Abhishek Sachdev",
    "address": "Sachdev Nursing Home, B-5, Opp. Natural Icecream, Samta Colony, Main Road, Raipur 492001",
    "phone": "DR. Abhishek Sachdev",
    "hours": "Closed· Opens 12:00",
    "image_url": null
  }
]