[
  {
    "name": "Dr. Yashpal Singh | Yash Clinic",
    "address": "District Hospital Road, Rajgarh, Madhya Pradesh, India, 465661, Rajgarh, Madhya Pradesh 465661",
    "phone": "Dr. Yashpal Singh | Yash Clinic",
    "hours": "Closed· Opens 14:00",
    "image_url": "/th?id=OLC.3HvMl%2bGACdHaiA480x360&w=92&h=134&c=8&rs=1&qlt=80&cdv=1&pid=Local"
  },
  {
    "name": "Khandelwal healthcare Rajgarh Alwar",
    "address": "Khandelwal Medical Store opp Govt.Hospital Rajgarh, Rajgarh, Rajasthan 301408",
    "phone": "Khandelwal healthcare Rajgarh Alwar",
    "hours": null,
    "image_url": "/th?id=OLC.DJXnU3%2fYNnzbTg480x360&w=92&h=112&c=8&rs=1&qlt=80&cdv=1&pid=Local"
  },
  {
    "name": "Dr. Shivani Halder Malakar (pt)",
    "address": "Bhojpur Naka, NH-12, Rajgarh, Madhya Pradesh",
    "phone": "Dr. Shivani Halder Malakar (pt)",
    "hours": "Open· Closes 13:00",
    "image_url": "/th?id=OLC.%2bbidkiKguslhQA480x360&w=92&h=112&c=8&rs=1&qlt=80&cdv=1&pid=Local"
  },
  {
    "name": "Shree Krishna Clinic",
    "address": "18, Khilchipur, Chhapiheda Road, Rajgarh, Madhya Pradesh 465679",
    "phone": "Shree Krishna Clinic",
    "hours": null,
    "image_url": "https://www.bing.com/maps/geoplat/REST/v1/Imagery/Map/RoadVibrant?ms=92,112&key=AnTcaqBi2ypp0xI-OZNi4W_ik2KhjgpqioTAtXLC8GzkMBQRMlyxvxyTnd5b73im&c=en-US&ur=in&da=n&logo=n&fmt=png&od=1&shading=hill&pp=24.028801,76.578598;dfp"
  },
  {
    "name": "Ramesh Clinic",
    "address": "House, Nataram, Khilchipur, Main Road, Rajgarh, Madhya Pradesh 465689",
    "phone": "Ramesh Clinic",
    "hours": null,
    "image_url": "https://www.bing.com/maps/geoplat/REST/v1/Imagery/Map/RoadVibrant?ms=92,112&key=AnTcaqBi2ypp0xI-OZNi4W_ik2KhjgpqioTAtXLC8GzkMBQRMlyxvxyTnd5b73im&c=en-US&ur=in&da=n&logo=n&fmt=png&od=1&shading=hill&pp=23.894781,76.447548;dfp"
  },
  {
    "name": "Ashirwad Clinic",
    "address": "49, Dr Surendra Meena, Beriyakhedi, Road, Biaora, Rajgarh, Madhya Pradesh 465669",
    "phone": "Ashirwad Clinic",
    "hours": null,
    "image_url": "https://www.bing.com/maps/geoplat/REST/v1/Imagery/Map/RoadVibrant?ms=92,112&key=AnTcaqBi2ypp0xI-OZNi4W_ik2KhjgpqioTAtXLC8GzkMBQRMlyxvxyTnd5b73im&c=en-US&ur=in&da=n&logo=n&fmt=png&od=1&shading=hill&pp=23.918344,76.910599;dfp"
  },
  {
    "name": "Bangali Clinic",
    "address": "264 Post Bhesva Mata JI Bhesva Mata JI Sarangpur, Rajgarh, Madhya Pradesh 465697",
    "phone": "Bangali Clinic",
    "hours": null,
    "image_url": "https://www.bing.com/maps/geoplat/REST/v1/Imagery/Map/RoadVibrant?ms=92,112&key=AnTcaqBi2ypp0xI-OZNi4W_ik2KhjgpqioTAtXLC8GzkMBQRMlyxvxyTnd5b73im&c=en-US&ur=in&da=n&logo=n&fmt=png&od=1&shading=hill&pp=23.573706,76.481064;dfp"
  },
  {
    "name": "Dangi Clinic Khilchipur",
    "address": "House, Pipliya Kala, Khilchipur, Rajgarh, Madhya Pradesh 465689",
    "phone": "Dangi Clinic Khilchipur",
    "hours": null,
    "image_url": "https://www.bing.com/maps/geoplat/REST/v1/Imagery/Map/RoadVibrant?ms=92,112&key=AnTcaqBi2ypp0xI-OZNi4W_ik2KhjgpqioTAtXLC8GzkMBQRMlyxvxyTnd5b73im&c=en-US&ur=in&da=n&logo=n&fmt=png&od=1&shading=hill&pp=23.786501,76.618599;dfp"
  },
  {
    "name": "Rahul Clinic Kupa",
    "address": "Sisodiya Bhawan, Kupa, Road, Sarangpur, Rajgarh, Madhya Pradesh 465697",
    "phone": "Rahul Clinic Kupa",
    "hours": null,
    "image_url": "https://www.bing.com/maps/geoplat/REST/v1/Imagery/Map/RoadVibrant?ms=92,112&key=AnTcaqBi2ypp0xI-OZNi4W_ik2KhjgpqioTAtXLC8GzkMBQRMlyxvxyTnd5b73im&c=en-US&ur=in&da=n&logo=n&fmt=png&od=1&shading=hill&pp=23.580698,76.448441;dfp"
  },
  {
    "name": "Mojumdar Clinic",
    "address": "0 Jawahar Chowk Zirapur, Rajgarh, Madhya Pradesh 465691",
    "phone": "Mojumdar Clinic",
    "hours": null,
    "image_url": "https://www.bing.com/maps/geoplat/REST/v1/Imagery/Map/RoadVibrant?ms=92,112&key=AnTcaqBi2ypp0xI-OZNi4W_ik2KhjgpqioTAtXLC8GzkMBQRMlyxvxyTnd5b73im&c=en-US&ur=in&da=n&logo=n&fmt=png&od=1&shading=hill&pp=24.013453,76.372253;dfp"
  },
  {
    "name": "Government Veterinary Hospital",
    "address": "Government Hospital, Hospital Road, Rajgarh, Madhya Pradesh 465661",
    "phone": "Government Veterinary Hospital",
    "hours": null,
    "image_url": "https://www.bing.com/maps/geoplat/REST/v1/Imagery/Map/RoadVibrant?ms=92,112&key=AnTcaqBi2ypp0xI-OZNi4W_ik2KhjgpqioTAtXLC8GzkMBQRMlyxvxyTnd5b73im&c=en-US&ur=in&da=n&logo=n&fmt=png&od=1&shading=hill&pp=24.007063,76.730537;dfp"
  },
  {
    "name": "Ajay Pharma And Sevarth Pharma Clinic Jirapur",
    "address": "Khilchipur Naka, Pachore Road, Jirapur, Rajgarh, Madhya Pradesh 465691",
    "phone": "Ajay Pharma And Sevarth Pharma Clinic Jirapur",
    "hours": null,
    "image_url": "https://www.bing.com/maps/geoplat/REST/v1/Imagery/Map/RoadVibrant?ms=92,112&key=AnTcaqBi2ypp0xI-OZNi4W_ik2KhjgpqioTAtXLC8GzkMBQRMlyxvxyTnd5b73im&c=en-US&ur=in&da=n&logo=n&fmt=png&od=1&shading=hill&pp=24.0161,76.377098;dfp"
  }
]