[
  {
    "name": "Dr. POOJA KOTAK",
    "address": "1, Jayshri Complex, Rajkot, Gujarat 360007",
    "phone": "Dr. POOJA KOTAK",
    "hours": null,
    "image_url": "/th?id=OLC.PB9RkbFxB1FimA480x360&w=92&h=112&c=8&rs=1&qlt=80&cdv=1&pid=Local"
  },
  {
    "name": "Dr Unnati Chavda's Ayurveda Hospital",
    "address": "303, Cosmo Complex, Kalawad Road, Rajkot, Gujarat 360001",
    "phone": "Dr Unnati Chavda's Ayurveda Hospital",
    "hours": null,
    "image_url": "https://www.bing.com/maps/geoplat/REST/v1/Imagery/Map/RoadVibrant?ms=92,112&key=AnTcaqBi2ypp0xI-OZNi4W_ik2KhjgpqioTAtXLC8GzkMBQRMlyxvxyTnd5b73im&c=en-US&ur=in&da=n&logo=n&fmt=png&od=1&shading=hill&pp=22.293468,70.791412;dfp"
  },
  {
    "name": "Dr. Tarun Gondalia",
    "address": "29/B, Parth, Jankalyan Society, Rajkot, Gujarat",
    "phone": "Dr. Tarun Gondalia",
    "hours": "Open· Closes 13:00",
    "image_url": "/th?id=OLC.uZNPayRZ%2b5HqUg480x360&w=92&h=112&c=8&rs=1&qlt=80&cdv=1&pid=Local"
  },
  {
    "name": "Dr.Manish Bavaliya ( Arthritis & Rheumatology clinic )",
    "address": "204 King's Plaza, Astron Chowk, Rajkot, Gujarat",
    "phone": "Dr.Manish Bavaliya ( Arthritis & Rheumatology clinic )",
    "hours": null,
    "image_url": "/th?id=OLC.eGR%2fDawHdP6tVw480x360&w=92&h=112&c=8&rs=1&qlt=80&cdv=1&pid=Local"
  },
  {
    "name": "DR. Suresh P. Joshipura",
    "address": "DR-77 Yagnik Road, Rajkot, Gujarat 360001",
    "phone": "DR. Suresh P. Joshipura",
    "hours": "Open· Closes 11:30",
    "image_url": "/th?id=OLC.U5uTYyqAxJXIWQ480x360&w=92&h=134&c=8&rs=1&qlt=80&cdv=1&pid=Local"
  },
  {
    "name": "Dr Prashant Dudhagara- Rheumatologist, Rajkot",
    "address": "Sterling Hospital. 150 Feet Ring Road, Rajkot, Gujarat, 36005",
    "phone": "Dr Prashant Dudhagara- Rheumatologist, Rajkot",
    "hours": null,
    "image_url": "/th?id=OLC.Vno5XCJTDomwYQ480x360&w=92&h=112&c=8&rs=1&qlt=80&cdv=1&pid=Local"
  },
  {
    "name": "Vithalani Dr T R",
    "address": "7rv4+743, Ashapura Road, Near Centre Point;b/h Balaji Temple, Rajkot, Gujarat 360001",
    "phone": "Vithalani Dr T R",
    "hours": "Closed· Opens 11:00",
    "image_url": null
  },
  {
    "name": "Lakshyayu Ayurved Panchkarma Chikitsa Kendra and Ayurvedic HOSPITAL- Dr Rajdeep Vadher",
    "address": "Police Station, 150 Feet Ring Rd, Near Modi School n, opp. Ford Show Room, Gandhigram, Rajkot, Gujarat",
    "phone": "Lakshyayu Ayurved Panchkarma Chikitsa Kendra and Ayurvedic HOSPITAL- Dr Rajdeep Vadher",
    "hours": null,
    "image_url": "https://www.bing.com/maps/geoplat/REST/v1/Imagery/Map/RoadVibrant?ms=92,112&key=AnTcaqBi2ypp0xI-OZNi4W_ik2KhjgpqioTAtXLC8GzkMBQRMlyxvxyTnd5b73im&c=en-US&ur=in&da=n&logo=n&fmt=png&od=1&shading=hill&pp=22.320566,70.766487;dfp"
  },
  {
    "name": "Shiv Clinic",
    "address": "Bajrangwadi-11, Near Bajrangwadi Circle, Rajkot, Gujarat 360006",
    "phone": "Shiv Clinic",
    "hours": "Open· Closes 13:30",
    "image_url": null
  },
  {
    "name": "Dr.Paresh Shah",
    "address": "Jubilee Trade Center, Rajkot, Gujarat 360001",
    "phone": "Dr.Paresh Shah",
    "hours": "Open· Closes 13:00",
    "image_url": "https://www.bing.com/maps/geoplat/REST/v1/Imagery/Map/RoadVibrant?ms=92,134&key=AnTcaqBi2ypp0xI-OZNi4W_ik2KhjgpqioTAtXLC8GzkMBQRMlyxvxyTnd5b73im&c=en-US&ur=in&da=n&logo=n&fmt=png&od=1&shading=hill&pp=22.292591,70.792015;dfp"
  },
  {
    "name": "Dr Mehul Mitra",
    "address": "Animesh, Kotecha Chowk, b/h Dhareshwer Dairy, Nirmala Convent Rd, Rajkot, Gujarat 360007",
    "phone": "Dr Mehul Mitra",
    "hours": null,
    "image_url": "https://www.bing.com/maps/geoplat/REST/v1/Imagery/Map/RoadVibrant?ms=92,112&key=AnTcaqBi2ypp0xI-OZNi4W_ik2KhjgpqioTAtXLC8GzkMBQRMlyxvxyTnd5b73im&c=en-US&ur=in&da=n&logo=n&fmt=png&od=1&shading=hill&pp=22.291182,70.778694;dfp"
  },
  {
    "name": "Dr. Bhavin H. Dhamsaniya",
    "address": "105, 1st Floor, Shree Mahalaxmi Complex, Rajkot, Gujarat",
    "phone": "Dr. Bhavin H. Dhamsaniya",
    "hours": "Open· Closes 13:00",
    "image_url": null
  },
  {
    "name": "Dr. Rekha Udani",
    "address": "Panchnath Plot, Null, Null 360001",
    "phone": "Dr. Rekha Udani",
    "hours": null,
    "image_url": null
  },
  {
    "name": "Dr. Gajendra Odedra",
    "address": "Navjyot Park, 150 Feet Ring Road, Giriraj Hospital Street, Kalavad Road, Rajkot, Gujarat",
    "phone": "Dr. Gajendra Odedra",
    "hours": "Open· Closes 13:00",
    "image_url": null
  },
  {
    "name": "DR.Sudhir R.Shah",
    "address": "204-Siddhi Vinayak Appartments, 6/11 Jagnath Plot, Rajkot 360001",
    "phone": "DR.Sudhir R.Shah",
    "hours": null,
    "image_url": "https://www.bing.com/maps/geoplat/REST/v1/Imagery/Map/RoadVibrant?ms=92,112&key=AnTcaqBi2ypp0xI-OZNi4W_ik2KhjgpqioTAtXLC8GzkMBQRMlyxvxyTnd5b73im&c=en-US&ur=in&da=n&logo=n&fmt=png&od=1&shading=hill&pp=22.296225,70.797295;dfp"
  },
  {
    "name": "Dr. Sanjay P Jivrajani Clinic",
    "address": "Panchnath Road, Panchnath Plot, Rajkot, Gujarat 360001",
    "phone": "Dr. Sanjay P Jivrajani Clinic",
    "hours": null,
    "image_url": "https://www.bing.com/maps/geoplat/REST/v1/Imagery/Map/RoadVibrant?ms=92,112&key=AnTcaqBi2ypp0xI-OZNi4W_ik2KhjgpqioTAtXLC8GzkMBQRMlyxvxyTnd5b73im&c=en-US&ur=in&da=n&logo=n&fmt=png&od=1&shading=hill&pp=22.298588,70.798889;dfp"
  },
  {
    "name": "Dr. Devang Pandya",
    "address": "202-203, Time Square, Ayodhya Chowk, 150 Feet Ring Road, Rajkot, Gujarat",
    "phone": "Dr. Devang Pandya",
    "hours": "Open· Closes 13:00",
    "image_url": null
  },
  {
    "name": "Dr. Neerav Shah Clinic",
    "address": "Nana Mauva Road, Raj Nagar, Rajkot, Gujarat 360001",
    "phone": "Dr. Neerav Shah Clinic",
    "hours": null,
    "image_url": "https://www.bing.com/maps/geoplat/REST/v1/Imagery/Map/RoadVibrant?ms=92,112&key=AnTcaqBi2ypp0xI-OZNi4W_ik2KhjgpqioTAtXLC8GzkMBQRMlyxvxyTnd5b73im&c=en-US&ur=in&da=n&logo=n&fmt=png&od=1&shading=hill&pp=22.290722,70.795609;dfp"
  }
]