[
  {
    "name": "Dr. Ranjita Parakh",
    "address": "Parakh Nursing Home Street Number one Lal Bagh, Rajnandgaon, Chhattisgarh 491441",
    "phone": "Dr. Ranjita Parakh",
    "hours": "Closed· Opens 11:00",
    "image_url": "https://www.bing.com/maps/geoplat/REST/v1/Imagery/Map/RoadVibrant?ms=92,112&key=AnTcaqBi2ypp0xI-OZNi4W_ik2KhjgpqioTAtXLC8GzkMBQRMlyxvxyTnd5b73im&c=en-US&ur=in&da=n&logo=n&fmt=png&od=1&shading=hill&pp=21.09466,81.027115;dfp"
  },
  {
    "name": "Dr. Rajesh Raghorte- General Physician",
    "address": "Maa Gayatri Medical Pathology & Clinic, Jain Medical, Goal Bazaar, Dongargarh, Chhattisgarh 491445",
    "phone": "Dr. Rajesh Raghorte- General Physician",
    "hours": "Open· Closes 21:00",
    "image_url": "https://www.bing.com/maps/geoplat/REST/v1/Imagery/Map/RoadVibrant?ms=92,134&key=AnTcaqBi2ypp0xI-OZNi4W_ik2KhjgpqioTAtXLC8GzkMBQRMlyxvxyTnd5b73im&c=en-US&ur=in&da=n&logo=n&fmt=png&od=1&shading=hill&pp=21.103737,81.006737;dfp"
  },
  {
    "name": "Dr. Ranjita Parakh- Obstetrician, Gynecologist, Infertility Specialist & Laproscopic Surgeon",
    "address": "Parakh Nursing Home Street Number one Lal Bagh, Rajnandgaon, Chhattisgarh 491441",
    "phone": "Dr. Ranjita Parakh- Obstetrician, Gynecologist, Infertility Specialist & Laproscopic Surgeon",
    "hours": "Closed· Opens 11:00",
    "image_url": "https://www.bing.com/maps/geoplat/REST/v1/Imagery/Map/RoadVibrant?ms=92,134&key=AnTcaqBi2ypp0xI-OZNi4W_ik2KhjgpqioTAtXLC8GzkMBQRMlyxvxyTnd5b73im&c=en-US&ur=in&da=n&logo=n&fmt=png&od=1&shading=hill&pp=21.09466,81.027115;dfp"
  },
  {
    "name": "Dr.Siddharth Banerjee - Gastro Suregon | Laparoscopic | Piles | Fistula | Cancer Surgeries | Breast Lump | Surgeon",
    "address": "Shukla Multi Speciality Hospital, Dongargaon Rd, Basantpur, Rajnandgaon, Chhattisgarh",
    "phone": "Dr.Siddharth Banerjee - Gastro Suregon | Laparoscopic | Piles | Fistula | Cancer Surgeries | Breast Lump | Surgeon",
    "hours": null,
    "image_url": "https://www.bing.com/maps/geoplat/REST/v1/Imagery/Map/RoadVibrant?ms=92,112&key=AnTcaqBi2ypp0xI-OZNi4W_ik2KhjgpqioTAtXLC8GzkMBQRMlyxvxyTnd5b73im&c=en-US&ur=in&da=n&logo=n&fmt=png&od=1&shading=hill&pp=21.088917,81.027557;dfp"
  },
  {
    "name": "Dr RK Sahu Clinic",
    "address": "Stadium Road, Rajnandgaon, Chhattisgarh 491441",
    "phone": "Dr RK Sahu Clinic",
    "hours": null,
    "image_url": "https://www.bing.com/maps/geoplat/REST/v1/Imagery/Map/RoadVibrant?ms=92,112&key=AnTcaqBi2ypp0xI-OZNi4W_ik2KhjgpqioTAtXLC8GzkMBQRMlyxvxyTnd5b73im&c=en-US&ur=in&da=n&logo=n&fmt=png&od=1&shading=hill&pp=21.099085,81.021469;dfp"
  },
  {
    "name": "Dr. Sushma Kumre- Gynecologist",
    "address": "Sushma Kumre Clinic, Rajnadngaon Bazar, Near Royal Kids School, Mahendra Nagar, Rajnandgaon, Chhattisg…",
    "phone": "Dr. Sushma Kumre- Gynecologist",
    "hours": "Closed· Opens 11:00",
    "image_url": "https://www.bing.com/maps/geoplat/REST/v1/Imagery/Map/RoadVibrant?ms=92,134&key=AnTcaqBi2ypp0xI-OZNi4W_ik2KhjgpqioTAtXLC8GzkMBQRMlyxvxyTnd5b73im&c=en-US&ur=in&da=n&logo=n&fmt=png&od=1&shading=hill&pp=21.094229,81.024033;dfp"
  },
  {
    "name": "Dr SS Jain Clinic",
    "address": "Manav Mandir Chawk, Rajnandgaon, Chhattisgarh 491441",
    "phone": "Dr SS Jain Clinic",
    "hours": null,
    "image_url": "https://www.bing.com/maps/geoplat/REST/v1/Imagery/Map/RoadVibrant?ms=92,112&key=AnTcaqBi2ypp0xI-OZNi4W_ik2KhjgpqioTAtXLC8GzkMBQRMlyxvxyTnd5b73im&c=en-US&ur=in&da=n&logo=n&fmt=png&od=1&shading=hill&pp=21.094637,81.033577;dfp"
  },
  {
    "name": "Dr. Saurabh Mohabey",
    "address": "Sarla Devi Complex Baldeo Bagh, Raj Nandgaon, Chhattisgarh",
    "phone": "Dr. Saurabh Mohabey",
    "hours": "Open· Closes 14:00",
    "image_url": "https://www.bing.com/maps/geoplat/REST/v1/Imagery/Map/RoadVibrant?ms=92,112&key=AnTcaqBi2ypp0xI-OZNi4W_ik2KhjgpqioTAtXLC8GzkMBQRMlyxvxyTnd5b73im&c=en-US&ur=in&da=n&logo=n&fmt=png&od=1&shading=hill&pp=21.10181,81.029282;dfp"
  },
  {
    "name": "Charak Ayurvedam health nd wellness clinic - Dr.Mukesh Kumar Bisen, Rajnandgaon, Chhattisgarh",
    "address": "Near Shri Jalaram Temple, Ward Number 27, Kailash Nagar, Rajnandgaon, Chhattisgarh",
    "phone": "Charak Ayurvedam health nd wellness clinic - Dr.Mukesh Kumar Bisen, Rajnandgaon, Chhattisgarh",
    "hours": null,
    "image_url": "https://www.bing.com/maps/geoplat/REST/v1/Imagery/Map/RoadVibrant?ms=92,112&key=AnTcaqBi2ypp0xI-OZNi4W_ik2KhjgpqioTAtXLC8GzkMBQRMlyxvxyTnd5b73im&c=en-US&ur=in&da=n&logo=n&fmt=png&od=1&shading=hill&pp=21.087687,81.036522;dfp"
  },
  {
    "name": "Jain Clinic",
    "address": "Motipur, Rajnandgaon, Chhattisgarh 491441",
    "phone": "Jain Clinic",
    "hours": null,
    "image_url": "https://www.bing.com/maps/geoplat/REST/v1/Imagery/Map/RoadVibrant?ms=92,112&key=AnTcaqBi2ypp0xI-OZNi4W_ik2KhjgpqioTAtXLC8GzkMBQRMlyxvxyTnd5b73im&c=en-US&ur=in&da=n&logo=n&fmt=png&od=1&shading=hill&pp=21.105932,81.022255;dfp"
  },
  {
    "name": "Gandhi Nursing Home",
    "address": "In Front Of New Ganj Mandi, Basantpur Road, Raj Nandgaon, Chhattisgarh, Chhattisgarh 491441",
    "phone": "Gandhi Nursing Home",
    "hours": "Open· Closes 14:00",
    "image_url": "https://www.bing.com/maps/geoplat/REST/v1/Imagery/Map/RoadVibrant?ms=92,134&key=AnTcaqBi2ypp0xI-OZNi4W_ik2KhjgpqioTAtXLC8GzkMBQRMlyxvxyTnd5b73im&c=en-US&ur=in&da=n&logo=n&fmt=png&od=1&shading=hill&pp=21.094162,81.031708;dfp"
  },
  {
    "name": "Dr. Animesh Gandhi- Pediatrician",
    "address": "Gandhi Nursing Home, Near Ganj Mandi, Basantpur, Rajnandgaon, Chhattisgarh 491441",
    "phone": "Dr. Animesh Gandhi- Pediatrician",
    "hours": "Open· Closes 14:00",
    "image_url": "https://www.bing.com/maps/geoplat/REST/v1/Imagery/Map/RoadVibrant?ms=92,112&key=AnTcaqBi2ypp0xI-OZNi4W_ik2KhjgpqioTAtXLC8GzkMBQRMlyxvxyTnd5b73im&c=en-US&ur=in&da=n&logo=n&fmt=png&od=1&shading=hill&pp=21.094229,81.013977;dfp"
  },
  {
    "name": "Ciimhans Memory Clinic (Dr. Pramod Gupta)",
    "address": "Ge Rd, Dewada Chowk, Kopedih Road, Rajnandgaon, Chhattisgarh 491441, India, Rajnandgaon, Chhattisgar…",
    "phone": "Ciimhans Memory Clinic (Dr. Pramod Gupta)",
    "hours": null,
    "image_url": "https://www.bing.com/maps/geoplat/REST/v1/Imagery/Map/RoadVibrant?ms=92,112&key=AnTcaqBi2ypp0xI-OZNi4W_ik2KhjgpqioTAtXLC8GzkMBQRMlyxvxyTnd5b73im&c=en-US&ur=in&da=n&logo=n&fmt=png&od=1&shading=hill&pp=21.20668,81.349434;dfp"
  },
  {
    "name": "Utsavi Shah Jain dermatologist Rajnandgaon",
    "address": "Kaurin Bhatha, Srishti Colony, Rajnandgaon, Chhattisgarh",
    "phone": "Utsavi Shah Jain dermatologist Rajnandgaon",
    "hours": null,
    "image_url": "https://www.bing.com/maps/geoplat/REST/v1/Imagery/Map/RoadVibrant?ms=92,112&key=AnTcaqBi2ypp0xI-OZNi4W_ik2KhjgpqioTAtXLC8GzkMBQRMlyxvxyTnd5b73im&c=en-US&ur=in&da=n&logo=n&fmt=png&od=1&shading=hill&pp=21.089092,81.013702;dfp"
  },
  {
    "name": "Dr. Pukhraj Bafna Clinic & Vaccination Centre",
    "address": "Building Bafna Nivas, Ganj Lane, Ganj Chowk Road, Rajnandgaon, Chhattisgarh",
    "phone": "Dr. Pukhraj Bafna Clinic & Vaccination Centre",
    "hours": null,
    "image_url": "https://www.bing.com/maps/geoplat/REST/v1/Imagery/Map/RoadVibrant?ms=92,112&key=AnTcaqBi2ypp0xI-OZNi4W_ik2KhjgpqioTAtXLC8GzkMBQRMlyxvxyTnd5b73im&c=en-US&ur=in&da=n&logo=n&fmt=png&od=1&shading=hill&pp=21.09775,81.033852;dfp"
  },
  {
    "name": "Dr. Shankar Lal Koushik- General Physician",
    "address": "Shankar Lal Koushik, Dungargarh Road, Bajaj Chowk, Rajnandgaon, Chhattisgarh 491445",
    "phone": "Dr. Shankar Lal Koushik- General Physician",
    "hours": "Closed· Opens 11:00",
    "image_url": "https://www.bing.com/maps/geoplat/REST/v1/Imagery/Map/RoadVibrant?ms=92,134&key=AnTcaqBi2ypp0xI-OZNi4W_ik2KhjgpqioTAtXLC8GzkMBQRMlyxvxyTnd5b73im&c=en-US&ur=in&da=n&logo=n&fmt=png&od=1&shading=hill&pp=21.186947,80.753113;dfp"
  },
  {
    "name": "\"RAKESH MULTISPECIALITY CLINIC\" Dr Rakesh Ukey",
    "address": "Gali Number 4, Mamta Nagar, Rajnandgaon, Chhattisgarh",
    "phone": "\"RAKESH MULTISPECIALITY CLINIC\" Dr Rakesh Ukey",
    "hours": null,
    "image_url": "https://www.bing.com/maps/geoplat/REST/v1/Imagery/Map/RoadVibrant?ms=92,112&key=AnTcaqBi2ypp0xI-OZNi4W_ik2KhjgpqioTAtXLC8GzkMBQRMlyxvxyTnd5b73im&c=en-US&ur=in&da=n&logo=n&fmt=png&od=1&shading=hill&pp=21.239025,81.662903;dfp"
  }
]