[
  {
    "name": "Anjali Clinic",
    "address": "Near Chamunda Mata Temple, Bhoiwada, Rajnagar, Rajsamand, Rajasthan 313324",
    "phone": "Anjali Clinic",
    "hours": null,
    "image_url": "https://www.bing.com/maps/geoplat/REST/v1/Imagery/Map/RoadVibrant?ms=92,112&key=AnTcaqBi2ypp0xI-OZNi4W_ik2KhjgpqioTAtXLC8GzkMBQRMlyxvxyTnd5b73im&c=en-US&ur=in&da=n&logo=n&fmt=png&od=1&shading=hill&pp=25.052023,73.884056;dfp"
  },
  {
    "name": "Matheswari Clinic",
    "address": "01 Sakarda Road Village Dekwada Amet Amet Road, Rajsamand, Rajasthan 313330",
    "phone": "Matheswari Clinic",
    "hours": null,
    "image_url": "https://www.bing.com/maps/geoplat/REST/v1/Imagery/Map/RoadVibrant?ms=92,112&key=AnTcaqBi2ypp0xI-OZNi4W_ik2KhjgpqioTAtXLC8GzkMBQRMlyxvxyTnd5b73im&c=en-US&ur=in&da=n&logo=n&fmt=png&od=1&shading=hill&pp=25.056669,73.900101;dfp"
  },
  {
    "name": "Pooja Clinic",
    "address": "Sadar Bazar, Sh12, Kankroli, Rajsamand, Rajasthan 313334",
    "phone": "Pooja Clinic",
    "hours": null,
    "image_url": "/th?id=OLC.HcA8ou8kvXUmNw480x360&w=92&h=112&c=8&rs=1&qlt=80&cdv=1&pid=Local"
  },
  {
    "name": "Dr. H C Soni Clinic",
    "address": "Karani Vihar, Behind Tehsil Karyalaya, Rajsamand, Rajasthan, India, 313326, Rajsamand, Madhya Prades…",
    "phone": "Dr. H C Soni Clinic",
    "hours": "Closed· Opens 14:00",
    "image_url": "/th?id=OLC.1ByHLba72ZiCJw480x360&w=92&h=112&c=8&rs=1&qlt=80&cdv=1&pid=Local"
  },
  {
    "name": "Dr. Yashpal Rajpurohit (pt)",
    "address": "Sushil Nagar, 100 Feet Road, Rajsamand, Rajasthan",
    "phone": "Dr. Yashpal Rajpurohit (pt)",
    "hours": "Open· Closes 12:30",
    "image_url": "https://www.bing.com/maps/geoplat/REST/v1/Imagery/Map/RoadVibrant?ms=92,112&key=AnTcaqBi2ypp0xI-OZNi4W_ik2KhjgpqioTAtXLC8GzkMBQRMlyxvxyTnd5b73im&c=en-US&ur=in&da=n&logo=n&fmt=png&od=1&shading=hill&pp=25.065845,73.852135;dfp"
  },
  {
    "name": "Dr. Ghansyamji Sharma",
    "address": "2WJ9+V8W, Emri, Rajasthan",
    "phone": "Dr. Ghansyamji Sharma",
    "hours": null,
    "image_url": "https://www.bing.com/maps/geoplat/REST/v1/Imagery/Map/RoadVibrant?ms=92,112&key=AnTcaqBi2ypp0xI-OZNi4W_ik2KhjgpqioTAtXLC8GzkMBQRMlyxvxyTnd5b73im&c=en-US&ur=in&da=n&logo=n&fmt=png&od=1&shading=hill&pp=25.031376,73.918732;dfp"
  },
  {
    "name": "Nikunj Ortho Hospital",
    "address": "50 Feet Road, Near Water Tank, Kankroli, Rajsamand, Rajasthan 313324",
    "phone": "Nikunj Ortho Hospital",
    "hours": null,
    "image_url": "https://www.bing.com/maps/geoplat/REST/v1/Imagery/Map/RoadVibrant?ms=92,112&key=AnTcaqBi2ypp0xI-OZNi4W_ik2KhjgpqioTAtXLC8GzkMBQRMlyxvxyTnd5b73im&c=en-US&ur=in&da=n&logo=n&fmt=png&od=1&shading=hill&pp=25.056498,73.885139;dfp"
  },
  {
    "name": "Rajkiya Chikitsalaya",
    "address": "Up Mukhya Chikitsa, Sh12, Kankroli, Rajsamand, Rajasthan 313334",
    "phone": "Rajkiya Chikitsalaya",
    "hours": null,
    "image_url": "https://www.bing.com/maps/geoplat/REST/v1/Imagery/Map/RoadVibrant?ms=92,112&key=AnTcaqBi2ypp0xI-OZNi4W_ik2KhjgpqioTAtXLC8GzkMBQRMlyxvxyTnd5b73im&c=en-US&ur=in&da=n&logo=n&fmt=png&od=1&shading=hill&pp=25.063976,73.874962;dfp"
  },
  {
    "name": "FOUNTAIN DENTAL CLINIC & IMPLANT CENTER (Dr. Akshay Soni)",
    "address": "TVS Choraha Nathdwara Road Kankroli, Rajsamand, Rajasthan 313324",
    "phone": "FOUNTAIN DENTAL CLINIC & IMPLANT CENTER (Dr. Akshay Soni)",
    "hours": null,
    "image_url": null
  },
  {
    "name": "Manav Dantel Clinic",
    "address": "Ganesh Nagar Jawad, Rajsamand, Rajasthan 313324",
    "phone": "Manav Dantel Clinic",
    "hours": null,
    "image_url": "https://www.bing.com/maps/geoplat/REST/v1/Imagery/Map/RoadVibrant?ms=92,112&key=AnTcaqBi2ypp0xI-OZNi4W_ik2KhjgpqioTAtXLC8GzkMBQRMlyxvxyTnd5b73im&c=en-US&ur=in&da=n&logo=n&fmt=png&od=1&shading=hill&pp=25.056841,73.895782;dfp"
  },
  {
    "name": "Dr Rasgulla Aroma",
    "address": "Kalash, Maharana RAJ Singh Nagar, 100 Feet Road, Rajsamand, Rajasthan 313324",
    "phone": "Dr Rasgulla Aroma",
    "hours": null,
    "image_url": "https://www.bing.com/maps/geoplat/REST/v1/Imagery/Map/RoadVibrant?ms=92,112&key=AnTcaqBi2ypp0xI-OZNi4W_ik2KhjgpqioTAtXLC8GzkMBQRMlyxvxyTnd5b73im&c=en-US&ur=in&da=n&logo=n&fmt=png&od=1&shading=hill&pp=25.059189,73.874222;dfp"
  },
  {
    "name": "Tak Sonography And Lab",
    "address": "Nagar Parishad Complex Near R.K.Govt Hospital, Kankroli, Rajasthan 313324",
    "phone": "Tak Sonography And Lab",
    "hours": null,
    "image_url": "https://www.bing.com/maps/geoplat/REST/v1/Imagery/Map/RoadVibrant?ms=92,112&key=AnTcaqBi2ypp0xI-OZNi4W_ik2KhjgpqioTAtXLC8GzkMBQRMlyxvxyTnd5b73im&c=en-US&ur=in&da=n&logo=n&fmt=png&od=1&shading=hill&pp=25.025185,73.884552;dfp"
  },
  {
    "name": "Komal X-Ray and Labratory",
    "address": "Near Higad Medical, Bhilwara Road, Rajsamand, Rajasthan 313324",
    "phone": "Komal X-Ray and Labratory",
    "hours": null,
    "image_url": "https://www.bing.com/maps/geoplat/REST/v1/Imagery/Map/RoadVibrant?ms=92,112&key=AnTcaqBi2ypp0xI-OZNi4W_ik2KhjgpqioTAtXLC8GzkMBQRMlyxvxyTnd5b73im&c=en-US&ur=in&da=n&logo=n&fmt=png&od=1&shading=hill&pp=25.058502,73.90361;dfp"
  },
  {
    "name": "Radon Sonography Rajsamand",
    "address": "Near Krishna Dairy, 100 Feet Road, Rajsamand, Rajasthan 313324",
    "phone": "Radon Sonography Rajsamand",
    "hours": null,
    "image_url": "https://www.bing.com/maps/geoplat/REST/v1/Imagery/Map/RoadVibrant?ms=92,112&key=AnTcaqBi2ypp0xI-OZNi4W_ik2KhjgpqioTAtXLC8GzkMBQRMlyxvxyTnd5b73im&c=en-US&ur=in&da=n&logo=n&fmt=png&od=1&shading=hill&pp=25.057272,73.879684;dfp"
  }
]