[
  {
    "name": "Reliance Clinic",
    "address": "Kumandan Mohalla, Ramanagara, Karnataka",
    "phone": "Reliance Clinic",
    "hours": null,
    "image_url": "https://www.bing.com/maps/geoplat/REST/v1/Imagery/Map/RoadVibrant?ms=92,112&key=AnTcaqBi2ypp0xI-OZNi4W_ik2KhjgpqioTAtXLC8GzkMBQRMlyxvxyTnd5b73im&c=en-US&ur=in&da=n&logo=n&fmt=png&od=1&shading=hill&pp=12.7201,77.283401;dfp"
  },
  {
    "name": "Ranganatha Clinic",
    "address": "Ganapathi Temple Street, Ramanagara, Ramanagar, Karnataka 562159",
    "phone": "Ranganatha Clinic",
    "hours": null,
    "image_url": "https://www.bing.com/maps/geoplat/REST/v1/Imagery/Map/RoadVibrant?ms=92,112&key=AnTcaqBi2ypp0xI-OZNi4W_ik2KhjgpqioTAtXLC8GzkMBQRMlyxvxyTnd5b73im&c=en-US&ur=in&da=n&logo=n&fmt=png&od=1&shading=hill&pp=12.721097,77.274651;dfp"
  },
  {
    "name": "Ijoor Clinic",
    "address": "Kannada School Road, Sarkari Kannada School, Ijoor, Ramanagar, Karnataka 562159",
    "phone": "Ijoor Clinic",
    "hours": null,
    "image_url": "https://www.bing.com/maps/geoplat/REST/v1/Imagery/Map/RoadVibrant?ms=92,112&key=AnTcaqBi2ypp0xI-OZNi4W_ik2KhjgpqioTAtXLC8GzkMBQRMlyxvxyTnd5b73im&c=en-US&ur=in&da=n&logo=n&fmt=png&od=1&shading=hill&pp=12.72119,77.273087;dfp"
  },
  {
    "name": "Sridevi Clinic",
    "address": "Mysore Road, Ramanagara, Ramanagar, Karnataka 562159",
    "phone": "Sridevi Clinic",
    "hours": null,
    "image_url": "https://www.bing.com/maps/geoplat/REST/v1/Imagery/Map/RoadVibrant?ms=92,112&key=AnTcaqBi2ypp0xI-OZNi4W_ik2KhjgpqioTAtXLC8GzkMBQRMlyxvxyTnd5b73im&c=en-US&ur=in&da=n&logo=n&fmt=png&od=1&shading=hill&pp=12.720361,77.274818;dfp"
  },
  {
    "name": "Divya Clinic",
    "address": "Magadi Road, Ramanagara, Ramanagar, Karnataka 562159",
    "phone": "Divya Clinic",
    "hours": null,
    "image_url": "https://www.bing.com/maps/geoplat/REST/v1/Imagery/Map/RoadVibrant?ms=92,112&key=AnTcaqBi2ypp0xI-OZNi4W_ik2KhjgpqioTAtXLC8GzkMBQRMlyxvxyTnd5b73im&c=en-US&ur=in&da=n&logo=n&fmt=png&od=1&shading=hill&pp=12.722967,77.274963;dfp"
  },
  {
    "name": "Vijaya Clinic",
    "address": "Magadi Road, Ramanagara, Ramanagar, Karnataka 571511",
    "phone": "Vijaya Clinic",
    "hours": null,
    "image_url": "https://www.bing.com/maps/geoplat/REST/v1/Imagery/Map/RoadVibrant?ms=92,112&key=AnTcaqBi2ypp0xI-OZNi4W_ik2KhjgpqioTAtXLC8GzkMBQRMlyxvxyTnd5b73im&c=en-US&ur=in&da=n&logo=n&fmt=png&od=1&shading=hill&pp=12.725098,77.273224;dfp"
  },
  {
    "name": "Piles And Fistula Clinic",
    "address": "Ijoor, Ramanagara, Karnataka 562159, India, Ijoor, Karnataka 562159",
    "phone": "Piles And Fistula Clinic",
    "hours": null,
    "image_url": "https://www.bing.com/maps/geoplat/REST/v1/Imagery/Map/RoadVibrant?ms=92,112&key=AnTcaqBi2ypp0xI-OZNi4W_ik2KhjgpqioTAtXLC8GzkMBQRMlyxvxyTnd5b73im&c=en-US&ur=in&da=n&logo=n&fmt=png&od=1&shading=hill&pp=12.721921,77.274849;dfp"
  },
  {
    "name": "S S Diagnostic Centre",
    "address": "Bm Road, Shaan Theatre, Ijoor, Ramanagar, Karnataka 562159",
    "phone": "S S Diagnostic Centre",
    "hours": null,
    "image_url": null
  },
  {
    "name": "S.C Pharma Clinic",
    "address": "M/s S C Pharma Clinic, Naga Council Building, Murgi Patty, Dimapur, Nagaland 797112",
    "phone": "S.C Pharma Clinic",
    "hours": null,
    "image_url": "https://www.bing.com/maps/geoplat/REST/v1/Imagery/Map/RoadVibrant?ms=92,112&key=AnTcaqBi2ypp0xI-OZNi4W_ik2KhjgpqioTAtXLC8GzkMBQRMlyxvxyTnd5b73im&c=en-US&ur=in&da=n&logo=n&fmt=png&od=1&shading=hill&pp=12.717798,77.275116;dfp"
  },
  {
    "name": "Ganga Diagnostic And Multi Specialist Polyclinic",
    "address": "Mysore Road, Jnana Vikas College, Medanahalli Bidadi, Bidadi Industrial Area, Karnataka 562109",
    "phone": "Ganga Diagnostic And Multi Specialist Polyclinic",
    "hours": null,
    "image_url": "https://www.bing.com/maps/geoplat/REST/v1/Imagery/Map/RoadVibrant?ms=92,112&key=AnTcaqBi2ypp0xI-OZNi4W_ik2KhjgpqioTAtXLC8GzkMBQRMlyxvxyTnd5b73im&c=en-US&ur=in&da=n&logo=n&fmt=png&od=1&shading=hill&pp=12.796354,77.386658;dfp"
  },
  {
    "name": "Manjunatha Cardiac Clinic",
    "address": "Opp. T. A. P.C.M. Society, M G. Road Gowribidanur Chikkaballapur, Villupuram Mangalore Highway, Gowriâ€¦",
    "phone": "Manjunatha Cardiac Clinic",
    "hours": null,
    "image_url": "https://www.bing.com/maps/geoplat/REST/v1/Imagery/Map/RoadVibrant?ms=92,112&key=AnTcaqBi2ypp0xI-OZNi4W_ik2KhjgpqioTAtXLC8GzkMBQRMlyxvxyTnd5b73im&c=en-US&ur=in&da=n&logo=n&fmt=png&od=1&shading=hill&pp=12.659554,77.210129;dfp"
  },
  {
    "name": "Ramesh Clinic",
    "address": "1St Main Road, Corporation Bank, Kuvempu Nagar, Channapatna, Karnataka 562160",
    "phone": "Ramesh Clinic",
    "hours": null,
    "image_url": "https://www.bing.com/maps/geoplat/REST/v1/Imagery/Map/RoadVibrant?ms=92,112&key=AnTcaqBi2ypp0xI-OZNi4W_ik2KhjgpqioTAtXLC8GzkMBQRMlyxvxyTnd5b73im&c=en-US&ur=in&da=n&logo=n&fmt=png&od=1&shading=hill&pp=12.653035,77.200546;dfp"
  },
  {
    "name": "Udaya Clinic",
    "address": "Railway Station Road, Near Basavanna Temple, Bidadi, Bengaluru, Karnataka 562109",
    "phone": "Udaya Clinic",
    "hours": null,
    "image_url": "https://www.bing.com/maps/geoplat/REST/v1/Imagery/Map/RoadVibrant?ms=92,112&key=AnTcaqBi2ypp0xI-OZNi4W_ik2KhjgpqioTAtXLC8GzkMBQRMlyxvxyTnd5b73im&c=en-US&ur=in&da=n&logo=n&fmt=png&od=1&shading=hill&pp=12.797602,77.386192;dfp"
  }
]