[
  {
    "name": "Almaa Siddha Care Clinic",
    "address": "No.10, Kayakkari Amman Koil Street, Opposite to Balaji Gas Agency, Lakshmipuram, Ramanathapuram, Tamil …",
    "phone": "Almaa Siddha Care Clinic",
    "hours": "Open· Closes 18:00",
    "image_url": "/th?id=OLC.SlYvyn3gqDwFtQ480x360&w=92&h=134&c=8&rs=1&qlt=80&cdv=1&pid=Local"
  },
  {
    "name": "RJM Siddha Clinic",
    "address": "27/41, Madurayar Street, Velipattinam, Ramanathapuram, Tamil Nadu",
    "phone": "RJM Siddha Clinic",
    "hours": null,
    "image_url": "/th?id=OLC.jIc%2f5qiMwMgYWQ480x360&w=92&h=112&c=8&rs=1&qlt=80&cdv=1&pid=Local"
  },
  {
    "name": "Dr.V.Murugesan's Clinic. Perungulam.",
    "address": "1/73-North Street, Perungulam, Ramanathapuram, Tamil Nadu",
    "phone": "Dr.V.Murugesan's Clinic. Perungulam.",
    "hours": null,
    "image_url": "https://www.bing.com/maps/geoplat/REST/v1/Imagery/Map/RoadVibrant?ms=92,112&key=AnTcaqBi2ypp0xI-OZNi4W_ik2KhjgpqioTAtXLC8GzkMBQRMlyxvxyTnd5b73im&c=en-US&ur=in&da=n&logo=n&fmt=png&od=1&shading=hill&pp=9.375306,78.823166;dfp"
  },
  {
    "name": "Balaji Clinic",
    "address": "Nh49 Road, Ramanathapuram, Tamil Nadu 623501",
    "phone": "Balaji Clinic",
    "hours": null,
    "image_url": "https://www.bing.com/maps/geoplat/REST/v1/Imagery/Map/RoadVibrant?ms=92,112&key=AnTcaqBi2ypp0xI-OZNi4W_ik2KhjgpqioTAtXLC8GzkMBQRMlyxvxyTnd5b73im&c=en-US&ur=in&da=n&logo=n&fmt=png&od=1&shading=hill&pp=9.37047,78.83728;dfp"
  },
  {
    "name": "Sulaiman Clinic",
    "address": "Government Hospital Road, Government Hospital, Chalai Bazar, Ramanathapuram, Tamil Nadu 623501",
    "phone": "Sulaiman Clinic",
    "hours": null,
    "image_url": "/th?id=OLC.svy6XUhZEepnuQ480x360&w=92&h=112&c=8&rs=1&qlt=80&cdv=1&pid=Local"
  },
  {
    "name": "Sri Velan Clinic",
    "address": "Devipattinam Road, Anna Statue, Chalai Bazar, Ramanathapuram, Tamil Nadu 623501",
    "phone": "Sri Velan Clinic",
    "hours": null,
    "image_url": "https://www.bing.com/maps/geoplat/REST/v1/Imagery/Map/RoadVibrant?ms=92,112&key=AnTcaqBi2ypp0xI-OZNi4W_ik2KhjgpqioTAtXLC8GzkMBQRMlyxvxyTnd5b73im&c=en-US&ur=in&da=n&logo=n&fmt=png&od=1&shading=hill&pp=9.366421,78.835304;dfp"
  },
  {
    "name": "Dr K S Shiva Karthigeyan",
    "address": "39/1/132, Kamarajar Street, Emaneswaram, Paramakudi, Ramanathapuram, Tamil Nadu 623701",
    "phone": "Dr K S Shiva Karthigeyan",
    "hours": null,
    "image_url": "https://www.bing.com/maps/geoplat/REST/v1/Imagery/Map/RoadVibrant?ms=92,112&key=AnTcaqBi2ypp0xI-OZNi4W_ik2KhjgpqioTAtXLC8GzkMBQRMlyxvxyTnd5b73im&c=en-US&ur=in&da=n&logo=n&fmt=png&od=1&shading=hill&pp=9.548263,78.602303;dfp"
  },
  {
    "name": "Eswar Eye & ENT Hospital",
    "address": "19, Lathems Bungalow Road, Gh Rd, Ramanathapuram, Tamil Nadu 623501, India, Ramanathapuram, Tamil Na…",
    "phone": "Eswar Eye & ENT Hospital",
    "hours": null,
    "image_url": null
  },
  {
    "name": "Dhanvanthiri Siddha Clinic",
    "address": "11\\135, Chinnakadai Street, Paramakudi, Ramanathapuram, Tamil Nadu 623707",
    "phone": "Dhanvanthiri Siddha Clinic",
    "hours": "Open· Closes 14:00",
    "image_url": "https://www.bing.com/maps/geoplat/REST/v1/Imagery/Map/RoadVibrant?ms=92,134&key=AnTcaqBi2ypp0xI-OZNi4W_ik2KhjgpqioTAtXLC8GzkMBQRMlyxvxyTnd5b73im&c=en-US&ur=in&da=n&logo=n&fmt=png&od=1&shading=hill&pp=9.55033,78.586586;dfp"
  },
  {
    "name": "Dr Babu Pediatric Clinic",
    "address": "13A Thiruvalluvar Street, Kenikarai, Opp. Syed Ammal Main Entrance, Ramanathapuram, Tamil Nadu 623504",
    "phone": "Dr Babu Pediatric Clinic",
    "hours": "Open· Closes 13:30",
    "image_url": null
  },
  {
    "name": "Dr N K Arunkumar",
    "address": "12/156, Dr Arunkumar N K, Karupanasawamy Koil St, Paramakudi, Ramanathapuram, Tamil Nadu 623707",
    "phone": "Dr N K Arunkumar",
    "hours": null,
    "image_url": "https://www.bing.com/maps/geoplat/REST/v1/Imagery/Map/RoadVibrant?ms=92,112&key=AnTcaqBi2ypp0xI-OZNi4W_ik2KhjgpqioTAtXLC8GzkMBQRMlyxvxyTnd5b73im&c=en-US&ur=in&da=n&logo=n&fmt=png&od=1&shading=hill&pp=9.373978,78.826958;dfp"
  },
  {
    "name": "Sreshaas Neuro Clinic",
    "address": "Agraharam Road, Shri Adaikkalam Katha Vinayagar Temple, Palace Area, Ramanathapuram, Tamil Nadu 6…",
    "phone": "Sreshaas Neuro Clinic",
    "hours": null,
    "image_url": null
  },
  {
    "name": "Annai Eye Hospital/Dr.P.Chandrasekaran",
    "address": "69, Gh Rd, Chalai Bazar, Ramanathapuram, Tamil Nadu 623501, India, Ramanathapuram, Tamil Nadu 623501",
    "phone": "Annai Eye Hospital/Dr.P.Chandrasekaran",
    "hours": null,
    "image_url": null
  },
  {
    "name": "Harsha Homoeo Clinic",
    "address": "7th Street, Bharathi Nagar, Ramanathapuram, Tamil Nadu",
    "phone": "Harsha Homoeo Clinic",
    "hours": null,
    "image_url": "https://www.bing.com/maps/geoplat/REST/v1/Imagery/Map/RoadVibrant?ms=92,112&key=AnTcaqBi2ypp0xI-OZNi4W_ik2KhjgpqioTAtXLC8GzkMBQRMlyxvxyTnd5b73im&c=en-US&ur=in&da=n&logo=n&fmt=png&od=1&shading=hill&pp=9.364577,78.849312;dfp"
  },
  {
    "name": "Metropolis Healthcare Limited - Pathology Lab, Diagnostic Centre",
    "address": "No 5/193, 1st Floor, Kollampattarai Street, Paramakudi, Ramanathapuram, Tamil Nadu 623707",
    "phone": "Metropolis Healthcare Limited - Pathology Lab, Diagnostic Centre",
    "hours": "Open· Closes 20:00",
    "image_url": "https://www.bing.com/maps/geoplat/REST/v1/Imagery/Map/RoadVibrant?ms=92,134&key=AnTcaqBi2ypp0xI-OZNi4W_ik2KhjgpqioTAtXLC8GzkMBQRMlyxvxyTnd5b73im&c=en-US&ur=in&da=n&logo=n&fmt=png&od=1&shading=hill&pp=9.371596,78.830887;dfp"
  },
  {
    "name": "Sri Durga Surgical Clinic And Research Center",
    "address": "Unnamed Road, Varpattu, Tamil Nadu 622407, India, Ponnamaravathi, Tamil Nadu 622407",
    "phone": "Sri Durga Surgical Clinic And Research Center",
    "hours": "Open 24 hours",
    "image_url": null
  },
  {
    "name": "Gautham Skin Care Clinic",
    "address": "Rr Sethupathy Nagar Road, Adhi Parasakthi Temple, Rr Sethupathy Nagar, Ramanathapuram, Tamil Nadu 623…",
    "phone": "Gautham Skin Care Clinic",
    "hours": null,
    "image_url": "https://www.bing.com/maps/geoplat/REST/v1/Imagery/Map/RoadVibrant?ms=92,112&key=AnTcaqBi2ypp0xI-OZNi4W_ik2KhjgpqioTAtXLC8GzkMBQRMlyxvxyTnd5b73im&c=en-US&ur=in&da=n&logo=n&fmt=png&od=1&shading=hill&pp=9.362747,78.833778;dfp"
  }
]