[
  {
    "name": "Dr. A K Berlia General Physician in Ramgarh",
    "address": "Berlia Nursing Home, Near Marwadi Dharamshala, Chatti Bazar, Gola Road, Ramgarh, Jharkhand 829122",
    "phone": "Dr. A K Berlia General Physician in Ramgarh",
    "hours": "Open· Closes 13:30",
    "image_url": "https://www.bing.com/maps/geoplat/REST/v1/Imagery/Map/RoadVibrant?ms=92,134&key=AnTcaqBi2ypp0xI-OZNi4W_ik2KhjgpqioTAtXLC8GzkMBQRMlyxvxyTnd5b73im&c=en-US&ur=in&da=n&logo=n&fmt=png&od=1&shading=hill&pp=23.623995,85.530121;dfp"
  },
  {
    "name": "Dr Pankaj, Surgeon",
    "address": "Near Malgodown, Ranchi Road, Ramgarh Cantonment, Jharkhand",
    "phone": "Dr Pankaj, Surgeon",
    "hours": null,
    "image_url": "https://www.bing.com/maps/geoplat/REST/v1/Imagery/Map/RoadVibrant?ms=92,112&key=AnTcaqBi2ypp0xI-OZNi4W_ik2KhjgpqioTAtXLC8GzkMBQRMlyxvxyTnd5b73im&c=en-US&ur=in&da=n&logo=n&fmt=png&od=1&shading=hill&pp=23.62167,85.518356;dfp"
  },
  {
    "name": "Drchaturvedi Clinic",
    "address": "Main Road, Subhash Chowk, Ramgarh Cantonment, Ramgarh, Jharkhand 829122",
    "phone": "Drchaturvedi Clinic",
    "hours": null,
    "image_url": "/th?id=OLC.prYwx7tgQRmM2w480x360&w=92&h=112&c=8&rs=1&qlt=80&cdv=1&pid=Local"
  },
  {
    "name": "Surya Clinic",
    "address": "City Road Ramgarh, Ramgarh, Jharkhand 829122",
    "phone": "Surya Clinic",
    "hours": null,
    "image_url": "https://www.bing.com/maps/geoplat/REST/v1/Imagery/Map/RoadVibrant?ms=92,112&key=AnTcaqBi2ypp0xI-OZNi4W_ik2KhjgpqioTAtXLC8GzkMBQRMlyxvxyTnd5b73im&c=en-US&ur=in&da=n&logo=n&fmt=png&od=1&shading=hill&pp=23.629211,85.51384;dfp"
  },
  {
    "name": "Sanjeevani Ayurvedic Clinic And Nasha Mukti Kendra",
    "address": "Bijuliya Talab Road no 2, Ramgarh, Jharkhand",
    "phone": "Sanjeevani Ayurvedic Clinic And Nasha Mukti Kendra",
    "hours": null,
    "image_url": "/th?id=OLC.NpnMI3WZ%2b28LLA480x360&w=92&h=112&c=8&rs=1&qlt=80&cdv=1&pid=Local"
  },
  {
    "name": "Maa Parwati Clinic",
    "address": "Ranchi Road, Nai Sarai Hospital, Ramgarh, Jharkhand 829103",
    "phone": "Maa Parwati Clinic",
    "hours": null,
    "image_url": "https://www.bing.com/maps/geoplat/REST/v1/Imagery/Map/RoadVibrant?ms=92,112&key=AnTcaqBi2ypp0xI-OZNi4W_ik2KhjgpqioTAtXLC8GzkMBQRMlyxvxyTnd5b73im&c=en-US&ur=in&da=n&logo=n&fmt=png&od=1&shading=hill&pp=23.646545,85.511063;dfp"
  },
  {
    "name": "Dr. Santvana Sharan Mother And Child Health Care Center",
    "address": "Dr. Santvana Sharan Mother And Child Health Care Center, Ramgarh, Patratu Basti Road, Ramgarh Cantt, …",
    "phone": "Dr. Santvana Sharan Mother And Child Health Care Center",
    "hours": "Open· Closes 16:00",
    "image_url": "https://www.bing.com/maps/geoplat/REST/v1/Imagery/Map/RoadVibrant?ms=92,134&key=AnTcaqBi2ypp0xI-OZNi4W_ik2KhjgpqioTAtXLC8GzkMBQRMlyxvxyTnd5b73im&c=en-US&ur=in&da=n&logo=n&fmt=png&od=1&shading=hill&pp=23.61702,85.523315;dfp"
  },
  {
    "name": "Dr. Danish Prasad- Orthopaedic",
    "address": "Ramgard Hospital, JGQ6+6P5, Ramgarh Cantonment, Ramgarh, Jharkhand 829103",
    "phone": "Dr. Danish Prasad- Orthopaedic",
    "hours": "Closed· Opens 11:00",
    "image_url": "https://www.bing.com/maps/geoplat/REST/v1/Imagery/Map/RoadVibrant?ms=92,134&key=AnTcaqBi2ypp0xI-OZNi4W_ik2KhjgpqioTAtXLC8GzkMBQRMlyxvxyTnd5b73im&c=en-US&ur=in&da=n&logo=n&fmt=png&od=1&shading=hill&pp=23.636879,85.489395;dfp"
  },
  {
    "name": "Dr Pankaj Kumar, Pediatric Urologist",
    "address": "Ramgarh City Road, Near Indian Overseas Bank, Marar, Ramgarh, Jharkhand 829117",
    "phone": "Dr Pankaj Kumar, Pediatric Urologist",
    "hours": null,
    "image_url": "https://www.bing.com/maps/geoplat/REST/v1/Imagery/Map/RoadVibrant?ms=92,112&key=AnTcaqBi2ypp0xI-OZNi4W_ik2KhjgpqioTAtXLC8GzkMBQRMlyxvxyTnd5b73im&c=en-US&ur=in&da=n&logo=n&fmt=png&od=1&shading=hill&pp=23.664986,85.513725;dfp"
  },
  {
    "name": "Dr. Manish Keshri",
    "address": "Basement, Shivam Tower, Thana Chowk, Landmark: Beside Hero Showroom, Ramgarh, Hazaribag, Jharkhand",
    "phone": "Dr. Manish Keshri",
    "hours": "Open· Closes 19:00",
    "image_url": null
  },
  {
    "name": "Ayush Homoeopathy Clinic",
    "address": "Ayush Homoeopathy Opp.Income tax Office, Thana Chowk. Ramgarh Cantt, Ramgarh, Jharkhand, Jharkha…",
    "phone": "Ayush Homoeopathy Clinic",
    "hours": "Open· Closes 17:00",
    "image_url": null
  },
  {
    "name": "Upkar Hemeo Clinic",
    "address": "Ranchi Road, Nidra Nagar Near Kali Mandir Marar, Ramgarh, Jharkhand 829117",
    "phone": "Upkar Hemeo Clinic",
    "hours": null,
    "image_url": "https://www.bing.com/maps/geoplat/REST/v1/Imagery/Map/RoadVibrant?ms=92,112&key=AnTcaqBi2ypp0xI-OZNi4W_ik2KhjgpqioTAtXLC8GzkMBQRMlyxvxyTnd5b73im&c=en-US&ur=in&da=n&logo=n&fmt=png&od=1&shading=hill&pp=23.617964,85.520607;dfp"
  },
  {
    "name": "Adarsh Digital Xray",
    "address": "Jhanda Chowk, Pradhan Complex, Gola Rd, opp. Raj Rasoi, Ramgarh Cantonment, Jharkhand",
    "phone": "Adarsh Digital Xray",
    "hours": null,
    "image_url": "https://www.bing.com/maps/geoplat/REST/v1/Imagery/Map/RoadVibrant?ms=92,112&key=AnTcaqBi2ypp0xI-OZNi4W_ik2KhjgpqioTAtXLC8GzkMBQRMlyxvxyTnd5b73im&c=en-US&ur=in&da=n&logo=n&fmt=png&od=1&shading=hill&pp=23.634422,85.514572;dfp"
  },
  {
    "name": "Nivaran Dental Clinic",
    "address": "Ramgarh, Jharkhand 829122",
    "phone": "Nivaran Dental Clinic",
    "hours": "Open· Closes 17:00",
    "image_url": null
  }
]