[
  {
    "name": "Dr. R. N. S. Mathur",
    "address": "Avas Vikas Colony Civil Lines, Rampur, Uttar Pradesh 244901",
    "phone": "Dr. R. N. S. Mathur",
    "hours": null,
    "image_url": "/th?id=OLC.J%2b14BtcT5pgZ5g480x360&w=92&h=112&c=8&rs=1&qlt=80&cdv=1&pid=Local"
  },
  {
    "name": "डॉक्टर सुमित मदान क्लिनिक Doctor Sumit Madaan Clinic' Rampur",
    "address": "Taxi Stand Rd, Adarsh Colony, Civil Lines, Rampur, Uttar Pradesh",
    "phone": "डॉक्टर सुमित मदान क्लिनिक Doctor Sumit Madaan Clinic' Rampur",
    "hours": null,
    "image_url": "https://www.bing.com/maps/geoplat/REST/v1/Imagery/Map/RoadVibrant?ms=92,112&key=AnTcaqBi2ypp0xI-OZNi4W_ik2KhjgpqioTAtXLC8GzkMBQRMlyxvxyTnd5b73im&c=en-US&ur=in&da=n&logo=n&fmt=png&od=1&shading=hill&pp=28.783001,79.017502;dfp"
  },
  {
    "name": "Abdul Rasheed Khan Clinic",
    "address": "Mehala Road, Mohalla Chipiyan Purana Ganj, Rampur, Uttar Pradesh 244901",
    "phone": "Abdul Rasheed Khan Clinic",
    "hours": null,
    "image_url": "https://www.bing.com/maps/geoplat/REST/v1/Imagery/Map/RoadVibrant?ms=92,112&key=AnTcaqBi2ypp0xI-OZNi4W_ik2KhjgpqioTAtXLC8GzkMBQRMlyxvxyTnd5b73im&c=en-US&ur=in&da=n&logo=n&fmt=png&od=1&shading=hill&pp=28.809231,79.029022;dfp"
  },
  {
    "name": "Dr Noor Clinic",
    "address": "Al Noor Clinic, Bareilly Gate Road, Rampur, Uttar Pradesh 244901",
    "phone": "Dr Noor Clinic",
    "hours": null,
    "image_url": "https://www.bing.com/maps/geoplat/REST/v1/Imagery/Map/RoadVibrant?ms=92,112&key=AnTcaqBi2ypp0xI-OZNi4W_ik2KhjgpqioTAtXLC8GzkMBQRMlyxvxyTnd5b73im&c=en-US&ur=in&da=n&logo=n&fmt=png&od=1&shading=hill&pp=28.81312,79.027679;dfp"
  },
  {
    "name": "Qadri Clinic",
    "address": "Sheeshgarh Mohalla, Goudi Talwab Masjid, Mansurpur, Bilaspur Road, Rampur, Uttar Pradesh 244921",
    "phone": "Qadri Clinic",
    "hours": null,
    "image_url": "https://www.bing.com/maps/geoplat/REST/v1/Imagery/Map/RoadVibrant?ms=92,112&key=AnTcaqBi2ypp0xI-OZNi4W_ik2KhjgpqioTAtXLC8GzkMBQRMlyxvxyTnd5b73im&c=en-US&ur=in&da=n&logo=n&fmt=png&od=1&shading=hill&pp=28.796066,79.018829;dfp"
  },
  {
    "name": "Nova Hospital",
    "address": "Shaukat Ali Road, Union Bank Of India, Adarsh Colony, Rampur, Uttar Pradesh 244901",
    "phone": "Nova Hospital",
    "hours": null,
    "image_url": "/th?id=OLC.zlqvfwnzgYK%2fZA480x360&w=92&h=112&c=8&rs=1&qlt=80&cdv=1&pid=Local"
  },
  {
    "name": "Talat khan",
    "address": "Nawab Gate, Care Clinic, Behind Mala Cinema, Rampur, Uttar Pradesh",
    "phone": "Talat khan",
    "hours": null,
    "image_url": "https://www.bing.com/maps/geoplat/REST/v1/Imagery/Map/RoadVibrant?ms=92,112&key=AnTcaqBi2ypp0xI-OZNi4W_ik2KhjgpqioTAtXLC8GzkMBQRMlyxvxyTnd5b73im&c=en-US&ur=in&da=n&logo=n&fmt=png&od=1&shading=hill&pp=28.810291,79.029221;dfp"
  },
  {
    "name": "Life Care Farma Clinic",
    "address": "New Basti, Near Choti Musjid, Patwai, Swar, Ramp, Rampur, Uttar Pradesh 244901",
    "phone": "Life Care Farma Clinic",
    "hours": null,
    "image_url": "https://www.bing.com/maps/geoplat/REST/v1/Imagery/Map/RoadVibrant?ms=92,112&key=AnTcaqBi2ypp0xI-OZNi4W_ik2KhjgpqioTAtXLC8GzkMBQRMlyxvxyTnd5b73im&c=en-US&ur=in&da=n&logo=n&fmt=png&od=1&shading=hill&pp=28.803656,79.012421;dfp"
  },
  {
    "name": "Acupuncture Clinic",
    "address": "Kothi Khas Bagh Road, Vishal Mega Mart, Rampur, Uttar Pradesh 244901",
    "phone": "Acupuncture Clinic",
    "hours": null,
    "image_url": "https://www.bing.com/maps/geoplat/REST/v1/Imagery/Map/RoadVibrant?ms=92,112&key=AnTcaqBi2ypp0xI-OZNi4W_ik2KhjgpqioTAtXLC8GzkMBQRMlyxvxyTnd5b73im&c=en-US&ur=in&da=n&logo=n&fmt=png&od=1&shading=hill&pp=28.794153,79.016029;dfp"
  },
  {
    "name": "Jerath Path Labs & Allergy Testing Centre",
    "address": "Aahil Medicose, Madina Masjid, Bareilly Gate Rd, Near Fawwara Chowk, Bhura Khan Colony, Rampur, Uttar P…",
    "phone": "Jerath Path Labs & Allergy Testing Centre",
    "hours": null,
    "image_url": null
  },
  {
    "name": "Dr Shubhra Pathology Laboratory",
    "address": "Shaukat Ali Road, Hdfc Bank, Ekta Vihar Civil Lines, Rampur, Uttar Pradesh 244901",
    "phone": "Dr Shubhra Pathology Laboratory",
    "hours": null,
    "image_url": "https://www.bing.com/maps/geoplat/REST/v1/Imagery/Map/RoadVibrant?ms=92,112&key=AnTcaqBi2ypp0xI-OZNi4W_ik2KhjgpqioTAtXLC8GzkMBQRMlyxvxyTnd5b73im&c=en-US&ur=in&da=n&logo=n&fmt=png&od=1&shading=hill&pp=28.790913,79.02166;dfp"
  },
  {
    "name": "Sl Ayucare Wellness Center",
    "address": "Sl Ayucare Wellness, Center, Tehsil Ghatampur, Moradabad Bypass Road, Near Gandhi Samadhi, Ram…",
    "phone": "Sl Ayucare Wellness Center",
    "hours": null,
    "image_url": null
  },
  {
    "name": "Rahmani Dawakhana",
    "address": "Near Bareilly Gate Road, Nazim Market, Kotwali Rampur, Rampur, Uttar Pradesh 244901",
    "phone": "Rahmani Dawakhana",
    "hours": null,
    "image_url": "https://www.bing.com/maps/geoplat/REST/v1/Imagery/Map/RoadVibrant?ms=92,112&key=AnTcaqBi2ypp0xI-OZNi4W_ik2KhjgpqioTAtXLC8GzkMBQRMlyxvxyTnd5b73im&c=en-US&ur=in&da=n&logo=n&fmt=png&od=1&shading=hill&pp=28.808159,79.02494;dfp"
  },
  {
    "name": "Dr Anurag Sighal Dentist",
    "address": "Mdr 49W, Masjid E Aqsa, Miston Ganj, Rampur, Uttar Pradesh 244901",
    "phone": "Dr Anurag Sighal Dentist",
    "hours": null,
    "image_url": "https://www.bing.com/maps/geoplat/REST/v1/Imagery/Map/RoadVibrant?ms=92,112&key=AnTcaqBi2ypp0xI-OZNi4W_ik2KhjgpqioTAtXLC8GzkMBQRMlyxvxyTnd5b73im&c=en-US&ur=in&da=n&logo=n&fmt=png&od=1&shading=hill&pp=28.808229,79.019173;dfp"
  },
  {
    "name": "DR. Harshita Putthia",
    "address": "Sarafa Bazar, Teen Gate, Rampur, Uttar Pradesh 244901",
    "phone": "DR. Harshita Putthia",
    "hours": null,
    "image_url": "https://www.bing.com/maps/geoplat/REST/v1/Imagery/Map/RoadVibrant?ms=92,112&key=AnTcaqBi2ypp0xI-OZNi4W_ik2KhjgpqioTAtXLC8GzkMBQRMlyxvxyTnd5b73im&c=en-US&ur=in&da=n&logo=n&fmt=png&od=1&shading=hill&pp=28.794413,79.022377;dfp"
  },
  {
    "name": "T.S.Unani & Ayurvedic Dawakhana",
    "address": "Kasim Khan KA Mahal, Purana Ganj, Rampur, Uttar Pradesh 244901",
    "phone": "T.S.Unani & Ayurvedic Dawakhana",
    "hours": null,
    "image_url": "https://www.bing.com/maps/geoplat/REST/v1/Imagery/Map/RoadVibrant?ms=92,112&key=AnTcaqBi2ypp0xI-OZNi4W_ik2KhjgpqioTAtXLC8GzkMBQRMlyxvxyTnd5b73im&c=en-US&ur=in&da=n&logo=n&fmt=png&od=1&shading=hill&pp=28.79966,79.018776;dfp"
  },
  {
    "name": "Balaji Clinic",
    "address": "Milak Road, Ismal Nagar, Rampur, Uttar Pradesh 244901",
    "phone": "Balaji Clinic",
    "hours": null,
    "image_url": "https://www.bing.com/maps/geoplat/REST/v1/Imagery/Map/RoadVibrant?ms=92,112&key=AnTcaqBi2ypp0xI-OZNi4W_ik2KhjgpqioTAtXLC8GzkMBQRMlyxvxyTnd5b73im&c=en-US&ur=in&da=n&logo=n&fmt=png&od=1&shading=hill&pp=28.661137,79.034744;dfp"
  },
  {
    "name": "Pradeep Kumar Gupta",
    "address": "Village Khod, Khod, Tehsil Sadar, Suar Road, Rampur, Uttar Pradesh 244901",
    "phone": "Pradeep Kumar Gupta",
    "hours": null,
    "image_url": "https://www.bing.com/maps/geoplat/REST/v1/Imagery/Map/RoadVibrant?ms=92,112&key=AnTcaqBi2ypp0xI-OZNi4W_ik2KhjgpqioTAtXLC8GzkMBQRMlyxvxyTnd5b73im&c=en-US&ur=in&da=n&logo=n&fmt=png&od=1&shading=hill&pp=29.10523,79.083771;dfp"
  }
]