[
  {
    "name": "Santevita Hospital",
    "address": "1 H. B. Road (Near Firayalal Chowk), Ranchi, Jharkhand 834001",
    "phone": "Santevita Hospital",
    "hours": null,
    "image_url": "/th?id=OLC.QmFScJe%2bvdAuDQ480x360&w=92&h=112&c=8&rs=1&qlt=80&cdv=1&pid=Local"
  },
  {
    "name": "Dr Parween Bano",
    "address": "Sri, Shree Gopal Complex, Court Rd, Deputy Para, Ahirtoli, Ranchi, Jharkhand",
    "phone": "Dr Parween Bano",
    "hours": "Closed· Opens 11:00",
    "image_url": "https://www.bing.com/maps/geoplat/REST/v1/Imagery/Map/RoadVibrant?ms=92,112&key=AnTcaqBi2ypp0xI-OZNi4W_ik2KhjgpqioTAtXLC8GzkMBQRMlyxvxyTnd5b73im&c=en-US&ur=in&da=n&logo=n&fmt=png&od=1&shading=hill&pp=23.37384,85.324028;dfp"
  },
  {
    "name": "Dr Swati's Clinic",
    "address": "Tiril Road, Ranchi, Jharkhand 834001",
    "phone": "Dr Swati's Clinic",
    "hours": "Open· Closes 20:00",
    "image_url": "/th?id=OLC.J6PNsfiMs%2bYW%2fg480x360&w=92&h=134&c=8&rs=1&qlt=80&cdv=1&pid=Local"
  },
  {
    "name": "Dr. Suresh Kumar Agarwalla",
    "address": "Burdwara Compound, J.C.Road & 1st Lane, Ranchi, Jharkhand",
    "phone": "Dr. Suresh Kumar Agarwalla",
    "hours": "Open· Closes 14:00",
    "image_url": "https://www.bing.com/maps/geoplat/REST/v1/Imagery/Map/RoadVibrant?ms=92,112&key=AnTcaqBi2ypp0xI-OZNi4W_ik2KhjgpqioTAtXLC8GzkMBQRMlyxvxyTnd5b73im&c=en-US&ur=in&da=n&logo=n&fmt=png&od=1&shading=hill&pp=23.358629,85.325836;dfp"
  },
  {
    "name": "Dr R.R Bhatta Charya",
    "address": "House-No-39/A Mandir Marg Hatia Station Road Near Durga Mandir Birsa Chowk. Ranchi, Ranchi, Jharkhan…",
    "phone": "Dr R.R Bhatta Charya",
    "hours": null,
    "image_url": "/th?id=OLC.kIW9Hlk7%2bf0sZQ480x360&w=92&h=112&c=8&rs=1&qlt=80&cdv=1&pid=Local"
  },
  {
    "name": "Dr S K Prasad",
    "address": "Laxmi Medical, Bank Of India Building, Kushwaha Chowk, Ratu Road, Ranchi, Jharkhand, Jharkhand 834001",
    "phone": "Dr S K Prasad",
    "hours": null,
    "image_url": "/th?id=OLC.GLbSXuuwzKjnjQ480x360&w=92&h=112&c=8&rs=1&qlt=80&cdv=1&pid=Local"
  },
  {
    "name": "Dr. M. C. Khaitan",
    "address": "Nani Enclave, Upper Bazar, Ranchi, Jharkhand 834001",
    "phone": "Dr. M. C. Khaitan",
    "hours": "Open· Closes 14:00",
    "image_url": null
  },
  {
    "name": "Dr. Rajiv Kumar",
    "address": "B146, Harmu Housing Colony, Ranchi. Landmark: Near Devi Foods Corner, Ranchi, Jharkhand",
    "phone": "Dr. Rajiv Kumar",
    "hours": "Closed· Opens 19:00",
    "image_url": null
  },
  {
    "name": "Dr Rakesh Agarwal orthopaedic surgeon",
    "address": "4 Floor, Commerce House, Opp Line Talab, Near Hotel Le Lac, Ranchi, Ranchi 834001",
    "phone": "Dr Rakesh Agarwal orthopaedic surgeon",
    "hours": "Open· Closes 14:00",
    "image_url": null
  },
  {
    "name": "Dr. Soumalya Golder",
    "address": "Shivam Complex, H.B Road, Ranchi. Landmark: Near Plaza Cinema, Ranchi, Jharkhand",
    "phone": "Dr. Soumalya Golder",
    "hours": null,
    "image_url": null
  },
  {
    "name": "Dr. Tushar Arya",
    "address": "Hehal, Ratu Road, Ranchi, Landmark: Near Honda Showroom, Ranchi, Jharkhand",
    "phone": "Dr. Tushar Arya",
    "hours": "Open· Closes 19:00",
    "image_url": "https://www.bing.com/maps/geoplat/REST/v1/Imagery/Map/RoadVibrant?ms=92,112&key=AnTcaqBi2ypp0xI-OZNi4W_ik2KhjgpqioTAtXLC8GzkMBQRMlyxvxyTnd5b73im&c=en-US&ur=in&da=n&logo=n&fmt=png&od=1&shading=hill&pp=23.384871,85.287849;dfp"
  },
  {
    "name": "Dr. Sunil Rngta",
    "address": "Seva Sadan Path, Upper Bazar, Ranchi, Jharkhand 834001",
    "phone": "Dr. Sunil Rngta",
    "hours": "Open· Closes 13:30",
    "image_url": "https://www.bing.com/maps/geoplat/REST/v1/Imagery/Map/RoadVibrant?ms=92,112&key=AnTcaqBi2ypp0xI-OZNi4W_ik2KhjgpqioTAtXLC8GzkMBQRMlyxvxyTnd5b73im&c=en-US&ur=in&da=n&logo=n&fmt=png&od=1&shading=hill&pp=23.370474,85.318062;dfp"
  },
  {
    "name": "Dr. Ravi's Healthcare",
    "address": "Near, Police Station, 2nd Floor, Ganesh Plaza, Ranchi, Jharkhand 834001",
    "phone": "Dr. Ravi's Healthcare",
    "hours": null,
    "image_url": "https://www.bing.com/maps/geoplat/REST/v1/Imagery/Map/RoadVibrant?ms=92,112&key=AnTcaqBi2ypp0xI-OZNi4W_ik2KhjgpqioTAtXLC8GzkMBQRMlyxvxyTnd5b73im&c=en-US&ur=in&da=n&logo=n&fmt=png&od=1&shading=hill&pp=23.371742,85.335953;dfp"
  },
  {
    "name": "Dr.harsh Kumar Ent Hospital",
    "address": "Ratu Road, Near Sai Tvs Showroom, Ranchi, Jharkhand, Jharkhand 834001",
    "phone": "Dr.harsh Kumar Ent Hospital",
    "hours": null,
    "image_url": null
  },
  {
    "name": "Diabetologist Dr. Ajay Chhabra, Chhabra Diabetes Centre",
    "address": "Ratu Road, Ranchi, Jharkhand 834005",
    "phone": "Diabetologist Dr. Ajay Chhabra, Chhabra Diabetes Centre",
    "hours": "Open· Closes 14:30",
    "image_url": null
  },
  {
    "name": "Dr. Nishith Kumar",
    "address": "H.B Road, Ranchi, Jharkhand",
    "phone": "Dr. Nishith Kumar",
    "hours": "Open· Closes 13:30",
    "image_url": "https://www.bing.com/maps/geoplat/REST/v1/Imagery/Map/RoadVibrant?ms=92,112&key=AnTcaqBi2ypp0xI-OZNi4W_ik2KhjgpqioTAtXLC8GzkMBQRMlyxvxyTnd5b73im&c=en-US&ur=in&da=n&logo=n&fmt=png&od=1&shading=hill&pp=23.371408,85.333809;dfp"
  },
  {
    "name": "Dr. Rakesh Kumar",
    "address": "H/223, Kilburn Colony, Ranchi, Jharkhand",
    "phone": "Dr. Rakesh Kumar",
    "hours": "Open· Closes 20:00",
    "image_url": "https://www.bing.com/maps/geoplat/REST/v1/Imagery/Map/RoadVibrant?ms=92,112&key=AnTcaqBi2ypp0xI-OZNi4W_ik2KhjgpqioTAtXLC8GzkMBQRMlyxvxyTnd5b73im&c=en-US&ur=in&da=n&logo=n&fmt=png&od=1&shading=hill&pp=23.383699,85.296593;dfp"
  },
  {
    "name": "Dr. Kailash Prasad",
    "address": "Church Road, Lower Bazaar, Ranchi, Jharkhand 834001",
    "phone": "Dr. Kailash Prasad",
    "hours": "Open· Closes 23:00",
    "image_url": null
  }
]