[
  {
    "name": "Dr. Praveen Singh Baghel",
    "address": "Near Ram Mandir Ratlam 457001, Ratlam, Madhya Pradesh, India, 457001, Ratlam, Madhya Pradesh 4570…",
    "phone": "Dr. Praveen Singh Baghel",
    "hours": "Closed· Opens 16:00",
    "image_url": "/th?id=OLC.lz6WFD%2bzqjVaIw480x360&w=92&h=134&c=8&rs=1&qlt=80&cdv=1&pid=Local"
  },
  {
    "name": "Nirmal Clinic",
    "address": "Nirmal Clinic(Dr. Nirmala Dangi), Ratlam, Madhya Pradesh 457001",
    "phone": "Nirmal Clinic",
    "hours": null,
    "image_url": "/th?id=OLC.XLIko8ZB0ZSlww480x360&w=92&h=112&c=8&rs=1&qlt=80&cdv=1&pid=Local"
  },
  {
    "name": "Dr. Tanmay Athawale | Devgad Medical Foundation",
    "address": "India Opp. SBI Bank, A/P Tal, Dist, Devgad, Devgarh, Maharashtra, India, 416613, Devgarh, Madhya Prades…",
    "phone": "Dr. Tanmay Athawale | Devgad Medical Foundation",
    "hours": "Open· Closes 12:00",
    "image_url": "/th?id=OLC.lR%2bReioRmcftEg480x360&w=92&h=112&c=8&rs=1&qlt=80&cdv=1&pid=Local"
  },
  {
    "name": "Dr. Bharat Kumrawat Internal Medicine",
    "address": "Pawecha Medcose, Lokendra Talkies Chauraha, Ratlam, Madhya Pradesh 457001",
    "phone": "Dr. Bharat Kumrawat Internal Medicine",
    "hours": "Open· Closes 13:00",
    "image_url": "https://www.bing.com/maps/geoplat/REST/v1/Imagery/Map/RoadVibrant?ms=92,134&key=AnTcaqBi2ypp0xI-OZNi4W_ik2KhjgpqioTAtXLC8GzkMBQRMlyxvxyTnd5b73im&c=en-US&ur=in&da=n&logo=n&fmt=png&od=1&shading=hill&pp=23.32881,75.037712;dfp"
  },
  {
    "name": "Dr. Gaurav Nahar",
    "address": "80 Feet Road, Ratnpuri, Ratlam, Madhya Pradesh",
    "phone": "Dr. Gaurav Nahar",
    "hours": "Closed· Opens Sep 29 at 09:00",
    "image_url": "https://www.bing.com/maps/geoplat/REST/v1/Imagery/Map/RoadVibrant?ms=92,112&key=AnTcaqBi2ypp0xI-OZNi4W_ik2KhjgpqioTAtXLC8GzkMBQRMlyxvxyTnd5b73im&c=en-US&ur=in&da=n&logo=n&fmt=png&od=1&shading=hill&pp=23.344227,75.025146;dfp"
  },
  {
    "name": "Dr. Shweta Jain Homeopathy",
    "address": "44 TIT Road, Ratlam, Madhya Pradesh 457001",
    "phone": "Dr. Shweta Jain Homeopathy",
    "hours": "Closed· Opens 15:30",
    "image_url": "/th?id=OLC.80IAtMCrM9b%2bJQ480x360&w=92&h=134&c=8&rs=1&qlt=80&cdv=1&pid=Local"
  },
  {
    "name": "Viniaran Clinic",
    "address": "413/A, Kasturba Nagar, Ratlam, Madhya Pradesh",
    "phone": "Viniaran Clinic",
    "hours": null,
    "image_url": "https://www.bing.com/maps/geoplat/REST/v1/Imagery/Map/RoadVibrant?ms=92,112&key=AnTcaqBi2ypp0xI-OZNi4W_ik2KhjgpqioTAtXLC8GzkMBQRMlyxvxyTnd5b73im&c=en-US&ur=in&da=n&logo=n&fmt=png&od=1&shading=hill&pp=23.337927,75.030724;dfp"
  },
  {
    "name": "Dr. Ragesh I R | Consultant Pain Physician | Rajagiri Hospital",
    "address": "Rajagiri Hospital, Department of Neurosciences, Kochi, Kerala, India, 683112, Kochi, Madhya Pradesh 683112",
    "phone": "Dr. Ragesh I R | Consultant Pain Physician | Rajagiri Hospital",
    "hours": "Open· Closes 17:00",
    "image_url": "https://www.bing.com/maps/geoplat/REST/v1/Imagery/Map/RoadVibrant?ms=92,134&key=AnTcaqBi2ypp0xI-OZNi4W_ik2KhjgpqioTAtXLC8GzkMBQRMlyxvxyTnd5b73im&c=en-US&ur=in&da=n&logo=n&fmt=png&od=1&shading=hill&pp=23.331167,75.036606;dfp"
  },
  {
    "name": "Ayush Multispeciality Homeopathic Clinic",
    "address": "Tata Nagar Corner, Bajna bus Stand, Ratlam, Madhya Pradesh, Madhya Pradesh 457001",
    "phone": "Ayush Multispeciality Homeopathic Clinic",
    "hours": null,
    "image_url": null
  },
  {
    "name": "Dr. Prahlad Patidar",
    "address": "80 Feet Road, Ratnpuri, Ratlam, Madhya Pradesh",
    "phone": "Dr. Prahlad Patidar",
    "hours": "Open· Closes 21:00",
    "image_url": null
  },
  {
    "name": "Mom's Clinic (Dr Shanu Agrawal)",
    "address": "Opposite of Silver Talkies, Near Subhas Chowk, Katni, Madhya Pradesh",
    "phone": "Mom's Clinic (Dr Shanu Agrawal)",
    "hours": null,
    "image_url": null
  },
  {
    "name": "Khandelwal Clinic",
    "address": "31/1 Ajanta Talkij Road Near Swad Exotica, Ratlam, Madhya Pradesh, Madhya Pradesh 457001",
    "phone": "Khandelwal Clinic",
    "hours": null,
    "image_url": null
  },
  {
    "name": "Dr. Rahul Chaturvedi (ENT Surgeon)",
    "address": "12, Narshing Building, Ranital Chowk, Madhya Pradesh",
    "phone": "Dr. Rahul Chaturvedi (ENT Surgeon)",
    "hours": null,
    "image_url": "https://www.bing.com/maps/geoplat/REST/v1/Imagery/Map/RoadVibrant?ms=92,112&key=AnTcaqBi2ypp0xI-OZNi4W_ik2KhjgpqioTAtXLC8GzkMBQRMlyxvxyTnd5b73im&c=en-US&ur=in&da=n&logo=n&fmt=png&od=1&shading=hill&pp=23.322309,75.035667;dfp"
  },
  {
    "name": "Vishwakarma Homoeo Clinic",
    "address": "8/2 Saimandir Get Ke Samne Shastri Nagar Ratlam, Ratlam, Madhya Pradesh 457001",
    "phone": "Vishwakarma Homoeo Clinic",
    "hours": null,
    "image_url": "https://www.bing.com/maps/geoplat/REST/v1/Imagery/Map/RoadVibrant?ms=92,112&key=AnTcaqBi2ypp0xI-OZNi4W_ik2KhjgpqioTAtXLC8GzkMBQRMlyxvxyTnd5b73im&c=en-US&ur=in&da=n&logo=n&fmt=png&od=1&shading=hill&pp=23.322739,75.035545;dfp"
  },
  {
    "name": "Bansal Classes Ratlam",
    "address": "Pushpak Market, Dalumodi Bazaar, Opposite Bhagat Radios, Ratlam, Madhya Pradesh 457001",
    "phone": "Bansal Classes Ratlam",
    "hours": "Open· Closes 21:30",
    "image_url": null
  }
]