[
  {
    "name": "Siiddhi Clinic",
    "address": "Lower Lane, Devrukh, Maharashtra 415804",
    "phone": "Siiddhi Clinic",
    "hours": null,
    "image_url": "https://www.bing.com/maps/geoplat/REST/v1/Imagery/Map/RoadVibrant?ms=92,112&key=AnTcaqBi2ypp0xI-OZNi4W_ik2KhjgpqioTAtXLC8GzkMBQRMlyxvxyTnd5b73im&c=en-US&ur=in&da=n&logo=n&fmt=png&od=1&shading=hill&pp=17.058281,73.619408;dfp"
  },
  {
    "name": "Dr. Uday Wandkar- Gynecologist",
    "address": "Wandkar Hospital, Near Lic Office, Haareghat Road, Ratnagiri, Maharashtra 415612",
    "phone": "Dr. Uday Wandkar- Gynecologist",
    "hours": "Open· Closes 14:00",
    "image_url": "https://www.bing.com/maps/geoplat/REST/v1/Imagery/Map/RoadVibrant?ms=92,134&key=AnTcaqBi2ypp0xI-OZNi4W_ik2KhjgpqioTAtXLC8GzkMBQRMlyxvxyTnd5b73im&c=en-US&ur=in&da=n&logo=n&fmt=png&od=1&shading=hill&pp=16.988459,73.29715;dfp"
  },
  {
    "name": "Dr Babasaseb Ambedakar Bhavan",
    "address": "Kolhapur Ratnagiri Road, Ratnagiri Nagar Parishad, Rajiwada, Ratnagiri, Maharashtra 415612",
    "phone": "Dr Babasaseb Ambedakar Bhavan",
    "hours": null,
    "image_url": "https://www.bing.com/maps/geoplat/REST/v1/Imagery/Map/RoadVibrant?ms=92,112&key=AnTcaqBi2ypp0xI-OZNi4W_ik2KhjgpqioTAtXLC8GzkMBQRMlyxvxyTnd5b73im&c=en-US&ur=in&da=n&logo=n&fmt=png&od=1&shading=hill&pp=16.989037,73.298775;dfp"
  },
  {
    "name": "Swasanvad Clinic",
    "address": "Swasanvad Clinic Yashoda Niwas, Shanti Nagar, Kajar Ghati Road, Ratnagiri, Maharashtra, Maharashtra 415612",
    "phone": "Swasanvad Clinic",
    "hours": null,
    "image_url": "https://www.bing.com/maps/geoplat/REST/v1/Imagery/Map/RoadVibrant?ms=92,112&key=AnTcaqBi2ypp0xI-OZNi4W_ik2KhjgpqioTAtXLC8GzkMBQRMlyxvxyTnd5b73im&c=en-US&ur=in&da=n&logo=n&fmt=png&od=1&shading=hill&pp=16.99217,73.292213;dfp"
  },
  {
    "name": "Swaroop Clinic",
    "address": "Bandar Road, Gandhi Colony Tilak Ali, Ratnagiri, Maharashtra 415612",
    "phone": "Swaroop Clinic",
    "hours": null,
    "image_url": "https://www.bing.com/maps/geoplat/REST/v1/Imagery/Map/RoadVibrant?ms=92,112&key=AnTcaqBi2ypp0xI-OZNi4W_ik2KhjgpqioTAtXLC8GzkMBQRMlyxvxyTnd5b73im&c=en-US&ur=in&da=n&logo=n&fmt=png&od=1&shading=hill&pp=16.994293,73.293297;dfp"
  },
  {
    "name": "Khedekar Clinic",
    "address": "Subhash Road, Kibe Sankul, Gokhale Naka, Ratnagiri, Maharashtra 415615",
    "phone": "Khedekar Clinic",
    "hours": null,
    "image_url": "https://www.bing.com/maps/geoplat/REST/v1/Imagery/Map/RoadVibrant?ms=92,112&key=AnTcaqBi2ypp0xI-OZNi4W_ik2KhjgpqioTAtXLC8GzkMBQRMlyxvxyTnd5b73im&c=en-US&ur=in&da=n&logo=n&fmt=png&od=1&shading=hill&pp=16.994532,73.293648;dfp"
  },
  {
    "name": "Dr Shrikrishna Tavade Clinic",
    "address": "Kolhapur Ratnagiri Road, St Rest House, Jain Nagar, Ratnagiri, Maharashtra 415612",
    "phone": "Dr Shrikrishna Tavade Clinic",
    "hours": null,
    "image_url": "https://www.bing.com/maps/geoplat/REST/v1/Imagery/Map/RoadVibrant?ms=92,112&key=AnTcaqBi2ypp0xI-OZNi4W_ik2KhjgpqioTAtXLC8GzkMBQRMlyxvxyTnd5b73im&c=en-US&ur=in&da=n&logo=n&fmt=png&od=1&shading=hill&pp=16.990749,73.308716;dfp"
  },
  {
    "name": "Dr Matin Prakar",
    "address": "828, Shivaji Nagar, Ratnagiri, Maharashtra",
    "phone": "Dr Matin Prakar",
    "hours": "Closed· Opens 11:00",
    "image_url": "https://www.bing.com/maps/geoplat/REST/v1/Imagery/Map/RoadVibrant?ms=92,134&key=AnTcaqBi2ypp0xI-OZNi4W_ik2KhjgpqioTAtXLC8GzkMBQRMlyxvxyTnd5b73im&c=en-US&ur=in&da=n&logo=n&fmt=png&od=1&shading=hill&pp=16.991199,73.316025;dfp"
  },
  {
    "name": "Dr Phansopkar Clinic Dawakhana Open 24 hrs, General Family Health Care Centre @House No:432-Rajiwada",
    "address": "House No: 432-Rajiwada, Ratnagiri City, Near Kadri Masjid, Maharashtra",
    "phone": "Dr Phansopkar Clinic Dawakhana Open 24 hrs, General Family Health Care Centre @House No:432-Rajiwada",
    "hours": null,
    "image_url": "https://www.bing.com/maps/geoplat/REST/v1/Imagery/Map/RoadVibrant?ms=92,112&key=AnTcaqBi2ypp0xI-OZNi4W_ik2KhjgpqioTAtXLC8GzkMBQRMlyxvxyTnd5b73im&c=en-US&ur=in&da=n&logo=n&fmt=png&od=1&shading=hill&pp=16.991573,73.287376;dfp"
  },
  {
    "name": "Madhavbaug Clinic",
    "address": "719, C/o- Mr. Sanjay Mahagaonkar, Shivajinagar, Ratnagiri - 415639, opp. Bank of India Zonal Office, Rat…",
    "phone": "Madhavbaug Clinic",
    "hours": null,
    "image_url": "https://www.bing.com/maps/geoplat/REST/v1/Imagery/Map/RoadVibrant?ms=92,112&key=AnTcaqBi2ypp0xI-OZNi4W_ik2KhjgpqioTAtXLC8GzkMBQRMlyxvxyTnd5b73im&c=en-US&ur=in&da=n&logo=n&fmt=png&od=1&shading=hill&pp=16.989567,73.319344;dfp"
  },
  {
    "name": "Dr. Abhay Narsingrao Dhulap",
    "address": "G 4 Balasaheb Kher Sankul Tilak Lane Ratnagiri, Ratnagiri",
    "phone": "Dr. Abhay Narsingrao Dhulap",
    "hours": "Open· Closes 13:00",
    "image_url": null
  },
  {
    "name": "Neuro Surgeon",
    "address": "A-1 Ganesh Bhuvan Joshi Paland, Ratnagiri, Maharashtra 415612",
    "phone": "Neuro Surgeon",
    "hours": null,
    "image_url": "https://www.bing.com/maps/geoplat/REST/v1/Imagery/Map/RoadVibrant?ms=92,112&key=AnTcaqBi2ypp0xI-OZNi4W_ik2KhjgpqioTAtXLC8GzkMBQRMlyxvxyTnd5b73im&c=en-US&ur=in&da=n&logo=n&fmt=png&od=1&shading=hill&pp=16.999535,73.293205;dfp"
  },
  {
    "name": "Atharv Clinic",
    "address": "Kolhapur Highway, Sanjay Bhavan, Malnaka, Ratnagiri, Maharashtra 415612",
    "phone": "Atharv Clinic",
    "hours": null,
    "image_url": "https://www.bing.com/maps/geoplat/REST/v1/Imagery/Map/RoadVibrant?ms=92,112&key=AnTcaqBi2ypp0xI-OZNi4W_ik2KhjgpqioTAtXLC8GzkMBQRMlyxvxyTnd5b73im&c=en-US&ur=in&da=n&logo=n&fmt=png&od=1&shading=hill&pp=16.989918,73.309868;dfp"
  },
  {
    "name": "Shree Mangesh Clinic",
    "address": "Kolhapur Ratnagiri Road, Abhyudhya Nagar, Ratnagiri, Maharashtra 415612",
    "phone": "Shree Mangesh Clinic",
    "hours": null,
    "image_url": "https://www.bing.com/maps/geoplat/REST/v1/Imagery/Map/RoadVibrant?ms=92,112&key=AnTcaqBi2ypp0xI-OZNi4W_ik2KhjgpqioTAtXLC8GzkMBQRMlyxvxyTnd5b73im&c=en-US&ur=in&da=n&logo=n&fmt=png&od=1&shading=hill&pp=16.989908,73.309868;dfp"
  },
  {
    "name": "Trimarmiya Ayurved Chikitsa And Panchakarma Centre",
    "address": "Mal Naka Near Hotel Vivek, Main Road, Ratnagiri, Ratnagiri, Maharashtra, Maharashtra 415612",
    "phone": "Trimarmiya Ayurved Chikitsa And Panchakarma Centre",
    "hours": "Opens in 5 mins",
    "image_url": null
  }
]