[
  {
    "name": "Swasthya Swaraj Clinic",
    "address": "J356+98M, Kaniguma, Odisha",
    "phone": "Swasthya Swaraj Clinic",
    "hours": null,
    "image_url": "https://www.bing.com/maps/geoplat/REST/v1/Imagery/Map/RoadVibrant?ms=92,112&key=AnTcaqBi2ypp0xI-OZNi4W_ik2KhjgpqioTAtXLC8GzkMBQRMlyxvxyTnd5b73im&c=en-US&ur=in&da=n&logo=n&fmt=png&od=1&shading=hill&pp=19.612724,83.059319;dfp"
  },
  {
    "name": "Bade Satyanarayana - Ayurvedic Doctor",
    "address": "Sangamvalasa (Village), Parvathipuram, Andhra Pradesh 535522",
    "phone": "Bade Satyanarayana - Ayurvedic Doctor",
    "hours": null,
    "image_url": "/th?id=OLC.ukSf4iWK3T9dRQ480x360&w=92&h=112&c=8&rs=1&qlt=80&cdv=1&pid=Local"
  },
  {
    "name": "MJ Multi Speciality Clinic and Diagnostic Center",
    "address": "Near Icici Bank Infront of Sunday Market, Junagarh, Odisha",
    "phone": "MJ Multi Speciality Clinic and Diagnostic Center",
    "hours": null,
    "image_url": "https://www.bing.com/maps/geoplat/REST/v1/Imagery/Map/RoadVibrant?ms=92,112&key=AnTcaqBi2ypp0xI-OZNi4W_ik2KhjgpqioTAtXLC8GzkMBQRMlyxvxyTnd5b73im&c=en-US&ur=in&da=n&logo=n&fmt=png&od=1&shading=hill&pp=19.8605,82.938004;dfp"
  },
  {
    "name": "Hota Pathology Clinic",
    "address": "Block Colony, Collectorate Rd, Rayagada, Odisha",
    "phone": "Hota Pathology Clinic",
    "hours": null,
    "image_url": "https://www.bing.com/maps/geoplat/REST/v1/Imagery/Map/RoadVibrant?ms=92,112&key=AnTcaqBi2ypp0xI-OZNi4W_ik2KhjgpqioTAtXLC8GzkMBQRMlyxvxyTnd5b73im&c=en-US&ur=in&da=n&logo=n&fmt=png&od=1&shading=hill&pp=19.171377,83.420403;dfp"
  },
  {
    "name": "Ramakrishna Mission Dispensary",
    "address": "Hatamuniguda Rd, Kinarikota, Odisha",
    "phone": "Ramakrishna Mission Dispensary",
    "hours": null,
    "image_url": "https://www.bing.com/maps/geoplat/REST/v1/Imagery/Map/RoadVibrant?ms=92,112&key=AnTcaqBi2ypp0xI-OZNi4W_ik2KhjgpqioTAtXLC8GzkMBQRMlyxvxyTnd5b73im&c=en-US&ur=in&da=n&logo=n&fmt=png&od=1&shading=hill&pp=19.58477,83.49781;dfp"
  },
  {
    "name": "Suresh Diagnostic Centre",
    "address": "Sh4, Rayagada, Odisha 765001",
    "phone": "Suresh Diagnostic Centre",
    "hours": null,
    "image_url": "https://www.bing.com/maps/geoplat/REST/v1/Imagery/Map/RoadVibrant?ms=92,112&key=AnTcaqBi2ypp0xI-OZNi4W_ik2KhjgpqioTAtXLC8GzkMBQRMlyxvxyTnd5b73im&c=en-US&ur=in&da=n&logo=n&fmt=png&od=1&shading=hill&pp=19.178047,83.413483;dfp"
  },
  {
    "name": "Sai Stuti Homoeo Clinic",
    "address": "1st Ln, Near Life Line Medicas, Nehru Nagar, Rayagada, Odisha",
    "phone": "Sai Stuti Homoeo Clinic",
    "hours": null,
    "image_url": "https://www.bing.com/maps/geoplat/REST/v1/Imagery/Map/RoadVibrant?ms=92,112&key=AnTcaqBi2ypp0xI-OZNi4W_ik2KhjgpqioTAtXLC8GzkMBQRMlyxvxyTnd5b73im&c=en-US&ur=in&da=n&logo=n&fmt=png&od=1&shading=hill&pp=19.290754,84.796082;dfp"
  },
  {
    "name": "Patanjali Chikitsalay",
    "address": "Ground Floor Krishna Plaza Complex, Near Khurana Lic Office, Bhawanipatna, Odisha 766001",
    "phone": "Patanjali Chikitsalay",
    "hours": "Open· Closes 21:00",
    "image_url": null
  },
  {
    "name": "Sushama Clinic",
    "address": "Sh16, Bhawanipatna, Odisha 766001",
    "phone": "Sushama Clinic",
    "hours": null,
    "image_url": "https://www.bing.com/maps/geoplat/REST/v1/Imagery/Map/RoadVibrant?ms=92,112&key=AnTcaqBi2ypp0xI-OZNi4W_ik2KhjgpqioTAtXLC8GzkMBQRMlyxvxyTnd5b73im&c=en-US&ur=in&da=n&logo=n&fmt=png&od=1&shading=hill&pp=19.909681,83.164474;dfp"
  },
  {
    "name": "Dr R K Patra. Majhigouri Multispeciality Dental Clinic",
    "address": "5cc7+c87, Trupti Hotel Rd, New Colony, Odisha 765001",
    "phone": "Dr R K Patra. Majhigouri Multispeciality Dental Clinic",
    "hours": null,
    "image_url": "https://www.bing.com/maps/geoplat/REST/v1/Imagery/Map/RoadVibrant?ms=92,112&key=AnTcaqBi2ypp0xI-OZNi4W_ik2KhjgpqioTAtXLC8GzkMBQRMlyxvxyTnd5b73im&c=en-US&ur=in&da=n&logo=n&fmt=png&od=1&shading=hill&pp=19.1754,83.410896;dfp"
  },
  {
    "name": "Government Ayush Dispensary Marathiguda",
    "address": "Banasadhara Kasibugga Road, गुनुपुर, Odisha 765022",
    "phone": "Government Ayush Dispensary Marathiguda",
    "hours": null,
    "image_url": "https://www.bing.com/maps/geoplat/REST/v1/Imagery/Map/RoadVibrant?ms=92,112&key=AnTcaqBi2ypp0xI-OZNi4W_ik2KhjgpqioTAtXLC8GzkMBQRMlyxvxyTnd5b73im&c=en-US&ur=in&da=n&logo=n&fmt=png&od=1&shading=hill&pp=19.066401,83.818398;dfp"
  },
  {
    "name": "Banadurga Pathology",
    "address": "Main Road, Rama Krishna Nagar, Rayagada, Odisha 765001",
    "phone": "Banadurga Pathology",
    "hours": null,
    "image_url": null
  },
  {
    "name": "Satya Sai Clinic",
    "address": "Salur Road, Salur, Andhra Pradesh 535591",
    "phone": "Satya Sai Clinic",
    "hours": null,
    "image_url": "https://www.bing.com/maps/geoplat/REST/v1/Imagery/Map/RoadVibrant?ms=92,112&key=AnTcaqBi2ypp0xI-OZNi4W_ik2KhjgpqioTAtXLC8GzkMBQRMlyxvxyTnd5b73im&c=en-US&ur=in&da=n&logo=n&fmt=png&od=1&shading=hill&pp=18.51709,83.206764;dfp"
  }
]