[
  {
    "name": "Dr. Pawan Gupta",
    "address": "Vedanta Hospital, Chungi, Near Dharuhera, Madhu Vihar, Rewari, Haryana",
    "phone": "Dr. Pawan Gupta",
    "hours": null,
    "image_url": "https://www.bing.com/maps/geoplat/REST/v1/Imagery/Map/RoadVibrant?ms=92,112&key=AnTcaqBi2ypp0xI-OZNi4W_ik2KhjgpqioTAtXLC8GzkMBQRMlyxvxyTnd5b73im&c=en-US&ur=in&da=n&logo=n&fmt=png&od=1&shading=hill&pp=28.196909,76.623962;dfp"
  },
  {
    "name": "Shuddhi Clinic Rewari",
    "address": "Shop No. 192, New Anaj Mandi, Near Kishan Bhawan, Rewari, Haryana 123401",
    "phone": "Shuddhi Clinic Rewari",
    "hours": "Open· Closes 18:00",
    "image_url": "/th?id=OLC.9%2fy6Vk6X4kqodQ480x360&w=92&h=134&c=8&rs=1&qlt=80&cdv=1&pid=Local"
  },
  {
    "name": "Apollo Clinic Rewari",
    "address": "Apollo Clinic, Garhi Bolni Road, Near Public Health Office, Rewari, Haryana 123401",
    "phone": "Apollo Clinic Rewari",
    "hours": "Open· Closes 20:00",
    "image_url": "/th?id=OLC.I8eOjWTyN7tYKQ480x360&w=92&h=134&c=8&rs=1&qlt=80&cdv=1&pid=Local"
  },
  {
    "name": "DR.Neelkamal, Stoamch, Intestine and Liver Hospital Rewari",
    "address": "Shiv Complex, 1, Garhi Bolni Rd, Krishna Nagar, Rewari, Haryana",
    "phone": "DR.Neelkamal, Stoamch, Intestine and Liver Hospital Rewari",
    "hours": null,
    "image_url": "/th?id=OLC.7pZn3r3S%2bV%2f7Aw480x360&w=92&h=112&c=8&rs=1&qlt=80&cdv=1&pid=Local"
  },
  {
    "name": "Dr R. B. Yadav Hospital Maternity, Multispecialty And Trauma Centre",
    "address": "Near Dharuhera Chungi, Circular Road, Rewari, Haryana 123401",
    "phone": "Dr R. B. Yadav Hospital Maternity, Multispecialty And Trauma Centre",
    "hours": null,
    "image_url": "/th?id=OLC.W4NMJxkoDrpnaw480x360&w=92&h=112&c=8&rs=1&qlt=80&cdv=1&pid=Local"
  },
  {
    "name": "Verma Hospital & Piles Care",
    "address": "Opposite Jaildar Building, Jhajjhar Road, Rewari, Haryana, Haryana 123401",
    "phone": "Verma Hospital & Piles Care",
    "hours": null,
    "image_url": "/th?id=OLC.lKxXBqusFr6Iwg480x360&w=92&h=112&c=8&rs=1&qlt=80&cdv=1&pid=Local"
  },
  {
    "name": "Dr. Poonam Jainr | General Physician Nd Obs, Gynae",
    "address": "R-205, Model Town, Rewari, Haryana, Rewari, India, 123401, Rewari, Madhya Pradesh 123401",
    "phone": "Dr. Poonam Jainr | General Physician Nd Obs, Gynae",
    "hours": "Open· Closes 18:00",
    "image_url": null
  },
  {
    "name": "Dr. Deepak Sharma- Dermatologist In Rewari",
    "address": "Asha Skin Clinic, Near Dr. Ved Prakash Hospital, Old Court Road, Model Town, Rewari, Haryana 123401",
    "phone": "Dr. Deepak Sharma- Dermatologist In Rewari",
    "hours": "Open· Closes 18:30",
    "image_url": null
  },
  {
    "name": "Dr. Ravi Yadav",
    "address": "4691/A, Mukhtiwada, Ambedkar Chowk, Rewari, Haryana",
    "phone": "Dr. Ravi Yadav",
    "hours": "Open· Closes 14:00",
    "image_url": null
  },
  {
    "name": "Dr. Ashwani Kumar Yadav | Best Cardiologist in Krishna Nagar Rewari",
    "address": "Village Gangaycha Ja, Rewari, Haryana 123401",
    "phone": "Dr. Ashwani Kumar Yadav | Best Cardiologist in Krishna Nagar Rewari",
    "hours": null,
    "image_url": "https://www.bing.com/maps/geoplat/REST/v1/Imagery/Map/RoadVibrant?ms=92,112&key=AnTcaqBi2ypp0xI-OZNi4W_ik2KhjgpqioTAtXLC8GzkMBQRMlyxvxyTnd5b73im&c=en-US&ur=in&da=n&logo=n&fmt=png&od=1&shading=hill&pp=28.171402,76.608795;dfp"
  },
  {
    "name": "Dr. Shiv K Goel",
    "address": "Circular Road, Rewari, Haryana 123401",
    "phone": "Dr. Shiv K Goel",
    "hours": null,
    "image_url": "https://www.bing.com/maps/geoplat/REST/v1/Imagery/Map/RoadVibrant?ms=92,112&key=AnTcaqBi2ypp0xI-OZNi4W_ik2KhjgpqioTAtXLC8GzkMBQRMlyxvxyTnd5b73im&c=en-US&ur=in&da=n&logo=n&fmt=png&od=1&shading=hill&pp=28.203178,76.61795;dfp"
  },
  {
    "name": "Saini Clinic",
    "address": "Shadusha Nagar, Shatish Public School, Turkiyawas Road, Rewari, Haryana 123401",
    "phone": "Saini Clinic",
    "hours": null,
    "image_url": null
  },
  {
    "name": "Ahuja Clinic",
    "address": "Railway Chowk, Rewari Railway Station, Railway Road, Khasha Pur, Rewari, Haryana 123401",
    "phone": "Ahuja Clinic",
    "hours": null,
    "image_url": "https://www.bing.com/maps/geoplat/REST/v1/Imagery/Map/RoadVibrant?ms=92,112&key=AnTcaqBi2ypp0xI-OZNi4W_ik2KhjgpqioTAtXLC8GzkMBQRMlyxvxyTnd5b73im&c=en-US&ur=in&da=n&logo=n&fmt=png&od=1&shading=hill&pp=28.202101,76.612503;dfp"
  },
  {
    "name": "Dr Gayatri Homoeopathic Hospital",
    "address": "Shop No.305, Old Court Road, Model Town, Rewari, Haryana 123401",
    "phone": "Dr Gayatri Homoeopathic Hospital",
    "hours": null,
    "image_url": null
  },
  {
    "name": "Nihal Clinic",
    "address": "1077, 1077, Bawal Chouk, Samanay Bus Stand, Circular Road, Khasha Pur, Rewari, Haryana 123401",
    "phone": "Nihal Clinic",
    "hours": null,
    "image_url": "https://www.bing.com/maps/geoplat/REST/v1/Imagery/Map/RoadVibrant?ms=92,112&key=AnTcaqBi2ypp0xI-OZNi4W_ik2KhjgpqioTAtXLC8GzkMBQRMlyxvxyTnd5b73im&c=en-US&ur=in&da=n&logo=n&fmt=png&od=1&shading=hill&pp=28.197449,76.618492;dfp"
  },
  {
    "name": "Best ENT Doctor in Rewari",
    "address": "Abhinav ENT Hospital, Near Vaishno Hotel, in Front of Nagpal Sound, Bawal Road, Rewari, Haryana 123401",
    "phone": "Best ENT Doctor in Rewari",
    "hours": "Open 24 hours",
    "image_url": null
  },
  {
    "name": "Kent Homeopathy Chikitsalaya",
    "address": "None, Rewari, Madhya Pradesh 123401",
    "phone": "Kent Homeopathy Chikitsalaya",
    "hours": "Open· Closes 21:30",
    "image_url": null
  },
  {
    "name": "Dr Manish Yadav ENT Hospital - Best ENT Hospital  - ENT Clinic",
    "address": "Circular Rd, Opposite Main Bus Stand, Model Town, Rewari, Haryana",
    "phone": "Dr Manish Yadav ENT Hospital - Best ENT Hospital  - ENT Clinic",
    "hours": null,
    "image_url": "https://www.bing.com/maps/geoplat/REST/v1/Imagery/Map/RoadVibrant?ms=92,112&key=AnTcaqBi2ypp0xI-OZNi4W_ik2KhjgpqioTAtXLC8GzkMBQRMlyxvxyTnd5b73im&c=en-US&ur=in&da=n&logo=n&fmt=png&od=1&shading=hill&pp=28.215731,76.494698;dfp"
  }
]