[
  {
    "name": "Dr. Suraj Thakuriya",
    "address": "Housing Board Colony, Madhya Pradesh 486001, India, Rewa, Madhya Pradesh, Madhya Pradesh 486001",
    "phone": "Dr. Suraj Thakuriya",
    "hours": "Open· Closes 19:00",
    "image_url": "/th?id=OLC.SYPrDfjYudy%2fog480x360&w=92&h=134&c=8&rs=1&qlt=80&cdv=1&pid=Local"
  },
  {
    "name": "Dr. Akshay Shrivastava",
    "address": "No F6 Sirmour Road, Rewa, Madhya Pradesh 486001",
    "phone": "Dr. Akshay Shrivastava",
    "hours": null,
    "image_url": "https://www.bing.com/maps/geoplat/REST/v1/Imagery/Map/RoadVibrant?ms=92,112&key=AnTcaqBi2ypp0xI-OZNi4W_ik2KhjgpqioTAtXLC8GzkMBQRMlyxvxyTnd5b73im&c=en-US&ur=in&da=n&logo=n&fmt=png&od=1&shading=hill&pp=24.540876,81.295395;dfp"
  },
  {
    "name": "Dr. Dayashankar Parouha",
    "address": "Maihar - Rewa Road, Rewa, Madhya Pradesh",
    "phone": "Dr. Dayashankar Parouha",
    "hours": "Closed· Opens 11:00",
    "image_url": "/th?id=OLC.VokPeSFfVVMHzQ480x360&w=92&h=112&c=8&rs=1&qlt=80&cdv=1&pid=Local"
  },
  {
    "name": "Dr anuradha mishra",
    "address": "Shop no, 11, University Rd, Subhash Chowk, Rewa, Madhya Pradesh",
    "phone": "Dr anuradha mishra",
    "hours": null,
    "image_url": "https://www.bing.com/maps/geoplat/REST/v1/Imagery/Map/RoadVibrant?ms=92,112&key=AnTcaqBi2ypp0xI-OZNi4W_ik2KhjgpqioTAtXLC8GzkMBQRMlyxvxyTnd5b73im&c=en-US&ur=in&da=n&logo=n&fmt=png&od=1&shading=hill&pp=24.543764,81.30127;dfp"
  },
  {
    "name": "Dr. Vishwa Deepak Tripathi",
    "address": "Maihar - Rewa Road, Rewa, Madhya Pradesh",
    "phone": "Dr. Vishwa Deepak Tripathi",
    "hours": "Closed· Opens 11:00",
    "image_url": "https://www.bing.com/maps/geoplat/REST/v1/Imagery/Map/RoadVibrant?ms=92,112&key=AnTcaqBi2ypp0xI-OZNi4W_ik2KhjgpqioTAtXLC8GzkMBQRMlyxvxyTnd5b73im&c=en-US&ur=in&da=n&logo=n&fmt=png&od=1&shading=hill&pp=24.53982,81.285919;dfp"
  },
  {
    "name": "Dr Ak Mishra",
    "address": "Allahabad Road, Hpcl, Sirmour Chauraha, Rewa, Madhya Pradesh 486001",
    "phone": "Dr Ak Mishra",
    "hours": null,
    "image_url": "https://www.bing.com/maps/geoplat/REST/v1/Imagery/Map/RoadVibrant?ms=92,112&key=AnTcaqBi2ypp0xI-OZNi4W_ik2KhjgpqioTAtXLC8GzkMBQRMlyxvxyTnd5b73im&c=en-US&ur=in&da=n&logo=n&fmt=png&od=1&shading=hill&pp=24.543072,81.300163;dfp"
  },
  {
    "name": "Dr. S.K Tripathi",
    "address": "Superspeciality Hospital, Rewa, Madhya Pradesh 486001",
    "phone": "Dr. S.K Tripathi",
    "hours": "Closed· Opens 15:00",
    "image_url": null
  },
  {
    "name": "Dr. Rahul Kundar - Orthopaedic Surgeon",
    "address": "Prarthana Hospital, PTS Rd, Near New Bus Stand, Rewa, Madhya Pradesh 486001",
    "phone": "Dr. Rahul Kundar - Orthopaedic Surgeon",
    "hours": "Open 24 hours",
    "image_url": null
  },
  {
    "name": "Dr. Jeetesh Gawande",
    "address": "F-20, Old Doctors Colony, Medical College Campus, Rewa, Madhya Pradesh",
    "phone": "Dr. Jeetesh Gawande",
    "hours": "Closed· Opens 15:00",
    "image_url": null
  },
  {
    "name": "Dr. Sanjay Mishra Neuropsychiatry Clinic",
    "address": "Goyal Market (Near Bal Bharti School) Sirmaur Chauraha Rewa, Rewa, Madhya Pradesh 486001",
    "phone": "Dr. Sanjay Mishra Neuropsychiatry Clinic",
    "hours": "Open· Closes 14:00",
    "image_url": null
  },
  {
    "name": "Dr. Amitabh Dwivedi",
    "address": "18, RIT Building, Sirmour Chauk, Rewa, Madhya Pradesh",
    "phone": "Dr. Amitabh Dwivedi",
    "hours": "Closed· Opens 16:00",
    "image_url": "https://www.bing.com/maps/geoplat/REST/v1/Imagery/Map/RoadVibrant?ms=92,112&key=AnTcaqBi2ypp0xI-OZNi4W_ik2KhjgpqioTAtXLC8GzkMBQRMlyxvxyTnd5b73im&c=en-US&ur=in&da=n&logo=n&fmt=png&od=1&shading=hill&pp=24.547432,81.3022;dfp"
  },
  {
    "name": "Dr. Gaurav Tripathi",
    "address": "29, Tansen Complex, Sirmour Chauraha. Landmark: Near L.I.C Office, Rewa, Madhya Pradesh",
    "phone": "Dr. Gaurav Tripathi",
    "hours": "Open· Closes 19:00",
    "image_url": "https://www.bing.com/maps/geoplat/REST/v1/Imagery/Map/RoadVibrant?ms=92,112&key=AnTcaqBi2ypp0xI-OZNi4W_ik2KhjgpqioTAtXLC8GzkMBQRMlyxvxyTnd5b73im&c=en-US&ur=in&da=n&logo=n&fmt=png&od=1&shading=hill&pp=24.546581,81.303719;dfp"
  },
  {
    "name": "Dr Batra's Homeopathy",
    "address": "Ground Floor, John Towers, Narendra Nagar, Rewa, Madhya Pradesh 486001",
    "phone": "Dr Batra's Homeopathy",
    "hours": "Closed· Opens 11:00",
    "image_url": null
  },
  {
    "name": "Indira IVF",
    "address": "1st Floor, Angira Empire, Near Sirmour Chowk, Allahabad Rd, Urrahat, Hari Bhushan Nagar, Rewa, Madhya Prad…",
    "phone": "Indira IVF",
    "hours": "Open· Closes 18:00",
    "image_url": null
  },
  {
    "name": "Kiran Homoeopathic Clinic",
    "address": "Nehru Nagar, Rewa, Madhya Pradesh",
    "phone": "Kiran Homoeopathic Clinic",
    "hours": null,
    "image_url": "https://www.bing.com/maps/geoplat/REST/v1/Imagery/Map/RoadVibrant?ms=92,112&key=AnTcaqBi2ypp0xI-OZNi4W_ik2KhjgpqioTAtXLC8GzkMBQRMlyxvxyTnd5b73im&c=en-US&ur=in&da=n&logo=n&fmt=png&od=1&shading=hill&pp=24.515781,81.272118;dfp"
  },
  {
    "name": "Khare Anorectal Clinic",
    "address": "Shree Medical Store, opp, Naubasta Rd, Padra, Rewa, Madhya Pradesh",
    "phone": "Khare Anorectal Clinic",
    "hours": null,
    "image_url": null
  },
  {
    "name": "Dr.Saurabh Patel - Best Child Specialist  | Best Pediatrician and Neonatologist",
    "address": "Besid Banarasii Hotel, Infront Of IG Office, Civil Line Turn, Sirmour Rd, Chouraha, Rewa, Madhya Pradesh",
    "phone": "Dr.Saurabh Patel - Best Child Specialist  | Best Pediatrician and Neonatologist",
    "hours": null,
    "image_url": "https://www.bing.com/maps/geoplat/REST/v1/Imagery/Map/RoadVibrant?ms=92,112&key=AnTcaqBi2ypp0xI-OZNi4W_ik2KhjgpqioTAtXLC8GzkMBQRMlyxvxyTnd5b73im&c=en-US&ur=in&da=n&logo=n&fmt=png&od=1&shading=hill&pp=24.572563,81.278236;dfp"
  },
  {
    "name": "Dr Lal PathLabs - Patient Service Centre",
    "address": "Ward No 9, University Road, Annantpur, Rewa, Madhya Pradesh 486001",
    "phone": "Dr Lal PathLabs - Patient Service Centre",
    "hours": "Open· Closes 19:30",
    "image_url": "https://www.bing.com/maps/geoplat/REST/v1/Imagery/Map/RoadVibrant?ms=92,112&key=AnTcaqBi2ypp0xI-OZNi4W_ik2KhjgpqioTAtXLC8GzkMBQRMlyxvxyTnd5b73im&c=en-US&ur=in&da=n&logo=n&fmt=png&od=1&shading=hill&pp=24.531801,81.29657;dfp"
  }
]