[
  {
    "name": "Dr. Vikas Kathuria",
    "address": "House No, 158-A, Near Gurudwara, Subhash Nagar, Rohtak, Haryana",
    "phone": "Dr. Vikas Kathuria",
    "hours": "Closed· Opens Sep 29 at 15:00",
    "image_url": "/th?id=OLC.gDPFGGyRclkF1w480x360&w=92&h=112&c=8&rs=1&qlt=80&cdv=1&pid=Local"
  },
  {
    "name": "Dr Parmod Marwah",
    "address": "Bara Bazar Road, Arya Senior Secondary School, Pahara Mohalla Rohtak, Rohtak, Haryana 124001",
    "phone": "Dr Parmod Marwah",
    "hours": null,
    "image_url": "/th?id=OLC.OC0n2OLP9%2bgjPg480x360&w=92&h=112&c=8&rs=1&qlt=80&cdv=1&pid=Local"
  },
  {
    "name": "Dr. Anshu Bhutani",
    "address": "46/24, Pratap Nagar, DLF Colony, Rohtak, Haryana 124001",
    "phone": "Dr. Anshu Bhutani",
    "hours": "Open· Closes 13:00",
    "image_url": "/th?id=OLC.8%2f5V9dLqwf25JA480x360&w=92&h=134&c=8&rs=1&qlt=80&cdv=1&pid=Local"
  },
  {
    "name": "Dr. Bhushan Kathuria- ENT, Head & Neck Cancer Surgeon/ Endoscopic Skull Base & Cochlear Implant S…",
    "address": "Sonipat Road, Rohtak, Haryana 124001",
    "phone": "Dr. Bhushan Kathuria- ENT, Head & Neck Cancer Surgeon/ Endoscopic Skull Base & Cochlear Implant S…",
    "hours": "Open· Closes 13:00",
    "image_url": "https://www.bing.com/maps/geoplat/REST/v1/Imagery/Map/RoadVibrant?ms=92,134&key=AnTcaqBi2ypp0xI-OZNi4W_ik2KhjgpqioTAtXLC8GzkMBQRMlyxvxyTnd5b73im&c=en-US&ur=in&da=n&logo=n&fmt=png&od=1&shading=hill&pp=28.896072,76.602699;dfp"
  },
  {
    "name": "DR. Roy's Clinic",
    "address": "303, Bhagat Singh Market, Circular Road, Rohtak, Haryana 124001",
    "phone": "DR. Roy's Clinic",
    "hours": null,
    "image_url": "https://www.bing.com/maps/geoplat/REST/v1/Imagery/Map/RoadVibrant?ms=92,112&key=AnTcaqBi2ypp0xI-OZNi4W_ik2KhjgpqioTAtXLC8GzkMBQRMlyxvxyTnd5b73im&c=en-US&ur=in&da=n&logo=n&fmt=png&od=1&shading=hill&pp=28.881638,76.572166;dfp"
  },
  {
    "name": "Human Care Clinic",
    "address": "Near Dlf Park, Dlf Colony Rohtak, Rohtak, Haryana 124001",
    "phone": "Human Care Clinic",
    "hours": null,
    "image_url": "/th?id=OLC.NZIx08VKW5mavg480x360&w=92&h=112&c=8&rs=1&qlt=80&cdv=1&pid=Local"
  },
  {
    "name": "Noble Heart & Super Speciality Hospital",
    "address": "Plot Number-2, Raj Garden, Delhi Bye-Pass Chowk, Rohtak, Haryana 124001",
    "phone": "Noble Heart & Super Speciality Hospital",
    "hours": null,
    "image_url": null
  },
  {
    "name": "Gupta Clinic",
    "address": "State Bank Of Patiala, Janta Colony, Kathmandi Rohtak, Rohtak, Haryana 124001",
    "phone": "Gupta Clinic",
    "hours": null,
    "image_url": null
  },
  {
    "name": "Madaan Clinic",
    "address": "Bara Bazar Road, Bara Bazar Chowk, Babra Mohalla Rohtak, Rohtak, Haryana 124001",
    "phone": "Madaan Clinic",
    "hours": null,
    "image_url": null
  },
  {
    "name": "Mittal Homeopathic Clinic",
    "address": "557/18, Mittal Homeo, Qila Road Old Sabzi Mandi Opp.Bhagat Singh Park, Sabzi Mandi, Rohtak, Haryan…",
    "phone": "Mittal Homeopathic Clinic",
    "hours": null,
    "image_url": "https://www.bing.com/maps/geoplat/REST/v1/Imagery/Map/RoadVibrant?ms=92,112&key=AnTcaqBi2ypp0xI-OZNi4W_ik2KhjgpqioTAtXLC8GzkMBQRMlyxvxyTnd5b73im&c=en-US&ur=in&da=n&logo=n&fmt=png&od=1&shading=hill&pp=28.900501,76.580902;dfp"
  },
  {
    "name": "Dr. Abhimanyu Singh",
    "address": "Rohtak Sonepat Road, Durga Colony, Rohtak, Haryana",
    "phone": "Dr. Abhimanyu Singh",
    "hours": "Open· Closes 14:00",
    "image_url": null
  },
  {
    "name": "PILES Painless Clinic",
    "address": "Circular Road, ( Near Double Phatak & Rail. Flyover ), Rohtak, Haryana 124001",
    "phone": "PILES Painless Clinic",
    "hours": "Open· Closes 13:00",
    "image_url": null
  },
  {
    "name": "Ramesh Clinic",
    "address": "Gohana Rohtak Road, Sukhpura Chowk, Rajendra Nagar Rohtak, Rohtak, Haryana 124001",
    "phone": "Ramesh Clinic",
    "hours": null,
    "image_url": "https://www.bing.com/maps/geoplat/REST/v1/Imagery/Map/RoadVibrant?ms=92,112&key=AnTcaqBi2ypp0xI-OZNi4W_ik2KhjgpqioTAtXLC8GzkMBQRMlyxvxyTnd5b73im&c=en-US&ur=in&da=n&logo=n&fmt=png&od=1&shading=hill&pp=28.910156,76.590134;dfp"
  },
  {
    "name": "Bharat Clinic",
    "address": "Prajapat Furniture Works, Babra Mohalla, Rohtak, Haryana 124001",
    "phone": "Bharat Clinic",
    "hours": null,
    "image_url": "https://www.bing.com/maps/geoplat/REST/v1/Imagery/Map/RoadVibrant?ms=92,112&key=AnTcaqBi2ypp0xI-OZNi4W_ik2KhjgpqioTAtXLC8GzkMBQRMlyxvxyTnd5b73im&c=en-US&ur=in&da=n&logo=n&fmt=png&od=1&shading=hill&pp=28.902891,76.582443;dfp"
  },
  {
    "name": "Moga Wala Clinic",
    "address": "Gohana Rohtak Road, Mohan Complex, Kirpal Nagar Rohtak, Rohtak, Haryana 124001",
    "phone": "Moga Wala Clinic",
    "hours": null,
    "image_url": "https://www.bing.com/maps/geoplat/REST/v1/Imagery/Map/RoadVibrant?ms=92,112&key=AnTcaqBi2ypp0xI-OZNi4W_ik2KhjgpqioTAtXLC8GzkMBQRMlyxvxyTnd5b73im&c=en-US&ur=in&da=n&logo=n&fmt=png&od=1&shading=hill&pp=28.904043,76.583702;dfp"
  },
  {
    "name": "Dr. Kapil Sangwan, Consultant Orthopaedics And Sports Injuries",
    "address": "Plot No, 2, Raj Garden, Delhi Bye-Pass Chowk, Near Apsara Cafe, Rohtak, Haryana 124001",
    "phone": "Dr. Kapil Sangwan, Consultant Orthopaedics And Sports Injuries",
    "hours": "Open 24 hours",
    "image_url": "https://www.bing.com/maps/geoplat/REST/v1/Imagery/Map/RoadVibrant?ms=92,134&key=AnTcaqBi2ypp0xI-OZNi4W_ik2KhjgpqioTAtXLC8GzkMBQRMlyxvxyTnd5b73im&c=en-US&ur=in&da=n&logo=n&fmt=png&od=1&shading=hill&pp=28.880867,76.627388;dfp"
  },
  {
    "name": "Dr Batra's Homeopathy",
    "address": "No 344/29, Ram Gopal Colony, Delhi Road, Rohtak, Haryana 124001",
    "phone": "Dr Batra's Homeopathy",
    "hours": "Closed· Opens 11:00",
    "image_url": null
  },
  {
    "name": "Indira IVF Rohtak",
    "address": "147b/29, Ram Gopal Colony Rohtak, Rohtak, Haryana 124001",
    "phone": "Indira IVF Rohtak",
    "hours": "Open· Closes 18:00",
    "image_url": null
  }
]