[
  {
    "name": "Priya Clinic And Medical",
    "address": "Banjari Road, रोहतास, Bihar 821311",
    "phone": "Priya Clinic And Medical",
    "hours": null,
    "image_url": "https://www.bing.com/maps/geoplat/REST/v1/Imagery/Map/RoadVibrant?ms=92,112&key=AnTcaqBi2ypp0xI-OZNi4W_ik2KhjgpqioTAtXLC8GzkMBQRMlyxvxyTnd5b73im&c=en-US&ur=in&da=n&logo=n&fmt=png&od=1&shading=hill&pp=24.637699,83.963501;dfp"
  },
  {
    "name": "Dr. Samresh Kashyap",
    "address": "Civil Lines, In Front of Bal Bharti School, Old Grand Trunk Road, Sasaram, Rohtas, Bihar",
    "phone": "Dr. Samresh Kashyap",
    "hours": "Closed· Opens 14:00",
    "image_url": "https://www.bing.com/maps/geoplat/REST/v1/Imagery/Map/RoadVibrant?ms=92,112&key=AnTcaqBi2ypp0xI-OZNi4W_ik2KhjgpqioTAtXLC8GzkMBQRMlyxvxyTnd5b73im&c=en-US&ur=in&da=n&logo=n&fmt=png&od=1&shading=hill&pp=24.95594,84.007477;dfp"
  },
  {
    "name": "Dr Lal PathLabs",
    "address": "Tilouthu, Near Sadar Hospital, Rohtas, Saraiya, Bihar 821312, Rohtas, Bihar 821312",
    "phone": "Dr Lal PathLabs",
    "hours": "Open· Closes 20:00",
    "image_url": "https://www.bing.com/maps/geoplat/REST/v1/Imagery/Map/RoadVibrant?ms=92,112&key=AnTcaqBi2ypp0xI-OZNi4W_ik2KhjgpqioTAtXLC8GzkMBQRMlyxvxyTnd5b73im&c=en-US&ur=in&da=n&logo=n&fmt=png&od=1&shading=hill&pp=24.806704,84.081329;dfp"
  },
  {
    "name": "Dr. Arvind Kumar Pandey",
    "address": "Shop Number 04, Nagar Parishad Market, Rohtas, Bihar",
    "phone": "Dr. Arvind Kumar Pandey",
    "hours": "Opens in 5 mins",
    "image_url": "/th?id=OLC.11SbBZuboraEhA480x360&w=92&h=112&c=8&rs=1&qlt=80&cdv=1&pid=Local"
  },
  {
    "name": "Dr Ashok Kumar Clinic",
    "address": "Bhaibig Main Road, Bhaibigha Haidar Nagar, Haidernagar, Jharkhand 822115",
    "phone": "Dr Ashok Kumar Clinic",
    "hours": null,
    "image_url": "https://www.bing.com/maps/geoplat/REST/v1/Imagery/Map/RoadVibrant?ms=92,112&key=AnTcaqBi2ypp0xI-OZNi4W_ik2KhjgpqioTAtXLC8GzkMBQRMlyxvxyTnd5b73im&c=en-US&ur=in&da=n&logo=n&fmt=png&od=1&shading=hill&pp=24.492907,83.942627;dfp"
  },
  {
    "name": "Aalam Clinic",
    "address": "College Road, Near Boon Public School, Pokhra Par Mohalla, Nabinagar, Bihar 824301",
    "phone": "Aalam Clinic",
    "hours": null,
    "image_url": "https://www.bing.com/maps/geoplat/REST/v1/Imagery/Map/RoadVibrant?ms=92,112&key=AnTcaqBi2ypp0xI-OZNi4W_ik2KhjgpqioTAtXLC8GzkMBQRMlyxvxyTnd5b73im&c=en-US&ur=in&da=n&logo=n&fmt=png&od=1&shading=hill&pp=24.607817,84.124405;dfp"
  },
  {
    "name": "Gandhi Clinic",
    "address": "Nabinagar Barun Road, Near Post Office, Nabinagar, Aurangabad, Bihar 824301",
    "phone": "Gandhi Clinic",
    "hours": null,
    "image_url": "https://www.bing.com/maps/geoplat/REST/v1/Imagery/Map/RoadVibrant?ms=92,112&key=AnTcaqBi2ypp0xI-OZNi4W_ik2KhjgpqioTAtXLC8GzkMBQRMlyxvxyTnd5b73im&c=en-US&ur=in&da=n&logo=n&fmt=png&od=1&shading=hill&pp=24.653212,84.095688;dfp"
  },
  {
    "name": "Anjali Diagnostic Center",
    "address": "Tilouthu Anjali Jach Ghar NH2C Road, Rohtas, Bihar 821312",
    "phone": "Anjali Diagnostic Center",
    "hours": null,
    "image_url": "https://www.bing.com/maps/geoplat/REST/v1/Imagery/Map/RoadVibrant?ms=92,112&key=AnTcaqBi2ypp0xI-OZNi4W_ik2KhjgpqioTAtXLC8GzkMBQRMlyxvxyTnd5b73im&c=en-US&ur=in&da=n&logo=n&fmt=png&od=1&shading=hill&pp=24.632092,83.962494;dfp"
  },
  {
    "name": "Dr Lal PathLabs - Patient Service Centre",
    "address": "Ground Floor, Canal Road, Zakki Bigha, Dehri, Rohtas, Bihar 821307",
    "phone": "Dr Lal PathLabs - Patient Service Centre",
    "hours": "Open· Closes 20:00",
    "image_url": "https://www.bing.com/maps/geoplat/REST/v1/Imagery/Map/RoadVibrant?ms=92,134&key=AnTcaqBi2ypp0xI-OZNi4W_ik2KhjgpqioTAtXLC8GzkMBQRMlyxvxyTnd5b73im&c=en-US&ur=in&da=n&logo=n&fmt=png&od=1&shading=hill&pp=24.909891,84.177849;dfp"
  },
  {
    "name": "Dr Kumar Chitaranjan Singh",
    "address": "Rouza Road, Sasaram, Bihar 821115",
    "phone": "Dr Kumar Chitaranjan Singh",
    "hours": null,
    "image_url": "https://www.bing.com/maps/geoplat/REST/v1/Imagery/Map/RoadVibrant?ms=92,112&key=AnTcaqBi2ypp0xI-OZNi4W_ik2KhjgpqioTAtXLC8GzkMBQRMlyxvxyTnd5b73im&c=en-US&ur=in&da=n&logo=n&fmt=png&od=1&shading=hill&pp=24.953697,84.006783;dfp"
  },
  {
    "name": "Gorakhnath Sah Homeopathic Clinic",
    "address": "01, Nain Singh Market, Rajpur, Akorhigola Rajpur Road, Tetradh, Rohtas, Bihar 821301",
    "phone": "Gorakhnath Sah Homeopathic Clinic",
    "hours": null,
    "image_url": "https://www.bing.com/maps/geoplat/REST/v1/Imagery/Map/RoadVibrant?ms=92,112&key=AnTcaqBi2ypp0xI-OZNi4W_ik2KhjgpqioTAtXLC8GzkMBQRMlyxvxyTnd5b73im&c=en-US&ur=in&da=n&logo=n&fmt=png&od=1&shading=hill&pp=24.930592,84.184753;dfp"
  },
  {
    "name": "Jan Kalyan Diagnostic Centre",
    "address": "208, Dewanti Market, Baradhi Gola, Akhori Gola, Rajpur Road, Rohtas, Bihar 821301",
    "phone": "Jan Kalyan Diagnostic Centre",
    "hours": null,
    "image_url": "https://www.bing.com/maps/geoplat/REST/v1/Imagery/Map/RoadVibrant?ms=92,112&key=AnTcaqBi2ypp0xI-OZNi4W_ik2KhjgpqioTAtXLC8GzkMBQRMlyxvxyTnd5b73im&c=en-US&ur=in&da=n&logo=n&fmt=png&od=1&shading=hill&pp=24.94142,84.185974;dfp"
  }
]