[
  {
    "name": "Dr. Jagpal Singh Taunque Clinic",
    "address": "Lehri Shah Mandir Road, Saini Mohalla, Rupnagar, Punjab 140001",
    "phone": "Dr. Jagpal Singh Taunque Clinic",
    "hours": "Open· Closes 19:00",
    "image_url": "/th?id=OLC.cc8eAfI5eWD07A480x360&w=92&h=134&c=8&rs=1&qlt=80&cdv=1&pid=Local"
  },
  {
    "name": "Dr Gitika Diwan",
    "address": "Near Gandhi Chowk, Ahmedgarh, Punjab 148021",
    "phone": "Dr Gitika Diwan",
    "hours": "Open· Closes 15:00",
    "image_url": "/th?id=OLC.0MyOqZw8U4fPPg480x360&w=92&h=134&c=8&rs=1&qlt=80&cdv=1&pid=Local"
  },
  {
    "name": "Deepak Medical Clinic",
    "address": "Main Road, Civil Hospital, Civil Hospital Market Rupnagar, Rupnagar, Punjab 140001",
    "phone": "Deepak Medical Clinic",
    "hours": null,
    "image_url": "https://www.bing.com/maps/geoplat/REST/v1/Imagery/Map/RoadVibrant?ms=92,112&key=AnTcaqBi2ypp0xI-OZNi4W_ik2KhjgpqioTAtXLC8GzkMBQRMlyxvxyTnd5b73im&c=en-US&ur=in&da=n&logo=n&fmt=png&od=1&shading=hill&pp=30.965044,76.526039;dfp"
  },
  {
    "name": "Dr. Devraj Clinic | Maheshwari Medical Hall",
    "address": "Fashion Bazaar Rd, Jaito, Punjab",
    "phone": "Dr. Devraj Clinic | Maheshwari Medical Hall",
    "hours": null,
    "image_url": "https://www.bing.com/maps/geoplat/REST/v1/Imagery/Map/RoadVibrant?ms=92,112&key=AnTcaqBi2ypp0xI-OZNi4W_ik2KhjgpqioTAtXLC8GzkMBQRMlyxvxyTnd5b73im&c=en-US&ur=in&da=n&logo=n&fmt=png&od=1&shading=hill&pp=30.968084,76.523666;dfp"
  },
  {
    "name": "Dr Hem Kiran Clinic",
    "address": "Gandhi Chowk, Giani Zail Singh Nagar, Roop Nagar, Rupnagar, Punjab 140001",
    "phone": "Dr Hem Kiran Clinic",
    "hours": null,
    "image_url": "/th?id=OLC.21a%2byLwwdfiD4A480x360&w=92&h=112&c=8&rs=1&qlt=80&cdv=1&pid=Local"
  },
  {
    "name": "Dr. Kamaljit Singh Pannu",
    "address": "3141, Govt College Rd, opp. Church, Rupnagar, Rupnagar, Punjab 140001",
    "phone": "Dr. Kamaljit Singh Pannu",
    "hours": "Open· Closes 14:00",
    "image_url": "https://www.bing.com/maps/geoplat/REST/v1/Imagery/Map/RoadVibrant?ms=92,134&key=AnTcaqBi2ypp0xI-OZNi4W_ik2KhjgpqioTAtXLC8GzkMBQRMlyxvxyTnd5b73im&c=en-US&ur=in&da=n&logo=n&fmt=png&od=1&shading=hill&pp=30.975168,76.521072;dfp"
  },
  {
    "name": "Dr. Parminder Singh Parmar",
    "address": "SEC 13 Khanpur, 211TEH, Rupnagar, Punjab 140301",
    "phone": "Dr. Parminder Singh Parmar",
    "hours": "Open· Closes 18:00",
    "image_url": null
  },
  {
    "name": "Shubh General Clinic",
    "address": "Near Hotel Ashirwad, Ropar, Chandigarh Road, Rupnagar, Punjab 140001",
    "phone": "Shubh General Clinic",
    "hours": null,
    "image_url": "https://www.bing.com/maps/geoplat/REST/v1/Imagery/Map/RoadVibrant?ms=92,112&key=AnTcaqBi2ypp0xI-OZNi4W_ik2KhjgpqioTAtXLC8GzkMBQRMlyxvxyTnd5b73im&c=en-US&ur=in&da=n&logo=n&fmt=png&od=1&shading=hill&pp=30.967951,76.523483;dfp"
  },
  {
    "name": "Asst. Prof. Dr. Kashif Siddiq Ramay",
    "address": "Noor Mehal Road, Muhammadi Colony 140001",
    "phone": "Asst. Prof. Dr. Kashif Siddiq Ramay",
    "hours": null,
    "image_url": "https://www.bing.com/maps/geoplat/REST/v1/Imagery/Map/RoadVibrant?ms=92,112&key=AnTcaqBi2ypp0xI-OZNi4W_ik2KhjgpqioTAtXLC8GzkMBQRMlyxvxyTnd5b73im&c=en-US&ur=in&da=n&logo=n&fmt=png&od=1&shading=hill&pp=30.968533,76.517097;dfp"
  },
  {
    "name": "Sadiq Hospital - Orthopedics & Skin Solutions",
    "address": "Bhagat Singh Nagar, Rupnagar, Punjab",
    "phone": "Sadiq Hospital - Orthopedics & Skin Solutions",
    "hours": null,
    "image_url": null
  },
  {
    "name": "Gururamdass Clinic",
    "address": "Shop NO 1, Hamdchak, 1, 1, Mallanwala, Ferozepur, Punjab 152021",
    "phone": "Gururamdass Clinic",
    "hours": null,
    "image_url": "https://www.bing.com/maps/geoplat/REST/v1/Imagery/Map/RoadVibrant?ms=92,112&key=AnTcaqBi2ypp0xI-OZNi4W_ik2KhjgpqioTAtXLC8GzkMBQRMlyxvxyTnd5b73im&c=en-US&ur=in&da=n&logo=n&fmt=png&od=1&shading=hill&pp=30.964439,76.530403;dfp"
  },
  {
    "name": "Avtar Clinic",
    "address": "Main Bazar, Makhu, Mallanwala, Ferozepur, Punjab 152021",
    "phone": "Avtar Clinic",
    "hours": null,
    "image_url": "https://www.bing.com/maps/geoplat/REST/v1/Imagery/Map/RoadVibrant?ms=92,112&key=AnTcaqBi2ypp0xI-OZNi4W_ik2KhjgpqioTAtXLC8GzkMBQRMlyxvxyTnd5b73im&c=en-US&ur=in&da=n&logo=n&fmt=png&od=1&shading=hill&pp=30.968084,76.523666;dfp"
  },
  {
    "name": "Dr Surjit Singh Super Speciality Hospital",
    "address": "Ropar Bypass, nr Shagun Place, Ropar, Punjab 140001",
    "phone": "Dr Surjit Singh Super Speciality Hospital",
    "hours": null,
    "image_url": null
  },
  {
    "name": "Kalra Chest and Allergy Clinic",
    "address": "Civil Hospital Road Near Govt Senior Secondary School (Girls, Abohar, Punjab",
    "phone": "Kalra Chest and Allergy Clinic",
    "hours": null,
    "image_url": "https://www.bing.com/maps/geoplat/REST/v1/Imagery/Map/RoadVibrant?ms=92,112&key=AnTcaqBi2ypp0xI-OZNi4W_ik2KhjgpqioTAtXLC8GzkMBQRMlyxvxyTnd5b73im&c=en-US&ur=in&da=n&logo=n&fmt=png&od=1&shading=hill&pp=30.966066,76.524796;dfp"
  },
  {
    "name": "Sai Clinic",
    "address": "Government College, Jail Singh Nagar, Giani Zail Singh Nagar, Roop Nagar, Rupnagar, Punjab 140001",
    "phone": "Sai Clinic",
    "hours": null,
    "image_url": "https://www.bing.com/maps/geoplat/REST/v1/Imagery/Map/RoadVibrant?ms=92,112&key=AnTcaqBi2ypp0xI-OZNi4W_ik2KhjgpqioTAtXLC8GzkMBQRMlyxvxyTnd5b73im&c=en-US&ur=in&da=n&logo=n&fmt=png&od=1&shading=hill&pp=30.971849,76.520477;dfp"
  },
  {
    "name": "Guru Manish - Best Ayurvedic Treatment",
    "address": "Shop no. 1697/25 Near Lahrisa Mandir, Opposite Dr Sardana Clinic, Hospital, Road, Rupnagar, Punjab 140…",
    "phone": "Guru Manish - Best Ayurvedic Treatment",
    "hours": "Open· Closes 18:00",
    "image_url": null
  },
  {
    "name": "Dr.Ashok Sharma(Sharma Dental Clinic)",
    "address": "3X38+F42, Urapar, Punjab",
    "phone": "Dr.Ashok Sharma(Sharma Dental Clinic)",
    "hours": null,
    "image_url": "https://www.bing.com/maps/geoplat/REST/v1/Imagery/Map/RoadVibrant?ms=92,112&key=AnTcaqBi2ypp0xI-OZNi4W_ik2KhjgpqioTAtXLC8GzkMBQRMlyxvxyTnd5b73im&c=en-US&ur=in&da=n&logo=n&fmt=png&od=1&shading=hill&pp=30.962118,76.514137;dfp"
  },
  {
    "name": "Dr. Inderjeet Singh",
    "address": "3141, College Road, Rupnagar, Punjab",
    "phone": "Dr. Inderjeet Singh",
    "hours": "Open· Closes 15:00",
    "image_url": null
  }
]