[
  {
    "name": "Dr. Dhiraj Shukla General Physician",
    "address": "Radhe Krishna Clinic, by Side of dr. Mourya, Medical College Road, Sagar, Madhya Pradesh 470002",
    "phone": "Dr. Dhiraj Shukla General Physician",
    "hours": "Closed· Opens 14:00",
    "image_url": "/th?id=OLC.%2bvDZyYZAb%2fCUsA480x360&w=92&h=134&c=8&rs=1&qlt=80&cdv=1&pid=Local"
  },
  {
    "name": "Dr. Priyanka Shrivastava",
    "address": "10 Sagar Jhasi Road, Sagar, Madhya Pradesh 470001",
    "phone": "Dr. Priyanka Shrivastava",
    "hours": "Closed· Opens 18:00",
    "image_url": "https://www.bing.com/maps/geoplat/REST/v1/Imagery/Map/RoadVibrant?ms=92,134&key=AnTcaqBi2ypp0xI-OZNi4W_ik2KhjgpqioTAtXLC8GzkMBQRMlyxvxyTnd5b73im&c=en-US&ur=in&da=n&logo=n&fmt=png&od=1&shading=hill&pp=23.841702,78.733482;dfp"
  },
  {
    "name": "Dr. Ankur Jain",
    "address": "Bhagyoday Tirth Chiktsalay, Khurai Road, Moti Nagar, Sagar, Madhya Pradesh",
    "phone": "Dr. Ankur Jain",
    "hours": null,
    "image_url": "https://www.bing.com/maps/geoplat/REST/v1/Imagery/Map/RoadVibrant?ms=92,112&key=AnTcaqBi2ypp0xI-OZNi4W_ik2KhjgpqioTAtXLC8GzkMBQRMlyxvxyTnd5b73im&c=en-US&ur=in&da=n&logo=n&fmt=png&od=1&shading=hill&pp=23.840414,78.729637;dfp"
  },
  {
    "name": "Dr. Nileshu Shukla",
    "address": "Infront of Atal Park, D.l. Medical, By Side of Sagar Heart Care Hospital, Tili Road, Gopal Ganj, Sagar, Madhya P…",
    "phone": "Dr. Nileshu Shukla",
    "hours": "Closed· Opens 13:00",
    "image_url": "https://www.bing.com/maps/geoplat/REST/v1/Imagery/Map/RoadVibrant?ms=92,134&key=AnTcaqBi2ypp0xI-OZNi4W_ik2KhjgpqioTAtXLC8GzkMBQRMlyxvxyTnd5b73im&c=en-US&ur=in&da=n&logo=n&fmt=png&od=1&shading=hill&pp=23.825871,78.752197;dfp"
  },
  {
    "name": "Dr K.K Jain Clinic",
    "address": "Rpvp+4f2, Sagar Rd, Sagar, Madhya Pradesh 470002",
    "phone": "Dr K.K Jain Clinic",
    "hours": null,
    "image_url": "https://www.bing.com/maps/geoplat/REST/v1/Imagery/Map/RoadVibrant?ms=92,112&key=AnTcaqBi2ypp0xI-OZNi4W_ik2KhjgpqioTAtXLC8GzkMBQRMlyxvxyTnd5b73im&c=en-US&ur=in&da=n&logo=n&fmt=png&od=1&shading=hill&pp=23.843559,78.73259;dfp"
  },
  {
    "name": "Dr. Bimal Chand Jain- Cardiologist & Diabetologist",
    "address": "Dr. B C Jain, Sugandha Bhavan Complex, Parkota, Sagar, Madhya Pradesh 470001",
    "phone": "Dr. Bimal Chand Jain- Cardiologist & Diabetologist",
    "hours": "Closed· Opens 14:00",
    "image_url": "https://www.bing.com/maps/geoplat/REST/v1/Imagery/Map/RoadVibrant?ms=92,134&key=AnTcaqBi2ypp0xI-OZNi4W_ik2KhjgpqioTAtXLC8GzkMBQRMlyxvxyTnd5b73im&c=en-US&ur=in&da=n&logo=n&fmt=png&od=1&shading=hill&pp=23.838285,78.740021;dfp"
  },
  {
    "name": "Dr Anand singhai, endoscopic and piles surgeon sagar m p",
    "address": "Varni Complex Near Katrab Madzid Sagar, Sagar, Madhya Pradesh 470002",
    "phone": "Dr Anand singhai, endoscopic and piles surgeon sagar m p",
    "hours": null,
    "image_url": "https://www.bing.com/maps/geoplat/REST/v1/Imagery/Map/RoadVibrant?ms=92,112&key=AnTcaqBi2ypp0xI-OZNi4W_ik2KhjgpqioTAtXLC8GzkMBQRMlyxvxyTnd5b73im&c=en-US&ur=in&da=n&logo=n&fmt=png&od=1&shading=hill&pp=23.862749,78.71685;dfp"
  },
  {
    "name": "Dr. Nanhoria",
    "address": "Sugandha Bhavan Complex, Jawahar Ganj, Goughat Parkota, Sagar, Madhya Pradesh",
    "phone": "Dr. Nanhoria",
    "hours": null,
    "image_url": null
  },
  {
    "name": "Dr. Prasheel Gupta Neurosurgeon (Brain & Spine Surgeon)",
    "address": "Bhagyoday Tirth Chikitsalay, Moti Nagar, Sagar, Madhya Pradesh",
    "phone": "Dr. Prasheel Gupta Neurosurgeon (Brain & Spine Surgeon)",
    "hours": null,
    "image_url": "https://www.bing.com/maps/geoplat/REST/v1/Imagery/Map/RoadVibrant?ms=92,112&key=AnTcaqBi2ypp0xI-OZNi4W_ik2KhjgpqioTAtXLC8GzkMBQRMlyxvxyTnd5b73im&c=en-US&ur=in&da=n&logo=n&fmt=png&od=1&shading=hill&pp=23.840792,78.730759;dfp"
  },
  {
    "name": "DR. Anil Singhai",
    "address": "4-Varni ji Complex, Katra Bazaar, Sagar, Madhya Pradesh",
    "phone": "DR. Anil Singhai",
    "hours": null,
    "image_url": null
  },
  {
    "name": "Dr. Lalit Upadhyay Dermatologist",
    "address": "Medical College, Near Sankta Devi Mandir, In Front of Bundel Khand, Sagar, Madhya Pradesh",
    "phone": "Dr. Lalit Upadhyay Dermatologist",
    "hours": null,
    "image_url": null
  },
  {
    "name": "Tamrakar Multi Speciality Homoeo Clinic",
    "address": "in Front of Hero Showroom, Banda Berial Jabalpur Road Makroniya Sagar, Sagar, Madhya Pradesh 470004",
    "phone": "Tamrakar Multi Speciality Homoeo Clinic",
    "hours": "Open· Closes 21:00",
    "image_url": null
  },
  {
    "name": "Dr. Ankur Singhai",
    "address": "Mahaveer Market, Fannusa Well Street, Teen Batti, Katra Sagar, Sagar, Madhya Pradesh",
    "phone": "Dr. Ankur Singhai",
    "hours": "Closed· Opens 11:30",
    "image_url": null
  },
  {
    "name": "Dr.Bhatia's Clinic Sagar",
    "address": "Near Kotak Mahindra Bank Jhasi Road Makroniya, Sagar, Madhya Pradesh, Madhya Pradesh 470004",
    "phone": "Dr.Bhatia's Clinic Sagar",
    "hours": null,
    "image_url": null
  },
  {
    "name": "Dr Akansha Bhargava's Skin Clinic",
    "address": "Tili Road, Sagar, Madhya Pradesh, Madhya Pradesh 470002",
    "phone": "Dr Akansha Bhargava's Skin Clinic",
    "hours": null,
    "image_url": null
  },
  {
    "name": "Dr. R. K Dubey Memorial Sanjeevani Pathology Lab",
    "address": "First Floor, Satnam Bhawan, Namak Mandi, Katra, Sagar, Madhya Pradesh, Madhya Pradesh 470002",
    "phone": "Dr. R. K Dubey Memorial Sanjeevani Pathology Lab",
    "hours": null,
    "image_url": null
  },
  {
    "name": "Dr. Prashant Chowksey",
    "address": "Sagar bus Stand, Beside Hotel Jevan Rain Basera, in Front of Wood Land Showroom, Sagar, Madhya Pradesh",
    "phone": "Dr. Prashant Chowksey",
    "hours": "Closed· Opens 11:00",
    "image_url": null
  },
  {
    "name": "Dr Shivraj Singh Clinic",
    "address": "Sihora, Nh86 Sagar Rahatgarh Road, Sagar, Madhya Pradesh 470120",
    "phone": "Dr Shivraj Singh Clinic",
    "hours": null,
    "image_url": "https://www.bing.com/maps/geoplat/REST/v1/Imagery/Map/RoadVibrant?ms=92,112&key=AnTcaqBi2ypp0xI-OZNi4W_ik2KhjgpqioTAtXLC8GzkMBQRMlyxvxyTnd5b73im&c=en-US&ur=in&da=n&logo=n&fmt=png&od=1&shading=hill&pp=23.796682,78.574326;dfp"
  }
]