[
  {
    "name": "Dr. Saif- General Physician",
    "address": "Z Imam Clinic, 2 Lc Road, Sahibganj, Jharkhand 816109",
    "phone": "Dr. Saif- General Physician",
    "hours": "Open· Closes 20:00",
    "image_url": "https://www.bing.com/maps/geoplat/REST/v1/Imagery/Map/RoadVibrant?ms=92,134&key=AnTcaqBi2ypp0xI-OZNi4W_ik2KhjgpqioTAtXLC8GzkMBQRMlyxvxyTnd5b73im&c=en-US&ur=in&da=n&logo=n&fmt=png&od=1&shading=hill&pp=25.242512,87.627129;dfp"
  },
  {
    "name": "Dr. Khushboo Priya Obstetrician, Gynecologist and infertility specialist",
    "address": "Surya Superspeciality Hospital, S.B. Roy Road, Sahibganj, Jharkhand 816109",
    "phone": "Dr. Khushboo Priya Obstetrician, Gynecologist and infertility specialist",
    "hours": "Closed· Opens 11:00",
    "image_url": "https://www.bing.com/maps/geoplat/REST/v1/Imagery/Map/RoadVibrant?ms=92,134&key=AnTcaqBi2ypp0xI-OZNi4W_ik2KhjgpqioTAtXLC8GzkMBQRMlyxvxyTnd5b73im&c=en-US&ur=in&da=n&logo=n&fmt=png&od=1&shading=hill&pp=25.245642,87.630371;dfp"
  },
  {
    "name": "Dr. Mukesh Kumar",
    "address": "Near Jame Masjid, LC Road, Sahibganj, Jharkhand, India, 816109, Sahibganj, Madhya Pradesh 816109",
    "phone": "Dr. Mukesh Kumar",
    "hours": "Open· Closes 18:00",
    "image_url": "https://www.bing.com/maps/geoplat/REST/v1/Imagery/Map/RoadVibrant?ms=92,134&key=AnTcaqBi2ypp0xI-OZNi4W_ik2KhjgpqioTAtXLC8GzkMBQRMlyxvxyTnd5b73im&c=en-US&ur=in&da=n&logo=n&fmt=png&od=1&shading=hill&pp=25.241201,87.629524;dfp"
  },
  {
    "name": "Dr. Sumit Kumar- Urologist in Jharkhand",
    "address": "Surya Super Speciality Hospital, SB, Jn Roy Rd, Sahibganj, Jharkhand 816109",
    "phone": "Dr. Sumit Kumar- Urologist in Jharkhand",
    "hours": "Open· Closes 17:00",
    "image_url": "https://www.bing.com/maps/geoplat/REST/v1/Imagery/Map/RoadVibrant?ms=92,134&key=AnTcaqBi2ypp0xI-OZNi4W_ik2KhjgpqioTAtXLC8GzkMBQRMlyxvxyTnd5b73im&c=en-US&ur=in&da=n&logo=n&fmt=png&od=1&shading=hill&pp=25.246195,87.629265;dfp"
  },
  {
    "name": "Dr. Kunal Kumar- General Physician In Jharkhand",
    "address": "Dr. Kunal Kumar Clinic, Basantpur, Harindanga Bazar, Near Heera Sweets, Pakur, Jharkhand 816107",
    "phone": "Dr. Kunal Kumar- General Physician In Jharkhand",
    "hours": "Closed· Opens 13:00",
    "image_url": "https://www.bing.com/maps/geoplat/REST/v1/Imagery/Map/RoadVibrant?ms=92,134&key=AnTcaqBi2ypp0xI-OZNi4W_ik2KhjgpqioTAtXLC8GzkMBQRMlyxvxyTnd5b73im&c=en-US&ur=in&da=n&logo=n&fmt=png&od=1&shading=hill&pp=24.636692,87.848175;dfp"
  },
  {
    "name": "Dr Sarita Tudu Clinic",
    "address": "Barharwa Hiranpur Road, Barharwa, Jharkhand 732101",
    "phone": "Dr Sarita Tudu Clinic",
    "hours": null,
    "image_url": "https://www.bing.com/maps/geoplat/REST/v1/Imagery/Map/RoadVibrant?ms=92,112&key=AnTcaqBi2ypp0xI-OZNi4W_ik2KhjgpqioTAtXLC8GzkMBQRMlyxvxyTnd5b73im&c=en-US&ur=in&da=n&logo=n&fmt=png&od=1&shading=hill&pp=24.854256,87.770821;dfp"
  },
  {
    "name": "Dr A Hossain Clinic",
    "address": "Ratua, Ratua-I, West Bengal 732205",
    "phone": "Dr A Hossain Clinic",
    "hours": null,
    "image_url": "https://www.bing.com/maps/geoplat/REST/v1/Imagery/Map/RoadVibrant?ms=92,112&key=AnTcaqBi2ypp0xI-OZNi4W_ik2KhjgpqioTAtXLC8GzkMBQRMlyxvxyTnd5b73im&c=en-US&ur=in&da=n&logo=n&fmt=png&od=1&shading=hill&pp=25.194159,87.930786;dfp"
  },
  {
    "name": "DR. Wasim’S Heart & Diabetes Care Clinic",
    "address": "Near Star Cinema Hall, Kaliachak, West Bengal",
    "phone": "DR. Wasim’S Heart & Diabetes Care Clinic",
    "hours": null,
    "image_url": "https://www.bing.com/maps/geoplat/REST/v1/Imagery/Map/RoadVibrant?ms=92,112&key=AnTcaqBi2ypp0xI-OZNi4W_ik2KhjgpqioTAtXLC8GzkMBQRMlyxvxyTnd5b73im&c=en-US&ur=in&da=n&logo=n&fmt=png&od=1&shading=hill&pp=24.860994,88.01783;dfp"
  },
  {
    "name": "Dr. Farogh's Neo Child Clinic - Best Pediatric care",
    "address": "Bengali Tola, Old Hospital Road, Near Vivo Service Center, Sahibganj, Jharkhand 816109",
    "phone": "Dr. Farogh's Neo Child Clinic - Best Pediatric care",
    "hours": "Open· Closes 13:30",
    "image_url": null
  },
  {
    "name": "Dr Prasenjit Kumar Kundu Clinic",
    "address": "B.S. Road (Near B.S Road Club Durga Mandir), English Bazar, West Bengal 732101",
    "phone": "Dr Prasenjit Kumar Kundu Clinic",
    "hours": "Closed· Opens 19:00",
    "image_url": "https://www.bing.com/maps/geoplat/REST/v1/Imagery/Map/RoadVibrant?ms=92,112&key=AnTcaqBi2ypp0xI-OZNi4W_ik2KhjgpqioTAtXLC8GzkMBQRMlyxvxyTnd5b73im&c=en-US&ur=in&da=n&logo=n&fmt=png&od=1&shading=hill&pp=25.006201,88.14373;dfp"
  },
  {
    "name": "Dr Suman Ghosh",
    "address": "Krishna Jiban Sanyal Rd, Mokdumpur, Malda, West Bengal",
    "phone": "Dr Suman Ghosh",
    "hours": null,
    "image_url": "https://www.bing.com/maps/geoplat/REST/v1/Imagery/Map/RoadVibrant?ms=92,112&key=AnTcaqBi2ypp0xI-OZNi4W_ik2KhjgpqioTAtXLC8GzkMBQRMlyxvxyTnd5b73im&c=en-US&ur=in&da=n&logo=n&fmt=png&od=1&shading=hill&pp=24.994152,88.141884;dfp"
  },
  {
    "name": "Dr Abhijit Misra (MBBS MD Ped) Chamber",
    "address": "Singatala Road, Near Old Batkhara Office, Singatala, Uma Roy Sarani, English Bazar, West Bengal 732101",
    "phone": "Dr Abhijit Misra (MBBS MD Ped) Chamber",
    "hours": "Open· Closes 19:00",
    "image_url": null
  },
  {
    "name": "Dr. Soumyadip Roy",
    "address": "22/24, Krishna Jiban Sanyal Rd, Near North Bengal Nursing Home, Mokdumpur, Malda, West Bengal",
    "phone": "Dr. Soumyadip Roy",
    "hours": null,
    "image_url": "https://www.bing.com/maps/geoplat/REST/v1/Imagery/Map/RoadVibrant?ms=92,112&key=AnTcaqBi2ypp0xI-OZNi4W_ik2KhjgpqioTAtXLC8GzkMBQRMlyxvxyTnd5b73im&c=en-US&ur=in&da=n&logo=n&fmt=png&od=1&shading=hill&pp=24.994652,88.142174;dfp"
  },
  {
    "name": "Dr. Md. Ismail Shaikh | Top Homeopathy Doctor , West Bengal, India |",
    "address": "Ghorapir, Malda, Madhya Pradesh 732101",
    "phone": "Dr. Md. Ismail Shaikh | Top Homeopathy Doctor , West Bengal, India |",
    "hours": "Closed· Opens Sep 29 at 09:00",
    "image_url": null
  },
  {
    "name": "DR. Wasim’S Heart & Diabetic Care Clinic",
    "address": "Gour Rd, opp. Ish Diagnostic, Taltala, Malda, West Bengal",
    "phone": "DR. Wasim’S Heart & Diabetic Care Clinic",
    "hours": null,
    "image_url": "https://www.bing.com/maps/geoplat/REST/v1/Imagery/Map/RoadVibrant?ms=92,112&key=AnTcaqBi2ypp0xI-OZNi4W_ik2KhjgpqioTAtXLC8GzkMBQRMlyxvxyTnd5b73im&c=en-US&ur=in&da=n&logo=n&fmt=png&od=1&shading=hill&pp=24.992126,88.1427;dfp"
  },
  {
    "name": "Dr Rakesh Roshan Clinic",
    "address": "Kalibari Road, Katihar, Bihar 854105",
    "phone": "Dr Rakesh Roshan Clinic",
    "hours": null,
    "image_url": "https://www.bing.com/maps/geoplat/REST/v1/Imagery/Map/RoadVibrant?ms=92,112&key=AnTcaqBi2ypp0xI-OZNi4W_ik2KhjgpqioTAtXLC8GzkMBQRMlyxvxyTnd5b73im&c=en-US&ur=in&da=n&logo=n&fmt=png&od=1&shading=hill&pp=25.545053,87.567574;dfp"
  }
]