[
  {
    "name": "Dr. Karthikeyan Selvaraju | Best Gastroenterologist  | Manipal Hospital Salem",
    "address": "Room no.03, Ground Floor, Manipal Hospital Dalmia Board, Banglore-Salem, National Highway, Salem, Tam…",
    "phone": "Dr. Karthikeyan Selvaraju | Best Gastroenterologist  | Manipal Hospital Salem",
    "hours": "Open· Closes 16:00",
    "image_url": "/th?id=OLC.73S5CQsf%2bldnGw480x360&w=92&h=112&c=8&rs=1&qlt=80&cdv=1&pid=Local"
  },
  {
    "name": "Dr.Indhumathi sridharan",
    "address": "3, Cuddalore Main Rd, Kandasamy Pudur, Ammapet, Salem, Tamil Nadu",
    "phone": "Dr.Indhumathi sridharan",
    "hours": null,
    "image_url": "https://www.bing.com/maps/geoplat/REST/v1/Imagery/Map/RoadVibrant?ms=92,112&key=AnTcaqBi2ypp0xI-OZNi4W_ik2KhjgpqioTAtXLC8GzkMBQRMlyxvxyTnd5b73im&c=en-US&ur=in&da=n&logo=n&fmt=png&od=1&shading=hill&pp=11.66265,78.20343;dfp"
  },
  {
    "name": "Dr.Trilokchander, Malar Clinic, Flower Remedy and Hypno Therapy",
    "address": "31/11, Sivasamy Street, Salem",
    "phone": "Dr.Trilokchander, Malar Clinic, Flower Remedy and Hypno Therapy",
    "hours": "Open· Closes 19:00",
    "image_url": "https://www.bing.com/maps/geoplat/REST/v1/Imagery/Map/RoadVibrant?ms=92,112&key=AnTcaqBi2ypp0xI-OZNi4W_ik2KhjgpqioTAtXLC8GzkMBQRMlyxvxyTnd5b73im&c=en-US&ur=in&da=n&logo=n&fmt=png&od=1&shading=hill&pp=11.658729,78.162674;dfp"
  },
  {
    "name": "V H Clinic",
    "address": "Gandhi Rd, Salem, Tamil Nadu 636007, India, Salem, Tamil Nadu, Tamil Nadu 636007",
    "phone": "V H Clinic",
    "hours": "Closed· Opens 14:00",
    "image_url": "/th?id=OLC.JFZ7psb4cE2IhA480x360&w=92&h=134&c=8&rs=1&qlt=80&cdv=1&pid=Local"
  },
  {
    "name": "Dr Sudhakar Ent Care Centre",
    "address": "Opp. New Bus Stand, Near Kalaignar Maaligai, Swarnapuri, Salem, Tamil Nadu 636004",
    "phone": "Dr Sudhakar Ent Care Centre",
    "hours": "Open· Closes 19:00",
    "image_url": "/th?id=OLC.BfGgwUs4XlGudw480x360&w=92&h=134&c=8&rs=1&qlt=80&cdv=1&pid=Local"
  },
  {
    "name": "Dr.M.G.VENKATESAN Diabetologist, Diabetes, Heart&Thyroid Clinic",
    "address": "Sree Balaji Clinic, 459, Trichy Main Rd, Sendarapatti, Gugai, Salem, Tamil Nadu",
    "phone": "Dr.M.G.VENKATESAN Diabetologist, Diabetes, Heart&Thyroid Clinic",
    "hours": null,
    "image_url": "https://www.bing.com/maps/geoplat/REST/v1/Imagery/Map/RoadVibrant?ms=92,112&key=AnTcaqBi2ypp0xI-OZNi4W_ik2KhjgpqioTAtXLC8GzkMBQRMlyxvxyTnd5b73im&c=en-US&ur=in&da=n&logo=n&fmt=png&od=1&shading=hill&pp=11.645352,78.154922;dfp"
  },
  {
    "name": "Sns Specialty Clinic",
    "address": "Suramangalam Road, Near Temple, Suramangalam Salem, Salem, Tamil Nadu 636005",
    "phone": "Sns Specialty Clinic",
    "hours": null,
    "image_url": "https://www.bing.com/maps/geoplat/REST/v1/Imagery/Map/RoadVibrant?ms=92,112&key=AnTcaqBi2ypp0xI-OZNi4W_ik2KhjgpqioTAtXLC8GzkMBQRMlyxvxyTnd5b73im&c=en-US&ur=in&da=n&logo=n&fmt=png&od=1&shading=hill&pp=11.670002,78.11869;dfp"
  },
  {
    "name": "Dr. RM. Sornam Chokkalingam",
    "address": "No 188/3, Mangai Clinic, Near Pothys and Lakshmi Sweets, Guptha Nagar, Angammal Colony, Salem, Ta…",
    "phone": "Dr. RM. Sornam Chokkalingam",
    "hours": null,
    "image_url": "https://www.bing.com/maps/geoplat/REST/v1/Imagery/Map/RoadVibrant?ms=92,112&key=AnTcaqBi2ypp0xI-OZNi4W_ik2KhjgpqioTAtXLC8GzkMBQRMlyxvxyTnd5b73im&c=en-US&ur=in&da=n&logo=n&fmt=png&od=1&shading=hill&pp=11.665873,78.141693;dfp"
  },
  {
    "name": "JS ENT Hospital",
    "address": "No. 5 Ramakrishna Road, Salem 637007",
    "phone": "JS ENT Hospital",
    "hours": null,
    "image_url": null
  },
  {
    "name": "Dr. Mira Jayaraman",
    "address": "365A, Suramangalam Main Road, Suramangalam, Salem, Tamil Nadu",
    "phone": "Dr. Mira Jayaraman",
    "hours": "Open· Closes 18:00",
    "image_url": "https://www.bing.com/maps/geoplat/REST/v1/Imagery/Map/RoadVibrant?ms=92,112&key=AnTcaqBi2ypp0xI-OZNi4W_ik2KhjgpqioTAtXLC8GzkMBQRMlyxvxyTnd5b73im&c=en-US&ur=in&da=n&logo=n&fmt=png&od=1&shading=hill&pp=11.669987,78.119339;dfp"
  },
  {
    "name": "Sri Kadir Clinic",
    "address": "15, Sankar Nursing Home, Gandhi Road, Salem, Tamil Nadu 636007",
    "phone": "Sri Kadir Clinic",
    "hours": null,
    "image_url": null
  },
  {
    "name": "Dr. Shri Siva- Orthopedic Clinic",
    "address": "Shri Sivaa Ortho And Spine Clinic, 15, Saradha College Main Road, Fairlands, Near The Royal Bank Of Scotlan…",
    "phone": "Dr. Shri Siva- Orthopedic Clinic",
    "hours": "Open· Closes 14:00",
    "image_url": null
  },
  {
    "name": "Sns Speciality Clinic",
    "address": "81 Dr.Ramanathan Complex, North, Nagaramalai Main Rd, Near Trowpathi Amman Kovil, Alagapuram Periyap…",
    "phone": "Sns Speciality Clinic",
    "hours": null,
    "image_url": "https://www.bing.com/maps/geoplat/REST/v1/Imagery/Map/RoadVibrant?ms=92,112&key=AnTcaqBi2ypp0xI-OZNi4W_ik2KhjgpqioTAtXLC8GzkMBQRMlyxvxyTnd5b73im&c=en-US&ur=in&da=n&logo=n&fmt=png&od=1&shading=hill&pp=11.676547,78.138725;dfp"
  },
  {
    "name": "Magrics Clinic",
    "address": "Post Office Road, Suramangalam, Salem, Tamil Nadu 636005",
    "phone": "Magrics Clinic",
    "hours": null,
    "image_url": "https://www.bing.com/maps/geoplat/REST/v1/Imagery/Map/RoadVibrant?ms=92,112&key=AnTcaqBi2ypp0xI-OZNi4W_ik2KhjgpqioTAtXLC8GzkMBQRMlyxvxyTnd5b73im&c=en-US&ur=in&da=n&logo=n&fmt=png&od=1&shading=hill&pp=11.670353,78.114784;dfp"
  },
  {
    "name": "Jayam Homoeo Clinic",
    "address": "Five Roads, opp. Arunagiri ENT Hospital, Swarnapuri, Salem, Tamil Nadu",
    "phone": "Jayam Homoeo Clinic",
    "hours": "Open· Closes 20:30",
    "image_url": null
  },
  {
    "name": "Andro One Men's Health Clinic",
    "address": "Bus Stop, No 1, Johnsonpet Road, Behind Rudramoorthy Hospital Near Gandhi Road, Hasthampatti, Salem, Tam…",
    "phone": "Andro One Men's Health Clinic",
    "hours": "Open· Closes 19:00",
    "image_url": "https://www.bing.com/maps/geoplat/REST/v1/Imagery/Map/RoadVibrant?ms=92,134&key=AnTcaqBi2ypp0xI-OZNi4W_ik2KhjgpqioTAtXLC8GzkMBQRMlyxvxyTnd5b73im&c=en-US&ur=in&da=n&logo=n&fmt=png&od=1&shading=hill&pp=11.672068,78.151672;dfp"
  },
  {
    "name": "Harish Homoeo Clinic",
    "address": "Peramanur Main Road, Salem, Tamil Nadu 636007",
    "phone": "Harish Homoeo Clinic",
    "hours": null,
    "image_url": null
  },
  {
    "name": "Dr. Mohan's Diabetes Specialities Centre",
    "address": "2/91, 2nd Floor, Sri Vaari Shopping Mall, Above Supreme Mobiles, Near Arrs Multiplex Theater, Meyyanur, Salem…",
    "phone": "Dr. Mohan's Diabetes Specialities Centre",
    "hours": "Open· Closes 16:30",
    "image_url": null
  }
]