[
  {
    "name": "Dr. Supriyo Mukherjee Clinic CCRP/RCDHO/FEVER CLINIC",
    "address": "Bengali Tola Rd, Bangali Tola, Samastipur, Bihar",
    "phone": "Dr. Supriyo Mukherjee Clinic CCRP/RCDHO/FEVER CLINIC",
    "hours": null,
    "image_url": "https://www.bing.com/maps/geoplat/REST/v1/Imagery/Map/RoadVibrant?ms=92,112&key=AnTcaqBi2ypp0xI-OZNi4W_ik2KhjgpqioTAtXLC8GzkMBQRMlyxvxyTnd5b73im&c=en-US&ur=in&da=n&logo=n&fmt=png&od=1&shading=hill&pp=25.8598,85.786598;clcp"
  },
  {
    "name": "Dr A K Nandi Clinic",
    "address": "Samastipur Railway Station Road, Samastipur Railway Station, Samastipur, Bihar 848101",
    "phone": "Dr A K Nandi Clinic",
    "hours": null,
    "image_url": "https://www.bing.com/maps/geoplat/REST/v1/Imagery/Map/RoadVibrant?ms=92,112&key=AnTcaqBi2ypp0xI-OZNi4W_ik2KhjgpqioTAtXLC8GzkMBQRMlyxvxyTnd5b73im&c=en-US&ur=in&da=n&logo=n&fmt=png&od=1&shading=hill&pp=25.85969,85.787399;dfp"
  },
  {
    "name": "Dr P A N. Choudhry Clinic",
    "address": "Railway Station Road, Bengali Tola, Samastipur, Bihar 848101",
    "phone": "Dr P A N. Choudhry Clinic",
    "hours": null,
    "image_url": "https://www.bing.com/maps/geoplat/REST/v1/Imagery/Map/RoadVibrant?ms=92,112&key=AnTcaqBi2ypp0xI-OZNi4W_ik2KhjgpqioTAtXLC8GzkMBQRMlyxvxyTnd5b73im&c=en-US&ur=in&da=n&logo=n&fmt=png&od=1&shading=hill&pp=25.859556,85.789185;dfp"
  },
  {
    "name": "Dr A K Pandey Clinic",
    "address": "Akbarpur, Mathurapur, Warisnagar, Bazar Samiti Road, Samastipur, Bihar 848101",
    "phone": "Dr A K Pandey Clinic",
    "hours": null,
    "image_url": "/th?id=OLC.UnfagvM4itxPAg480x360&w=92&h=112&c=8&rs=1&qlt=80&cdv=1&pid=Local"
  },
  {
    "name": "Dr Vicky Mishra Clinic",
    "address": "Dr Rp Mishra Road, Sadar Hospital, Kashipur, Samastipur, Bihar 848101",
    "phone": "Dr Vicky Mishra Clinic",
    "hours": null,
    "image_url": "https://www.bing.com/maps/geoplat/REST/v1/Imagery/Map/RoadVibrant?ms=92,112&key=AnTcaqBi2ypp0xI-OZNi4W_ik2KhjgpqioTAtXLC8GzkMBQRMlyxvxyTnd5b73im&c=en-US&ur=in&da=n&logo=n&fmt=png&od=1&shading=hill&pp=25.856869,85.776764;dfp"
  },
  {
    "name": "Dr Ak Mishra Clinic",
    "address": "Kash Pur Road, Women's College, Samastipur, Bihar 848101",
    "phone": "Dr Ak Mishra Clinic",
    "hours": null,
    "image_url": "https://www.bing.com/maps/geoplat/REST/v1/Imagery/Map/RoadVibrant?ms=92,112&key=AnTcaqBi2ypp0xI-OZNi4W_ik2KhjgpqioTAtXLC8GzkMBQRMlyxvxyTnd5b73im&c=en-US&ur=in&da=n&logo=n&fmt=png&od=1&shading=hill&pp=25.855425,85.77533;dfp"
  },
  {
    "name": "Dr N K Bharti Clinic",
    "address": "Kashi Pur Road, Women's College, Samastipur, Bihar 848101",
    "phone": "Dr N K Bharti Clinic",
    "hours": null,
    "image_url": "https://www.bing.com/maps/geoplat/REST/v1/Imagery/Map/RoadVibrant?ms=92,112&key=AnTcaqBi2ypp0xI-OZNi4W_ik2KhjgpqioTAtXLC8GzkMBQRMlyxvxyTnd5b73im&c=en-US&ur=in&da=n&logo=n&fmt=png&od=1&shading=hill&pp=25.855865,85.777283;dfp"
  },
  {
    "name": "Dr Zakir Hussain Hospital",
    "address": "Chaknoor Road Dharampur, Samastipur, Bihar 848101",
    "phone": "Dr Zakir Hussain Hospital",
    "hours": null,
    "image_url": "https://www.bing.com/maps/geoplat/REST/v1/Imagery/Map/RoadVibrant?ms=92,112&key=AnTcaqBi2ypp0xI-OZNi4W_ik2KhjgpqioTAtXLC8GzkMBQRMlyxvxyTnd5b73im&c=en-US&ur=in&da=n&logo=n&fmt=png&od=1&shading=hill&pp=25.864689,85.784134;dfp"
  },
  {
    "name": "Dr. M K Ajay",
    "address": "Sh-50, Samastipur 848101, Samastipur, Bihar 848101",
    "phone": "Dr. M K Ajay",
    "hours": null,
    "image_url": null
  },
  {
    "name": "Dr. Kashi Nath Singh | Laparoscopic And General Surgeon",
    "address": "IN Front OF B R B College Mohan PUR Road, Samastipur, Bihar, India, 848101, Samastipur, Madhya …",
    "phone": "Dr. Kashi Nath Singh | Laparoscopic And General Surgeon",
    "hours": "Open· Closes 18:00",
    "image_url": "https://www.bing.com/maps/geoplat/REST/v1/Imagery/Map/RoadVibrant?ms=92,134&key=AnTcaqBi2ypp0xI-OZNi4W_ik2KhjgpqioTAtXLC8GzkMBQRMlyxvxyTnd5b73im&c=en-US&ur=in&da=n&logo=n&fmt=png&od=1&shading=hill&pp=25.850143,85.776917;dfp"
  },
  {
    "name": "Homeopathic Clinic",
    "address": "Kushwaha Marker Prangan, In Front of Idbi ATM, Mohanpur Road, Samastipur, Bihar 848101",
    "phone": "Homeopathic Clinic",
    "hours": null,
    "image_url": null
  },
  {
    "name": "Dr. Dp Tiwari Ms, Mch ( Urology AIIMS New Delhi). Doctor Of",
    "address": "Adarsh Nagar, Samastipur, Bihar 848101, India, SamaStipur, Bihar 848101",
    "phone": "Dr. Dp Tiwari Ms, Mch ( Urology AIIMS New Delhi). Doctor Of",
    "hours": null,
    "image_url": "https://www.bing.com/maps/geoplat/REST/v1/Imagery/Map/RoadVibrant?ms=92,112&key=AnTcaqBi2ypp0xI-OZNi4W_ik2KhjgpqioTAtXLC8GzkMBQRMlyxvxyTnd5b73im&c=en-US&ur=in&da=n&logo=n&fmt=png&od=1&shading=hill&pp=25.864689,85.784134;dfp"
  },
  {
    "name": "Dr.rajesh Kumar Homeopath",
    "address": "Gayatri Complex, Mohanpur Road, Near Bajaj Ajency, Samastipur, Samastipur 848101",
    "phone": "Dr.rajesh Kumar Homeopath",
    "hours": null,
    "image_url": null
  },
  {
    "name": "Chandan Homeopathic Clinic (Dr. K.P.Deo)",
    "address": "Durga Palace, Veer Kunwar Singh Colony, Kasipur, Samastipur, Bihar",
    "phone": "Chandan Homeopathic Clinic (Dr. K.P.Deo)",
    "hours": null,
    "image_url": "https://www.bing.com/maps/geoplat/REST/v1/Imagery/Map/RoadVibrant?ms=92,112&key=AnTcaqBi2ypp0xI-OZNi4W_ik2KhjgpqioTAtXLC8GzkMBQRMlyxvxyTnd5b73im&c=en-US&ur=in&da=n&logo=n&fmt=png&od=1&shading=hill&pp=25.864613,85.774956;dfp"
  },
  {
    "name": "Neuro Psychiatric Clinic",
    "address": "Kachhari Road, Civil Court, Samastipur, Bihar 848101",
    "phone": "Neuro Psychiatric Clinic",
    "hours": null,
    "image_url": null
  },
  {
    "name": "Dr Lal PathLabs - Patient Service Centre",
    "address": "No 588, Hrd No 2, Jitwarpur, Hasanpur, Samastipur, Bihar 848101",
    "phone": "Dr Lal PathLabs - Patient Service Centre",
    "hours": "Open· Closes 19:30",
    "image_url": "https://www.bing.com/maps/geoplat/REST/v1/Imagery/Map/RoadVibrant?ms=92,134&key=AnTcaqBi2ypp0xI-OZNi4W_ik2KhjgpqioTAtXLC8GzkMBQRMlyxvxyTnd5b73im&c=en-US&ur=in&da=n&logo=n&fmt=png&od=1&shading=hill&pp=25.85491,85.773834;dfp"
  },
  {
    "name": "Usha Pathologist",
    "address": "Gayatri Complex Mohanpur Road Samastipur, Samastipur, Bihar 848101",
    "phone": "Usha Pathologist",
    "hours": null,
    "image_url": null
  },
  {
    "name": "New Max Diagnostic Centre",
    "address": "Durga Laxmi Complex, Kachahari Road, Kashipur, Samastipur, Bihar 848101",
    "phone": "New Max Diagnostic Centre",
    "hours": "Open· Closes 19:00",
    "image_url": null
  }
]