[
  {
    "name": "Dr T K Sahu",
    "address": "Abc Book Store, Nandapada, Sambalpur, Odisha 768001",
    "phone": "Dr T K Sahu",
    "hours": null,
    "image_url": "https://www.bing.com/maps/geoplat/REST/v1/Imagery/Map/RoadVibrant?ms=92,112&key=AnTcaqBi2ypp0xI-OZNi4W_ik2KhjgpqioTAtXLC8GzkMBQRMlyxvxyTnd5b73im&c=en-US&ur=in&da=n&logo=n&fmt=png&od=1&shading=hill&pp=21.4592,83.975677;dfp"
  },
  {
    "name": "Dr.Jitesh Sharma M.D.(Homoeopath)",
    "address": "Power House Road, Sarbahal, Jharsuguda, Odisha",
    "phone": "Dr.Jitesh Sharma M.D.(Homoeopath)",
    "hours": "Open· Closes 13:00",
    "image_url": "/th?id=OLC.C4NTteM%2f2pSiGQ480x360&w=92&h=134&c=8&rs=1&qlt=80&cdv=1&pid=Local"
  },
  {
    "name": "Shuddhi Clinic Sambalpur",
    "address": "Near Sambalpur Jail, Bhutapada Chowk, Sambalpur Town, Infront Of Labour Office, Sambalpur 768001",
    "phone": "Shuddhi Clinic Sambalpur",
    "hours": "Open· Closes 18:00",
    "image_url": "/th?id=OLC.dHW5A8xDezA2cw480x360&w=92&h=134&c=8&rs=1&qlt=80&cdv=1&pid=Local"
  },
  {
    "name": "Dr Gautam Satpathi Clinic",
    "address": "G M College Road, Mahamaya Associates, Mahaveer Colony, Sambalpur, Odisha 768001",
    "phone": "Dr Gautam Satpathi Clinic",
    "hours": null,
    "image_url": "https://www.bing.com/maps/geoplat/REST/v1/Imagery/Map/RoadVibrant?ms=92,112&key=AnTcaqBi2ypp0xI-OZNi4W_ik2KhjgpqioTAtXLC8GzkMBQRMlyxvxyTnd5b73im&c=en-US&ur=in&da=n&logo=n&fmt=png&od=1&shading=hill&pp=21.474451,83.976868;dfp"
  },
  {
    "name": "NANDY'S Multi-Speciality Clinic & Diagnostic Centre",
    "address": "Main Road Budharaja, Girish Colony, Near Jockey & Arvind Store, Sambalpur, Odisha 768004",
    "phone": "NANDY'S Multi-Speciality Clinic & Diagnostic Centre",
    "hours": "Open· Closes 21:00",
    "image_url": "/th?id=OLC.hHG5jyF63W8Yzw480x360&w=92&h=134&c=8&rs=1&qlt=80&cdv=1&pid=Local"
  },
  {
    "name": "Dr Giridhari Pradhan Clinic",
    "address": "Pani Tanki Road, Sambalpur Tent House, Fatak, Sambalpur, Odisha 768002",
    "phone": "Dr Giridhari Pradhan Clinic",
    "hours": null,
    "image_url": "https://www.bing.com/maps/geoplat/REST/v1/Imagery/Map/RoadVibrant?ms=92,112&key=AnTcaqBi2ypp0xI-OZNi4W_ik2KhjgpqioTAtXLC8GzkMBQRMlyxvxyTnd5b73im&c=en-US&ur=in&da=n&logo=n&fmt=png&od=1&shading=hill&pp=21.472879,83.973213;dfp"
  },
  {
    "name": "Dr. Sunil Kumar Sharma",
    "address": "Budharaja Street, Sambalpur, Odisha 768004",
    "phone": "Dr. Sunil Kumar Sharma",
    "hours": "Open· Closes 17:00",
    "image_url": null
  },
  {
    "name": "Dr B B Mishra Clinic",
    "address": "Choti Sadak Road, Priya Beauty Parlour, Jhaduapada, Sambalpur, Odisha 768001",
    "phone": "Dr B B Mishra Clinic",
    "hours": null,
    "image_url": "https://www.bing.com/maps/geoplat/REST/v1/Imagery/Map/RoadVibrant?ms=92,112&key=AnTcaqBi2ypp0xI-OZNi4W_ik2KhjgpqioTAtXLC8GzkMBQRMlyxvxyTnd5b73im&c=en-US&ur=in&da=n&logo=n&fmt=png&od=1&shading=hill&pp=21.465853,83.970627;dfp"
  },
  {
    "name": "Dr Ranjan Pramanik Clinic",
    "address": "G M College Road, Andhra Bank, Mahaveer Colony, Sambalpur, Odisha 768001",
    "phone": "Dr Ranjan Pramanik Clinic",
    "hours": null,
    "image_url": "https://www.bing.com/maps/geoplat/REST/v1/Imagery/Map/RoadVibrant?ms=92,112&key=AnTcaqBi2ypp0xI-OZNi4W_ik2KhjgpqioTAtXLC8GzkMBQRMlyxvxyTnd5b73im&c=en-US&ur=in&da=n&logo=n&fmt=png&od=1&shading=hill&pp=21.472918,83.976395;dfp"
  },
  {
    "name": "Dr Batra’s Homeopathy, Hair & Skin Clinic",
    "address": "Axis Bank Building, Ainthapali, Budharaja, Sambalpur, Odisha 768004",
    "phone": "Dr Batra’s Homeopathy, Hair & Skin Clinic",
    "hours": "Open· Closes 20:00",
    "image_url": null
  },
  {
    "name": "Vidya Patho Clinic, Dr S Mishra",
    "address": "Modipara, Sambalpur, Odisha 768002",
    "phone": "Vidya Patho Clinic, Dr S Mishra",
    "hours": null,
    "image_url": null
  },
  {
    "name": "Dr. Kartikeswar Padhan",
    "address": "Jamankira, Sambalpur, Landmark: Near Government Hospital, Orissa",
    "phone": "Dr. Kartikeswar Padhan",
    "hours": "Open· Closes 13:00",
    "image_url": "https://www.bing.com/maps/geoplat/REST/v1/Imagery/Map/RoadVibrant?ms=92,112&key=AnTcaqBi2ypp0xI-OZNi4W_ik2KhjgpqioTAtXLC8GzkMBQRMlyxvxyTnd5b73im&c=en-US&ur=in&da=n&logo=n&fmt=png&od=1&shading=hill&pp=21.473557,83.973953;dfp"
  },
  {
    "name": "PB Clinic, Dr A Satpathy",
    "address": "Govindtola, Sambalpur, Odisha 768005",
    "phone": "PB Clinic, Dr A Satpathy",
    "hours": null,
    "image_url": "https://www.bing.com/maps/geoplat/REST/v1/Imagery/Map/RoadVibrant?ms=92,112&key=AnTcaqBi2ypp0xI-OZNi4W_ik2KhjgpqioTAtXLC8GzkMBQRMlyxvxyTnd5b73im&c=en-US&ur=in&da=n&logo=n&fmt=png&od=1&shading=hill&pp=21.450788,83.988762;dfp"
  },
  {
    "name": "Shree Health Clinic Plaza Fitness Cntre",
    "address": "Fatak Near Over Bridge/Gopalmal, Sambalpur, Odisha 768004",
    "phone": "Shree Health Clinic Plaza Fitness Cntre",
    "hours": null,
    "image_url": "https://www.bing.com/maps/geoplat/REST/v1/Imagery/Map/RoadVibrant?ms=92,112&key=AnTcaqBi2ypp0xI-OZNi4W_ik2KhjgpqioTAtXLC8GzkMBQRMlyxvxyTnd5b73im&c=en-US&ur=in&da=n&logo=n&fmt=png&od=1&shading=hill&pp=21.483545,83.981537;dfp"
  },
  {
    "name": "MedTel Healthcare",
    "address": "At /po-Charbhati, Dst-Sambalpur, Sambalpur, Odisha, Odisha 768001",
    "phone": "MedTel Healthcare",
    "hours": null,
    "image_url": null
  },
  {
    "name": "Dr Lal PathLabs – Patient Service Centre",
    "address": "Main Road Dhanupali, Dhanupali, Sambalpur, Odisha",
    "phone": "Dr Lal PathLabs – Patient Service Centre",
    "hours": null,
    "image_url": "https://www.bing.com/maps/geoplat/REST/v1/Imagery/Map/RoadVibrant?ms=92,112&key=AnTcaqBi2ypp0xI-OZNi4W_ik2KhjgpqioTAtXLC8GzkMBQRMlyxvxyTnd5b73im&c=en-US&ur=in&da=n&logo=n&fmt=png&od=1&shading=hill&pp=21.452499,83.989639;dfp"
  },
  {
    "name": "Goinka Traders",
    "address": "Lakshmi Talkies Chowk, Pattnayakpada, Sambalpur, Odisha 768001, India, Sambalpur, Odisha 768001",
    "phone": "Goinka Traders",
    "hours": null,
    "image_url": null
  }
]