[
  {
    "name": "Dr. Karan Multispeciality Clinic",
    "address": "Opposite Gurudwara Mehal Mubarak, Dhuri Road, Sangrur 148001",
    "phone": "Dr. Karan Multispeciality Clinic",
    "hours": "Open· Closes 14:00",
    "image_url": "/th?id=OLC.ShVUlAHoF4Du2w480x360&w=92&h=134&c=8&rs=1&qlt=80&cdv=1&pid=Local"
  },
  {
    "name": "Dr Sodhi Clinic -Skin Specialists doctor",
    "address": "Guru Nanak Colony, Near Bhullar Gym, Talwandi Bhai, Punjab",
    "phone": "Dr Sodhi Clinic -Skin Specialists doctor",
    "hours": null,
    "image_url": "https://www.bing.com/maps/geoplat/REST/v1/Imagery/Map/RoadVibrant?ms=92,112&key=AnTcaqBi2ypp0xI-OZNi4W_ik2KhjgpqioTAtXLC8GzkMBQRMlyxvxyTnd5b73im&c=en-US&ur=in&da=n&logo=n&fmt=png&od=1&shading=hill&pp=30.248972,75.839165;dfp"
  },
  {
    "name": "Dr B R Ambedkar Charitable Trust Sangrur PB",
    "address": "Available, Sangrur 148001",
    "phone": "Dr B R Ambedkar Charitable Trust Sangrur PB",
    "hours": null,
    "image_url": "/th?id=OLC.Rp8p3SsfpTxwIA480x360&w=92&h=112&c=8&rs=1&qlt=80&cdv=1&pid=Local"
  },
  {
    "name": "Dr Praveen Goyal Clinic",
    "address": "Maruti Suzuki, Bypass Road, House Board Colony, Sangrur, Punjab 148001",
    "phone": "Dr Praveen Goyal Clinic",
    "hours": null,
    "image_url": "https://www.bing.com/maps/geoplat/REST/v1/Imagery/Map/RoadVibrant?ms=92,112&key=AnTcaqBi2ypp0xI-OZNi4W_ik2KhjgpqioTAtXLC8GzkMBQRMlyxvxyTnd5b73im&c=en-US&ur=in&da=n&logo=n&fmt=png&od=1&shading=hill&pp=30.257315,75.83625;dfp"
  },
  {
    "name": "Dr Goyals Skin Joint &trauma Centre",
    "address": "Dr Dharampal Vali Gali Sangrur, Sangrur, Punjab Region 148001",
    "phone": "Dr Goyals Skin Joint &trauma Centre",
    "hours": "Open· Closes 14:00",
    "image_url": "/th?id=OLC.SZYUghgKJMTNQw480x360&w=92&h=134&c=8&rs=1&qlt=80&cdv=1&pid=Local"
  },
  {
    "name": "Bansal clinic",
    "address": "S S Public School, House Board Colony, Sangrur, Punjab 148001",
    "phone": "Bansal clinic",
    "hours": null,
    "image_url": "https://www.bing.com/maps/geoplat/REST/v1/Imagery/Map/RoadVibrant?ms=92,112&key=AnTcaqBi2ypp0xI-OZNi4W_ik2KhjgpqioTAtXLC8GzkMBQRMlyxvxyTnd5b73im&c=en-US&ur=in&da=n&logo=n&fmt=png&od=1&shading=hill&pp=30.248522,75.844208;dfp"
  },
  {
    "name": "Dr. Karun Singla",
    "address": "Singla Surgical Hospital, Sangrur, Punjab 148001",
    "phone": "Dr. Karun Singla",
    "hours": "Closed· Opens tomorrow 12:00",
    "image_url": null
  },
  {
    "name": "Dr. Sanjiv Kumar",
    "address": "Mubarik Mehal Colony, Bus Stand Road, Sangrur, Punjab",
    "phone": "Dr. Sanjiv Kumar",
    "hours": "Open· Closes 14:00",
    "image_url": "https://www.bing.com/maps/geoplat/REST/v1/Imagery/Map/RoadVibrant?ms=92,112&key=AnTcaqBi2ypp0xI-OZNi4W_ik2KhjgpqioTAtXLC8GzkMBQRMlyxvxyTnd5b73im&c=en-US&ur=in&da=n&logo=n&fmt=png&od=1&shading=hill&pp=30.251842,75.84214;dfp"
  },
  {
    "name": "Dr. Parmod Kumar - Orthopedic Surgeon",
    "address": "Sangrur, PB, India, Sangrur 148001",
    "phone": "Dr. Parmod Kumar - Orthopedic Surgeon",
    "hours": null,
    "image_url": null
  },
  {
    "name": "Dr Ishank Goel | MD, DNB, DM| Neurologist",
    "address": "Bansal Hospital, Mubarik Mehal Colony, Sangrur, Punjab",
    "phone": "Dr Ishank Goel | MD, DNB, DM| Neurologist",
    "hours": null,
    "image_url": "https://www.bing.com/maps/geoplat/REST/v1/Imagery/Map/RoadVibrant?ms=92,112&key=AnTcaqBi2ypp0xI-OZNi4W_ik2KhjgpqioTAtXLC8GzkMBQRMlyxvxyTnd5b73im&c=en-US&ur=in&da=n&logo=n&fmt=png&od=1&shading=hill&pp=30.257536,75.834435;dfp"
  },
  {
    "name": "Dr. Amarjot Kaur",
    "address": "438, Street No. 6, Kishan Bagh Colony Outside Nabha Gate, Sangrur, Punjab",
    "phone": "Dr. Amarjot Kaur",
    "hours": "Closed· Opens 17:00",
    "image_url": "https://www.bing.com/maps/geoplat/REST/v1/Imagery/Map/RoadVibrant?ms=92,112&key=AnTcaqBi2ypp0xI-OZNi4W_ik2KhjgpqioTAtXLC8GzkMBQRMlyxvxyTnd5b73im&c=en-US&ur=in&da=n&logo=n&fmt=png&od=1&shading=hill&pp=30.251472,75.849648;dfp"
  },
  {
    "name": "Dr Singla | Spine and Brain surgeon | Neurosurgeon",
    "address": "Singla Surgical Hospital, Kothi Mehal Mubarak, Sangrur, Punjab 148001",
    "phone": "Dr Singla | Spine and Brain surgeon | Neurosurgeon",
    "hours": "Open· Closes 19:00",
    "image_url": "https://www.bing.com/maps/geoplat/REST/v1/Imagery/Map/RoadVibrant?ms=92,134&key=AnTcaqBi2ypp0xI-OZNi4W_ik2KhjgpqioTAtXLC8GzkMBQRMlyxvxyTnd5b73im&c=en-US&ur=in&da=n&logo=n&fmt=png&od=1&shading=hill&pp=30.254175,75.835915;dfp"
  },
  {
    "name": "Homi Bhabha Cancer Hospital",
    "address": "Homi Bhabha Cancer Hospital, Civil Hospital, Sangrur Punjab-148001, Sangrur 148001",
    "phone": "Homi Bhabha Cancer Hospital",
    "hours": null,
    "image_url": null
  },
  {
    "name": "Dr. Vaibhev Mittal",
    "address": "SCF-32, Maharaja Ranjit Singh Market, Outside Sunami Gate, Sangrur, Punjab",
    "phone": "Dr. Vaibhev Mittal",
    "hours": "Open· Closes 19:00",
    "image_url": null
  },
  {
    "name": "Dantcare",
    "address": "Roxy Complex, Outside Sunami Gate, Sangrur 148001",
    "phone": "Dantcare",
    "hours": "Open· Closes 19:00",
    "image_url": null
  },
  {
    "name": "Appl aale",
    "address": "Khanouri, Punjab, Moonak 148027",
    "phone": "Appl aale",
    "hours": null,
    "image_url": null
  },
  {
    "name": "Dr.Savi Path Labs",
    "address": "Opposite Civil Hospital Gate No 2, Dhuri Road, Sangrur, Punjab Region 148001",
    "phone": "Dr.Savi Path Labs",
    "hours": "Open· Closes 19:00",
    "image_url": null
  },
  {
    "name": "Rajindra Clinical Lab",
    "address": "Opposite to Civil Hospital, Dhuri Road, Sangrur, Punjab",
    "phone": "Rajindra Clinical Lab",
    "hours": null,
    "image_url": "https://www.bing.com/maps/geoplat/REST/v1/Imagery/Map/RoadVibrant?ms=92,112&key=AnTcaqBi2ypp0xI-OZNi4W_ik2KhjgpqioTAtXLC8GzkMBQRMlyxvxyTnd5b73im&c=en-US&ur=in&da=n&logo=n&fmt=png&od=1&shading=hill&pp=30.251066,75.834526;dfp"
  }
]