[
  {
    "name": "Om Sai Homoeopathic Clinic",
    "address": "Belapur Road, Hostel Chauraha, Patel Nagar, Gyanpur, Uttar Pradesh 221304",
    "phone": "Om Sai Homoeopathic Clinic",
    "hours": null,
    "image_url": "https://www.bing.com/maps/geoplat/REST/v1/Imagery/Map/RoadVibrant?ms=92,112&key=AnTcaqBi2ypp0xI-OZNi4W_ik2KhjgpqioTAtXLC8GzkMBQRMlyxvxyTnd5b73im&c=en-US&ur=in&da=n&logo=n&fmt=png&od=1&shading=hill&pp=25.339464,82.477348;dfp"
  },
  {
    "name": "Mahadev Clinic",
    "address": "Chak Kalyan, Nh2 G T Road, Gyanpur, Uttar Pradesh 221303",
    "phone": "Mahadev Clinic",
    "hours": null,
    "image_url": "https://www.bing.com/maps/geoplat/REST/v1/Imagery/Map/RoadVibrant?ms=92,112&key=AnTcaqBi2ypp0xI-OZNi4W_ik2KhjgpqioTAtXLC8GzkMBQRMlyxvxyTnd5b73im&c=en-US&ur=in&da=n&logo=n&fmt=png&od=1&shading=hill&pp=25.2915,82.418686;dfp"
  },
  {
    "name": "Metropolis Healthcare Limited - Pathology Lab, Diagnostic Centre , UP",
    "address": "Kotwali Road, Gyanpur, Near Purani Tehsil, Bhadohi, Uttar Pradesh 221304",
    "phone": "Metropolis Healthcare Limited - Pathology Lab, Diagnostic Centre , UP",
    "hours": "Open· Closes 20:00",
    "image_url": "/th?id=OLC.n8QjrQILfgNwvw480x360&w=92&h=134&c=8&rs=1&qlt=80&cdv=1&pid=Local"
  },
  {
    "name": "Aastha Homoeopathic Clinic",
    "address": "Rangmahal Cinema Wali Gali, Near Gazing Railway Crossing, Bhadohi, Uttar Pradesh 221401",
    "phone": "Aastha Homoeopathic Clinic",
    "hours": "Open· Closes 19:00",
    "image_url": "https://www.bing.com/maps/geoplat/REST/v1/Imagery/Map/RoadVibrant?ms=92,134&key=AnTcaqBi2ypp0xI-OZNi4W_ik2KhjgpqioTAtXLC8GzkMBQRMlyxvxyTnd5b73im&c=en-US&ur=in&da=n&logo=n&fmt=png&od=1&shading=hill&pp=25.378731,82.563881;dfp"
  },
  {
    "name": "Ashirwad Clinic",
    "address": "156E Road, Hanuman Mandir, Rampur Gopiganj, Gyanpur, Uttar Pradesh 221303",
    "phone": "Ashirwad Clinic",
    "hours": null,
    "image_url": "https://www.bing.com/maps/geoplat/REST/v1/Imagery/Map/RoadVibrant?ms=92,112&key=AnTcaqBi2ypp0xI-OZNi4W_ik2KhjgpqioTAtXLC8GzkMBQRMlyxvxyTnd5b73im&c=en-US&ur=in&da=n&logo=n&fmt=png&od=1&shading=hill&pp=25.271141,82.44873;dfp"
  },
  {
    "name": "Dr Lal Path Lab",
    "address": "Gyanpur- Purani Tahsil Road Mahila Thana ke Pass, Gyanpur, Uttar Pradesh",
    "phone": "Dr Lal Path Lab",
    "hours": null,
    "image_url": "https://www.bing.com/maps/geoplat/REST/v1/Imagery/Map/RoadVibrant?ms=92,112&key=AnTcaqBi2ypp0xI-OZNi4W_ik2KhjgpqioTAtXLC8GzkMBQRMlyxvxyTnd5b73im&c=en-US&ur=in&da=n&logo=n&fmt=png&od=1&shading=hill&pp=25.331001,82.464622;dfp"
  },
  {
    "name": "Satya Clinic",
    "address": "Banaras Road, Sant Ravidas Nagar, Bhadohi, Uttar Pradesh 221401",
    "phone": "Satya Clinic",
    "hours": null,
    "image_url": "https://www.bing.com/maps/geoplat/REST/v1/Imagery/Map/RoadVibrant?ms=92,112&key=AnTcaqBi2ypp0xI-OZNi4W_ik2KhjgpqioTAtXLC8GzkMBQRMlyxvxyTnd5b73im&c=en-US&ur=in&da=n&logo=n&fmt=png&od=1&shading=hill&pp=25.385494,82.584389;dfp"
  },
  {
    "name": "Bhargava Clinic",
    "address": "Nh3 G T Road, Aurai, Uttar Pradesh 221301",
    "phone": "Bhargava Clinic",
    "hours": null,
    "image_url": "https://www.bing.com/maps/geoplat/REST/v1/Imagery/Map/RoadVibrant?ms=92,112&key=AnTcaqBi2ypp0xI-OZNi4W_ik2KhjgpqioTAtXLC8GzkMBQRMlyxvxyTnd5b73im&c=en-US&ur=in&da=n&logo=n&fmt=png&od=1&shading=hill&pp=25.265141,82.560089;dfp"
  },
  {
    "name": "Kanchan Clinic",
    "address": "Nh19, Police Chauki, Jangiganj Gopiganj, Gyanpur, Uttar Pradesh 221303",
    "phone": "Kanchan Clinic",
    "hours": null,
    "image_url": "https://www.bing.com/maps/geoplat/REST/v1/Imagery/Map/RoadVibrant?ms=92,112&key=AnTcaqBi2ypp0xI-OZNi4W_ik2KhjgpqioTAtXLC8GzkMBQRMlyxvxyTnd5b73im&c=en-US&ur=in&da=n&logo=n&fmt=png&od=1&shading=hill&pp=25.30459,82.372032;dfp"
  },
  {
    "name": "Dr. Ashish Chand",
    "address": "Shiv Nagar Colony, Doctor Jayant Mathur, National Highway 19, Gopiganj, Uttar Pradesh 221303",
    "phone": "Dr. Ashish Chand",
    "hours": "Open· Closes 18:00",
    "image_url": "https://www.bing.com/maps/geoplat/REST/v1/Imagery/Map/RoadVibrant?ms=92,134&key=AnTcaqBi2ypp0xI-OZNi4W_ik2KhjgpqioTAtXLC8GzkMBQRMlyxvxyTnd5b73im&c=en-US&ur=in&da=n&logo=n&fmt=png&od=1&shading=hill&pp=25.266512,82.407608;dfp"
  },
  {
    "name": "Om Clinic",
    "address": "Aurai Mirzapur Road, Shiv Mandir, Purushottampur, Aurai, Uttar Pradesh 221301",
    "phone": "Om Clinic",
    "hours": null,
    "image_url": "https://www.bing.com/maps/geoplat/REST/v1/Imagery/Map/RoadVibrant?ms=92,112&key=AnTcaqBi2ypp0xI-OZNi4W_ik2KhjgpqioTAtXLC8GzkMBQRMlyxvxyTnd5b73im&c=en-US&ur=in&da=n&logo=n&fmt=png&od=1&shading=hill&pp=25.260052,82.559845;dfp"
  },
  {
    "name": "Asha Clinic",
    "address": "Mirzapur Road, Bank Of Baroda Atm, Aurai Bhadohi, Aurai, Uttar Pradesh 221301",
    "phone": "Asha Clinic",
    "hours": null,
    "image_url": "https://www.bing.com/maps/geoplat/REST/v1/Imagery/Map/RoadVibrant?ms=92,112&key=AnTcaqBi2ypp0xI-OZNi4W_ik2KhjgpqioTAtXLC8GzkMBQRMlyxvxyTnd5b73im&c=en-US&ur=in&da=n&logo=n&fmt=png&od=1&shading=hill&pp=25.262346,82.560966;dfp"
  },
  {
    "name": "Gopi Diagnostic Centre",
    "address": "Nh2, Hdfc Atm, Mirzapur Tirah…, Gopiganj Sant Ravidas Nagar Bhadohi",
    "phone": "Gopi Diagnostic Centre",
    "hours": null,
    "image_url": "https://www.bing.com/maps/geoplat/REST/v1/Imagery/Map/RoadVibrant?ms=92,112&key=AnTcaqBi2ypp0xI-OZNi4W_ik2KhjgpqioTAtXLC8GzkMBQRMlyxvxyTnd5b73im&c=en-US&ur=in&da=n&logo=n&fmt=png&od=1&shading=hill&pp=25.284241,82.434723;dfp"
  },
  {
    "name": "Anand Hospital",
    "address": "Chini Modh, G. T., Aurai, Bhadohi, UP, India, Gyanpur, Uttar Pradesh 221301",
    "phone": "Anand Hospital",
    "hours": null,
    "image_url": null
  }
]