[
  {
    "name": "Dr. Yadav Clinic",
    "address": "Alankar Apartment S.T. Near Monark Hotel, Satwashila Nagar, Manik Nagar, Satara, Maharashtra 415004",
    "phone": "Dr. Yadav Clinic",
    "hours": "Open· Closes 12:00",
    "image_url": "/th?id=OLC.b1PTZySCY4qRxQ480x360&w=92&h=134&c=8&rs=1&qlt=80&cdv=1&pid=Local"
  },
  {
    "name": "Dr Vivek Bhosale",
    "address": "Sadar Bazar Satara, Satara, Near Vishal Mega Mart, Satara, Satara 415001",
    "phone": "Dr Vivek Bhosale",
    "hours": null,
    "image_url": "https://www.bing.com/maps/geoplat/REST/v1/Imagery/Map/RoadVibrant?ms=92,112&key=AnTcaqBi2ypp0xI-OZNi4W_ik2KhjgpqioTAtXLC8GzkMBQRMlyxvxyTnd5b73im&c=en-US&ur=in&da=n&logo=n&fmt=png&od=1&shading=hill&pp=17.689781,74.008743;dfp"
  },
  {
    "name": "Balaji Clinic Dr Jayshree Dravid",
    "address": "Zilla Parishad Road, Satara, Maharashtra 415001",
    "phone": "Balaji Clinic Dr Jayshree Dravid",
    "hours": null,
    "image_url": "/th?id=OLC.mi%2fPXD3Tx16ExA480x360&w=92&h=112&c=8&rs=1&qlt=80&cdv=1&pid=Local"
  },
  {
    "name": "Dr. Kunal Rasal",
    "address": "Near Shaunbag High School, Behind Bhuvikas Bank, Dualatnagar, Satara, Maharashtra",
    "phone": "Dr. Kunal Rasal",
    "hours": "Closed· Opens Sep 28 at 10:00",
    "image_url": "/th?id=OLC.deLzdGS7FI%2bzeQ480x360&w=92&h=112&c=8&rs=1&qlt=80&cdv=1&pid=Local"
  },
  {
    "name": "Shivam Clinic",
    "address": "At-Dattanagar Post Kodoli Tal Dist Satara, Satara, Maharashtra, Maharashtra 415004",
    "phone": "Shivam Clinic",
    "hours": null,
    "image_url": "https://www.bing.com/maps/geoplat/REST/v1/Imagery/Map/RoadVibrant?ms=92,112&key=AnTcaqBi2ypp0xI-OZNi4W_ik2KhjgpqioTAtXLC8GzkMBQRMlyxvxyTnd5b73im&c=en-US&ur=in&da=n&logo=n&fmt=png&od=1&shading=hill&pp=17.686945,74.020096;dfp"
  },
  {
    "name": "Dr Sanjay Korde Clinic",
    "address": "Sh58, Satara, Maharashtra 415001",
    "phone": "Dr Sanjay Korde Clinic",
    "hours": null,
    "image_url": "/th?id=OLC.egXhyAY0Ip2AWA480x360&w=92&h=112&c=8&rs=1&qlt=80&cdv=1&pid=Local"
  },
  {
    "name": "Manoday Clinic",
    "address": "Dixit Heart Centre, New Radhika Rd, Near Lions Eye Nab, Satara, Maharashtra",
    "phone": "Manoday Clinic",
    "hours": null,
    "image_url": null
  },
  {
    "name": "Pratiba Hospital",
    "address": "Sadar Bazaar, Satara, Maharashtra 415001",
    "phone": "Pratiba Hospital",
    "hours": null,
    "image_url": "https://www.bing.com/maps/geoplat/REST/v1/Imagery/Map/RoadVibrant?ms=92,112&key=AnTcaqBi2ypp0xI-OZNi4W_ik2KhjgpqioTAtXLC8GzkMBQRMlyxvxyTnd5b73im&c=en-US&ur=in&da=n&logo=n&fmt=png&od=1&shading=hill&pp=17.686518,74.015533;dfp"
  },
  {
    "name": "Maitra Clinic",
    "address": "Rukmini Kunj, 599, Guruwar Peth, Satara, Maharashtra 415002",
    "phone": "Maitra Clinic",
    "hours": null,
    "image_url": "https://www.bing.com/maps/geoplat/REST/v1/Imagery/Map/RoadVibrant?ms=92,112&key=AnTcaqBi2ypp0xI-OZNi4W_ik2KhjgpqioTAtXLC8GzkMBQRMlyxvxyTnd5b73im&c=en-US&ur=in&da=n&logo=n&fmt=png&od=1&shading=hill&pp=17.684805,73.995407;dfp"
  },
  {
    "name": "Dr Shashikant Pawar",
    "address": "25, Deshmukh Colony, Sadar Bazar, Satara-415002, Satara, Maharashtra 415001",
    "phone": "Dr Shashikant Pawar",
    "hours": null,
    "image_url": "https://www.bing.com/maps/geoplat/REST/v1/Imagery/Map/RoadVibrant?ms=92,112&key=AnTcaqBi2ypp0xI-OZNi4W_ik2KhjgpqioTAtXLC8GzkMBQRMlyxvxyTnd5b73im&c=en-US&ur=in&da=n&logo=n&fmt=png&od=1&shading=hill&pp=17.693043,74.008507;dfp"
  },
  {
    "name": "Dr. Mahajan's OrthoCare Clinic",
    "address": "39, Kanchanganga Apartment, Ramkrishna Colony, Civil Hospital Road, Satara, Maharashtra, Maharashtra 4150…",
    "phone": "Dr. Mahajan's OrthoCare Clinic",
    "hours": "Open· Closes 15:00",
    "image_url": null
  },
  {
    "name": "Dr. Rahul Jadhav's Classical Homeopathic Clinic.",
    "address": "Shahu Stadium, Above Dadas Biryani Hotel, Satara, Maharashtra 415002",
    "phone": "Dr. Rahul Jadhav's Classical Homeopathic Clinic.",
    "hours": "Opens in 5 mins",
    "image_url": null
  },
  {
    "name": "Shivam Clinic-Dr.Kiran Kadam (piles and stone)",
    "address": "Datta Nagar, Midc, Satara, Maharashtra 415004",
    "phone": "Shivam Clinic-Dr.Kiran Kadam (piles and stone)",
    "hours": "Closed· Opens 11:00",
    "image_url": null
  },
  {
    "name": "Dr Batra’s Homeopathy, Hair & Skin Clinic",
    "address": "Flat No 101, Shivani Heights, Police Headquarters Road, Malhar Peth, Satara, Maharashtra 415001",
    "phone": "Dr Batra’s Homeopathy, Hair & Skin Clinic",
    "hours": "Closed· Opens 11:00",
    "image_url": null
  },
  {
    "name": "Dr. Nandini J Parekh",
    "address": "Sanjeevan Hospital Road, Bsnl Office Building, Satara, Maharashtra",
    "phone": "Dr. Nandini J Parekh",
    "hours": "Closed· Opens 18:00",
    "image_url": "https://www.bing.com/maps/geoplat/REST/v1/Imagery/Map/RoadVibrant?ms=92,112&key=AnTcaqBi2ypp0xI-OZNi4W_ik2KhjgpqioTAtXLC8GzkMBQRMlyxvxyTnd5b73im&c=en-US&ur=in&da=n&logo=n&fmt=png&od=1&shading=hill&pp=17.693888,74.011459;dfp"
  },
  {
    "name": "Gurukrupa Homeopathic Clinic",
    "address": "Devi Chowk Shanivar Peth Satara, Satara, Maharashtra, Maharashtra 415001",
    "phone": "Gurukrupa Homeopathic Clinic",
    "hours": null,
    "image_url": null
  },
  {
    "name": "Diabetis Specialty Clinic Doctor Deepanjali Pawar",
    "address": "Civil Road, Canara Bank, Sadar Bazar, Satara, Maharashtra 415001",
    "phone": "Diabetis Specialty Clinic Doctor Deepanjali Pawar",
    "hours": null,
    "image_url": "https://www.bing.com/maps/geoplat/REST/v1/Imagery/Map/RoadVibrant?ms=92,112&key=AnTcaqBi2ypp0xI-OZNi4W_ik2KhjgpqioTAtXLC8GzkMBQRMlyxvxyTnd5b73im&c=en-US&ur=in&da=n&logo=n&fmt=png&od=1&shading=hill&pp=17.693514,74.007576;clcp"
  },
  {
    "name": "Matoshri Ayurveda Clinic & Panchakarma Centre",
    "address": "Rajpath Rd, Raviwar Peth, Satara, Maharashtra",
    "phone": "Matoshri Ayurveda Clinic & Panchakarma Centre",
    "hours": null,
    "image_url": null
  }
]