[
  {
    "name": "Krishna medicose & jiyyo mitra E Clinic Satna",
    "address": "Near Maruti Patrol Pump Infront of Aditya Marriage Garden Mahadeva Road, Dhawari Satna, Satna, Madh…",
    "phone": "Krishna medicose & jiyyo mitra E Clinic Satna",
    "hours": "Open· Closes 13:00",
    "image_url": "/th?id=OLC.4M9dR3imWPniyA480x360&w=92&h=134&c=8&rs=1&qlt=80&cdv=1&pid=Local"
  },
  {
    "name": "Dr. Ganesh Prasad",
    "address": "Shakti Vihar, Satna, Madhya Pradesh",
    "phone": "Dr. Ganesh Prasad",
    "hours": "Closed· Opens Sep 29 at 12:00",
    "image_url": "/th?id=OLC.%2b0MYzOQbqOAEgQ480x360&w=92&h=112&c=8&rs=1&qlt=80&cdv=1&pid=Local"
  },
  {
    "name": "Dr. Sunil Agnihotri",
    "address": "HVP4+2HG, Birla Colony Campus, Satna, Madhya Pradesh",
    "phone": "Dr. Sunil Agnihotri",
    "hours": null,
    "image_url": "https://www.bing.com/maps/geoplat/REST/v1/Imagery/Map/RoadVibrant?ms=92,112&key=AnTcaqBi2ypp0xI-OZNi4W_ik2KhjgpqioTAtXLC8GzkMBQRMlyxvxyTnd5b73im&c=en-US&ur=in&da=n&logo=n&fmt=png&od=1&shading=hill&pp=24.576773,80.848824;dfp"
  },
  {
    "name": "Dr. Mukesh Tripathi",
    "address": "Fracture and Trauma Care Centre, Nahar Nursing Home, Bharut Nagar, Behind Savera Hotel, Satna, Madhya Pr…",
    "phone": "Dr. Mukesh Tripathi",
    "hours": "Closed· Opens 11:00",
    "image_url": "https://www.bing.com/maps/geoplat/REST/v1/Imagery/Map/RoadVibrant?ms=92,112&key=AnTcaqBi2ypp0xI-OZNi4W_ik2KhjgpqioTAtXLC8GzkMBQRMlyxvxyTnd5b73im&c=en-US&ur=in&da=n&logo=n&fmt=png&od=1&shading=hill&pp=24.574387,80.839828;dfp"
  },
  {
    "name": "Bangali dr. Clinic",
    "address": "NH-75, Badhoura Nath Rd, Semariya, Madhya Pradesh",
    "phone": "Bangali dr. Clinic",
    "hours": null,
    "image_url": "https://www.bing.com/maps/geoplat/REST/v1/Imagery/Map/RoadVibrant?ms=92,112&key=AnTcaqBi2ypp0xI-OZNi4W_ik2KhjgpqioTAtXLC8GzkMBQRMlyxvxyTnd5b73im&c=en-US&ur=in&da=n&logo=n&fmt=png&od=1&shading=hill&pp=24.57202,80.84462;dfp"
  },
  {
    "name": "Dr Rb Soni Clinic",
    "address": "Semariya Road, Sindi Camp Talab, Siddharth Nagar, Satana, Madhya Pradesh 485001",
    "phone": "Dr Rb Soni Clinic",
    "hours": null,
    "image_url": "https://www.bing.com/maps/geoplat/REST/v1/Imagery/Map/RoadVibrant?ms=92,112&key=AnTcaqBi2ypp0xI-OZNi4W_ik2KhjgpqioTAtXLC8GzkMBQRMlyxvxyTnd5b73im&c=en-US&ur=in&da=n&logo=n&fmt=png&od=1&shading=hill&pp=24.576666,80.848259;dfp"
  },
  {
    "name": "Dr Gc Chaturvedi Physician",
    "address": "Jagat Dev Talab Road, Bank Of Baroda Atm, Old Powerhouse Nazirabad, Raghuraj Nagar, Madhya Prad…",
    "phone": "Dr Gc Chaturvedi Physician",
    "hours": null,
    "image_url": "https://www.bing.com/maps/geoplat/REST/v1/Imagery/Map/RoadVibrant?ms=92,112&key=AnTcaqBi2ypp0xI-OZNi4W_ik2KhjgpqioTAtXLC8GzkMBQRMlyxvxyTnd5b73im&c=en-US&ur=in&da=n&logo=n&fmt=png&od=1&shading=hill&pp=24.566677,80.833031;dfp"
  },
  {
    "name": "Mitra Clinic",
    "address": "Near Hospital Chowk, Nagod, Rahikwara Road, Satna, Madhya Pradesh 485446",
    "phone": "Mitra Clinic",
    "hours": null,
    "image_url": "https://www.bing.com/maps/geoplat/REST/v1/Imagery/Map/RoadVibrant?ms=92,112&key=AnTcaqBi2ypp0xI-OZNi4W_ik2KhjgpqioTAtXLC8GzkMBQRMlyxvxyTnd5b73im&c=en-US&ur=in&da=n&logo=n&fmt=png&od=1&shading=hill&pp=24.566809,80.832718;dfp"
  },
  {
    "name": "Dr. Rakesh Agrawal Children Clinic",
    "address": "Mig 28, Ground Floor, Bharhut Nagar, Satna, Madhya Pradesh 485001, India, Satna, Madhya Pradesh 485001",
    "phone": "Dr. Rakesh Agrawal Children Clinic",
    "hours": null,
    "image_url": null
  },
  {
    "name": "Kamla Clinic",
    "address": "Nazirabad, Raghuraj Nagar, Madhya Pradesh 485001",
    "phone": "Kamla Clinic",
    "hours": null,
    "image_url": "https://www.bing.com/maps/geoplat/REST/v1/Imagery/Map/RoadVibrant?ms=92,112&key=AnTcaqBi2ypp0xI-OZNi4W_ik2KhjgpqioTAtXLC8GzkMBQRMlyxvxyTnd5b73im&c=en-US&ur=in&da=n&logo=n&fmt=png&od=1&shading=hill&pp=24.56505,80.833153;dfp"
  },
  {
    "name": "Dr Puneet Agrawal",
    "address": "Rewa Road, Bharhut Nagar Tiraha, Satna, Satna 485001",
    "phone": "Dr Puneet Agrawal",
    "hours": "Opens in 5 mins",
    "image_url": null
  },
  {
    "name": "SHARSHIV HOMEOPATHIC CLINIC (Dr. Shashipal prajapati)",
    "address": "Civil Hospital, Khurai Rd, Pushp Vihar Colony, Shah Colony, Bina, Madhya Pradesh",
    "phone": "SHARSHIV HOMEOPATHIC CLINIC (Dr. Shashipal prajapati)",
    "hours": null,
    "image_url": "https://www.bing.com/maps/geoplat/REST/v1/Imagery/Map/RoadVibrant?ms=92,112&key=AnTcaqBi2ypp0xI-OZNi4W_ik2KhjgpqioTAtXLC8GzkMBQRMlyxvxyTnd5b73im&c=en-US&ur=in&da=n&logo=n&fmt=png&od=1&shading=hill&pp=24.56921,80.842323;dfp"
  },
  {
    "name": "Dr. B.L. Yadav Diagnostic Center",
    "address": "Rewa Rd, Railway Colony, Satna, Madhya Pradesh 485001, India, Satna, Madhya Pradesh 485001",
    "phone": "Dr. B.L. Yadav Diagnostic Center",
    "hours": "Open· Closes 21:00",
    "image_url": "https://www.bing.com/maps/geoplat/REST/v1/Imagery/Map/RoadVibrant?ms=92,134&key=AnTcaqBi2ypp0xI-OZNi4W_ik2KhjgpqioTAtXLC8GzkMBQRMlyxvxyTnd5b73im&c=en-US&ur=in&da=n&logo=n&fmt=png&od=1&shading=hill&pp=24.571447,80.846191;dfp"
  },
  {
    "name": "Dr Batra's Homeopathy",
    "address": "1st Floor, Ekta Tower, Rewa Road, Raghuraj Nagar, Madhya Pradesh 485001",
    "phone": "Dr Batra's Homeopathy",
    "hours": "Closed· Opens 11:00",
    "image_url": null
  },
  {
    "name": "e-CLINIC { जायसवाल एसोसिएट्स }",
    "address": "Railway Colony, Satna, Madhya Pradesh",
    "phone": "e-CLINIC { जायसवाल एसोसिएट्स }",
    "hours": null,
    "image_url": "https://www.bing.com/maps/geoplat/REST/v1/Imagery/Map/RoadVibrant?ms=92,112&key=AnTcaqBi2ypp0xI-OZNi4W_ik2KhjgpqioTAtXLC8GzkMBQRMlyxvxyTnd5b73im&c=en-US&ur=in&da=n&logo=n&fmt=png&od=1&shading=hill&pp=24.567993,80.82666;dfp"
  },
  {
    "name": "Dr. Narayan Tripathi",
    "address": "Trimurti Nursing Home Khermai Road Satna, Satna, Madhya Pradesh",
    "phone": "Dr. Narayan Tripathi",
    "hours": "Open· Closes 14:00",
    "image_url": "https://www.bing.com/maps/geoplat/REST/v1/Imagery/Map/RoadVibrant?ms=92,112&key=AnTcaqBi2ypp0xI-OZNi4W_ik2KhjgpqioTAtXLC8GzkMBQRMlyxvxyTnd5b73im&c=en-US&ur=in&da=n&logo=n&fmt=png&od=1&shading=hill&pp=24.573517,80.836739;dfp"
  },
  {
    "name": "Patanjali Chikitsalaya-agrawal Pharma",
    "address": "Lalbihari Marg, Hanuman Chowk, Satna, Madhya Pradesh",
    "phone": "Patanjali Chikitsalaya-agrawal Pharma",
    "hours": "Closed· Opens 11:00",
    "image_url": null
  },
  {
    "name": "Anti Aging Skin Care Clinic",
    "address": "Jagatdev Talab Road Near Distt Houpital, Mahavir Magar Pura GAR Nigam Complex, Satna, Madhya Pradesh 48…",
    "phone": "Anti Aging Skin Care Clinic",
    "hours": null,
    "image_url": null
  }
]