[
  {
    "name": "Vardaan Multispeciality Clinic",
    "address": "Behind Corporation Bank Barapathar, Seoni, Madhya Pradesh 480661",
    "phone": "Vardaan Multispeciality Clinic",
    "hours": null,
    "image_url": "/th?id=OLC.LyLE7EoyFvb3Mg480x360&w=92&h=112&c=8&rs=1&qlt=80&cdv=1&pid=Local"
  },
  {
    "name": "Dr. Yogesh Kumar Agrawal",
    "address": "Archipuram Colony, Barghat Road, Railway Crossing, Shivmandir Road, Seoni, Madhya Pradesh",
    "phone": "Dr. Yogesh Kumar Agrawal",
    "hours": "Closed· Opens 18:00",
    "image_url": "https://www.bing.com/maps/geoplat/REST/v1/Imagery/Map/RoadVibrant?ms=92,112&key=AnTcaqBi2ypp0xI-OZNi4W_ik2KhjgpqioTAtXLC8GzkMBQRMlyxvxyTnd5b73im&c=en-US&ur=in&da=n&logo=n&fmt=png&od=1&shading=hill&pp=22.086193,79.545074;dfp"
  },
  {
    "name": "Shukla homoeopathic Clinic",
    "address": "Nehru Road Near Sunari Mohalla Seoni, Seoni, Madhya Pradesh, Madhya Pradesh 480661",
    "phone": "Shukla homoeopathic Clinic",
    "hours": "Open· Closes 21:00",
    "image_url": "/th?id=OLC.g9j%2bC2ZJlbb0HQ480x360&w=92&h=134&c=8&rs=1&qlt=80&cdv=1&pid=Local"
  },
  {
    "name": "Bhagat Clinic",
    "address": "Gram Chhitapar, Post Bhoma, Seoni, Chhitapar, Seoni, Madhya Pradesh 480990",
    "phone": "Bhagat Clinic",
    "hours": null,
    "image_url": "https://www.bing.com/maps/geoplat/REST/v1/Imagery/Map/RoadVibrant?ms=92,112&key=AnTcaqBi2ypp0xI-OZNi4W_ik2KhjgpqioTAtXLC8GzkMBQRMlyxvxyTnd5b73im&c=en-US&ur=in&da=n&logo=n&fmt=png&od=1&shading=hill&pp=22.173655,79.704689;dfp"
  },
  {
    "name": "Dr. Nidhi Khemuka",
    "address": "Matrashree Aparrment, Gayatri Mandir, Barapatthar, Seoni, Madhya Pradesh 480661",
    "phone": "Dr. Nidhi Khemuka",
    "hours": "Open· Closes 21:00",
    "image_url": "/th?id=OLC.2F%2bPZNUaVGmdcg480x360&w=92&h=134&c=8&rs=1&qlt=80&cdv=1&pid=Local"
  },
  {
    "name": "Athar Clinic",
    "address": "Shop No 6, Banganga Complex Housing, Bus Stand, Seoni, Madhya Pradesh 480661",
    "phone": "Athar Clinic",
    "hours": null,
    "image_url": "https://www.bing.com/maps/geoplat/REST/v1/Imagery/Map/RoadVibrant?ms=92,112&key=AnTcaqBi2ypp0xI-OZNi4W_ik2KhjgpqioTAtXLC8GzkMBQRMlyxvxyTnd5b73im&c=en-US&ur=in&da=n&logo=n&fmt=png&od=1&shading=hill&pp=22.076952,79.542946;dfp"
  },
  {
    "name": "Rajpoot Clinic",
    "address": "Manglipath, Nh7, Seoni, Madhya Pradesh 480884",
    "phone": "Rajpoot Clinic",
    "hours": null,
    "image_url": "https://www.bing.com/maps/geoplat/REST/v1/Imagery/Map/RoadVibrant?ms=92,112&key=AnTcaqBi2ypp0xI-OZNi4W_ik2KhjgpqioTAtXLC8GzkMBQRMlyxvxyTnd5b73im&c=en-US&ur=in&da=n&logo=n&fmt=png&od=1&shading=hill&pp=22.079266,79.54493;dfp"
  },
  {
    "name": "Ayush Homeopathic Wellcare Clinic And Shreemaya Pharmacy",
    "address": "Dilbagh Nagar, Kabir Ward, Barghat Road, Seoni, Madhya Pradesh 480661",
    "phone": "Ayush Homeopathic Wellcare Clinic And Shreemaya Pharmacy",
    "hours": "Closed· Opens 11:15",
    "image_url": "https://www.bing.com/maps/geoplat/REST/v1/Imagery/Map/RoadVibrant?ms=92,134&key=AnTcaqBi2ypp0xI-OZNi4W_ik2KhjgpqioTAtXLC8GzkMBQRMlyxvxyTnd5b73im&c=en-US&ur=in&da=n&logo=n&fmt=png&od=1&shading=hill&pp=22.087099,79.564903;dfp"
  },
  {
    "name": "Abhishek Homoeo Clinic And Medical",
    "address": "Udham Singh Road, सिवनी, Madhya Pradesh 480661",
    "phone": "Abhishek Homoeo Clinic And Medical",
    "hours": null,
    "image_url": "https://www.bing.com/maps/geoplat/REST/v1/Imagery/Map/RoadVibrant?ms=92,112&key=AnTcaqBi2ypp0xI-OZNi4W_ik2KhjgpqioTAtXLC8GzkMBQRMlyxvxyTnd5b73im&c=en-US&ur=in&da=n&logo=n&fmt=png&od=1&shading=hill&pp=22.098301,79.556297;dfp"
  },
  {
    "name": "Dr. Soni's Homoeopathy clinic",
    "address": "Balaji Mandir Marg, Inside Fort, Madhya Pradesh",
    "phone": "Dr. Soni's Homoeopathy clinic",
    "hours": null,
    "image_url": "https://www.bing.com/maps/geoplat/REST/v1/Imagery/Map/RoadVibrant?ms=92,112&key=AnTcaqBi2ypp0xI-OZNi4W_ik2KhjgpqioTAtXLC8GzkMBQRMlyxvxyTnd5b73im&c=en-US&ur=in&da=n&logo=n&fmt=png&od=1&shading=hill&pp=22.077703,79.545326;dfp"
  },
  {
    "name": "Samvedana Homeopathic Dawakhana",
    "address": "Ashinik Colony, Nh7, Seoni, Madhya Pradesh 480884",
    "phone": "Samvedana Homeopathic Dawakhana",
    "hours": null,
    "image_url": null
  },
  {
    "name": "Katre Clinic",
    "address": "Malara, Seoni, Madhya Pradesh 480667",
    "phone": "Katre Clinic",
    "hours": null,
    "image_url": "https://www.bing.com/maps/geoplat/REST/v1/Imagery/Map/RoadVibrant?ms=92,112&key=AnTcaqBi2ypp0xI-OZNi4W_ik2KhjgpqioTAtXLC8GzkMBQRMlyxvxyTnd5b73im&c=en-US&ur=in&da=n&logo=n&fmt=png&od=1&shading=hill&pp=22.110638,79.627922;dfp"
  },
  {
    "name": "Anmol Agencies Dr Kripal Vaishy",
    "address": "Radha Krishan Nagar, Taigor Ward, Barghat Road, Seoni, Madhya Pradesh 480661",
    "phone": "Anmol Agencies Dr Kripal Vaishy",
    "hours": null,
    "image_url": "https://www.bing.com/maps/geoplat/REST/v1/Imagery/Map/RoadVibrant?ms=92,112&key=AnTcaqBi2ypp0xI-OZNi4W_ik2KhjgpqioTAtXLC8GzkMBQRMlyxvxyTnd5b73im&c=en-US&ur=in&da=n&logo=n&fmt=png&od=1&shading=hill&pp=22.083527,79.546349;dfp"
  },
  {
    "name": "Sanjivani Pathology",
    "address": "1582, Opp. Govt Hospital, Bainganga Road, Chhapara, Seoni, Madhya Pradesh 480884",
    "phone": "Sanjivani Pathology",
    "hours": null,
    "image_url": "https://www.bing.com/maps/geoplat/REST/v1/Imagery/Map/RoadVibrant?ms=92,112&key=AnTcaqBi2ypp0xI-OZNi4W_ik2KhjgpqioTAtXLC8GzkMBQRMlyxvxyTnd5b73im&c=en-US&ur=in&da=n&logo=n&fmt=png&od=1&shading=hill&pp=22.076017,79.540848;dfp"
  }
]