[
  {
    "name": "Shuddhi Clinic Jamshedpur",
    "address": "102, Sana Complex, 2nd Floor, Thakurbadi Road, P.O. Sakchi, Distt. East Singhbhum, Near Aam Bagan Grou…",
    "phone": "Shuddhi Clinic Jamshedpur",
    "hours": "Open· Closes 18:00",
    "image_url": "/th?id=OLC.qnbbEsdb0yAlNg480x360&w=92&h=134&c=8&rs=1&qlt=80&cdv=1&pid=Local"
  },
  {
    "name": "Dr M Das Clinic",
    "address": "Saraikela, Seraikela, Jharkhand 833219",
    "phone": "Dr M Das Clinic",
    "hours": null,
    "image_url": "https://www.bing.com/maps/geoplat/REST/v1/Imagery/Map/RoadVibrant?ms=92,112&key=AnTcaqBi2ypp0xI-OZNi4W_ik2KhjgpqioTAtXLC8GzkMBQRMlyxvxyTnd5b73im&c=en-US&ur=in&da=n&logo=n&fmt=png&od=1&shading=hill&pp=22.703058,85.933846;dfp"
  },
  {
    "name": "Dr. Dharmendra Mistry- General Physician",
    "address": "Khushboo Poly Clinic Main Road, Seralkela Kharaswan, Gamharia, Jharkhand 832108",
    "phone": "Dr. Dharmendra Mistry- General Physician",
    "hours": "Open· Closes 14:00",
    "image_url": "/th?id=OLC.OKYZyMTuMZVIPw480x360&w=92&h=134&c=8&rs=1&qlt=80&cdv=1&pid=Local"
  },
  {
    "name": "Jeevan Jyoti Health Clinic",
    "address": "New Kalimati Road, Near Hotel Gangor, Sakchi, Jamshedpur, Jharkhand 831001",
    "phone": "Jeevan Jyoti Health Clinic",
    "hours": "Open· Closes 20:00",
    "image_url": "/th?id=OLC.HSrcng7DdSFjkA480x360&w=92&h=134&c=8&rs=1&qlt=80&cdv=1&pid=Local"
  },
  {
    "name": "Hira Clinic",
    "address": "Saraikela, Seraikela, Jharkhand 833219",
    "phone": "Hira Clinic",
    "hours": null,
    "image_url": "https://www.bing.com/maps/geoplat/REST/v1/Imagery/Map/RoadVibrant?ms=92,112&key=AnTcaqBi2ypp0xI-OZNi4W_ik2KhjgpqioTAtXLC8GzkMBQRMlyxvxyTnd5b73im&c=en-US&ur=in&da=n&logo=n&fmt=png&od=1&shading=hill&pp=22.696468,85.931328;dfp"
  },
  {
    "name": "Dr. Satish Kumar Prasad",
    "address": "Tiwari Bechar Building, Bistupur, Jamshedpur, Jharkhand, India, 831001, Jamshedpur, Madhya Prade…",
    "phone": "Dr. Satish Kumar Prasad",
    "hours": "Open· Closes 12:00",
    "image_url": "/th?id=OLC.JVi1m6ugxRI5eg480x360&w=92&h=134&c=8&rs=1&qlt=80&cdv=1&pid=Local"
  },
  {
    "name": "Shree Balaji Medicals",
    "address": "Near Reliance Tower, 0, Seraikela-Kharsawan, Main Road, Gamharia, Seraikela, Jharkhand 832108",
    "phone": "Shree Balaji Medicals",
    "hours": "Open· Closes 22:00",
    "image_url": null
  },
  {
    "name": "Dr Maharshi Neuro and Spine Clinic, Jamshedpur (Neurologist & Neurosurgeon)",
    "address": "Red Cross Bhawan, Pipe Line Road, Near, Old Court Road, Sakchi, Jharkhand",
    "phone": "Dr Maharshi Neuro and Spine Clinic, Jamshedpur (Neurologist & Neurosurgeon)",
    "hours": null,
    "image_url": "https://www.bing.com/maps/geoplat/REST/v1/Imagery/Map/RoadVibrant?ms=92,112&key=AnTcaqBi2ypp0xI-OZNi4W_ik2KhjgpqioTAtXLC8GzkMBQRMlyxvxyTnd5b73im&c=en-US&ur=in&da=n&logo=n&fmt=png&od=1&shading=hill&pp=22.807224,86.198059;dfp"
  },
  {
    "name": "Meditrina Hospital",
    "address": "Dindly, C-2/11, Adityapur, Jamshedpur, Jharkhand 831013",
    "phone": "Meditrina Hospital",
    "hours": null,
    "image_url": null
  },
  {
    "name": "SINHA Homoeo Clinic",
    "address": "Road No 5, al-Abbas Appartment Near Icici Bank Mango, Jamshedpur, Jharkhand, Jharkhand 831001",
    "phone": "SINHA Homoeo Clinic",
    "hours": null,
    "image_url": null
  },
  {
    "name": "Gayatri Clinic",
    "address": "Q58R+QVM, Railway Colony, Jugsalai, Jamshedpur, Jharkhand",
    "phone": "Gayatri Clinic",
    "hours": null,
    "image_url": "https://www.bing.com/maps/geoplat/REST/v1/Imagery/Map/RoadVibrant?ms=92,112&key=AnTcaqBi2ypp0xI-OZNi4W_ik2KhjgpqioTAtXLC8GzkMBQRMlyxvxyTnd5b73im&c=en-US&ur=in&da=n&logo=n&fmt=png&od=1&shading=hill&pp=22.765848,86.192558;dfp"
  },
  {
    "name": "Dr. Wokil Chandra Gope General Physician",
    "address": "Village Urmal Block Chandil, Urmal, Jharkhand 832404",
    "phone": "Dr. Wokil Chandra Gope General Physician",
    "hours": "Closed· Opens 13:00",
    "image_url": "https://www.bing.com/maps/geoplat/REST/v1/Imagery/Map/RoadVibrant?ms=92,134&key=AnTcaqBi2ypp0xI-OZNi4W_ik2KhjgpqioTAtXLC8GzkMBQRMlyxvxyTnd5b73im&c=en-US&ur=in&da=n&logo=n&fmt=png&od=1&shading=hill&pp=22.953716,85.874207;dfp"
  },
  {
    "name": "Dr. Vijay Shankar Prasad- Pediatrician in Bagbera",
    "address": "Vijay Shankar Prasad Clinic, DB Road, Thana Chowk, Bagbera, Jamshedpur, Jharkhand 831002",
    "phone": "Dr. Vijay Shankar Prasad- Pediatrician in Bagbera",
    "hours": "Open· Closes 14:00",
    "image_url": "https://www.bing.com/maps/geoplat/REST/v1/Imagery/Map/RoadVibrant?ms=92,134&key=AnTcaqBi2ypp0xI-OZNi4W_ik2KhjgpqioTAtXLC8GzkMBQRMlyxvxyTnd5b73im&c=en-US&ur=in&da=n&logo=n&fmt=png&od=1&shading=hill&pp=22.768623,86.180031;dfp"
  },
  {
    "name": "Dr. Ved Prakash",
    "address": "Saini Medical, Sher-e-Punjab Chowk, Adityapur Basti, Adityapur, Jharkhand 831013",
    "phone": "Dr. Ved Prakash",
    "hours": null,
    "image_url": null
  },
  {
    "name": "Dr Ak Biswas Clinic",
    "address": "Nh18, Chandil, Saraikela, Chandil, Jharkhand 832401",
    "phone": "Dr Ak Biswas Clinic",
    "hours": null,
    "image_url": "https://www.bing.com/maps/geoplat/REST/v1/Imagery/Map/RoadVibrant?ms=92,112&key=AnTcaqBi2ypp0xI-OZNi4W_ik2KhjgpqioTAtXLC8GzkMBQRMlyxvxyTnd5b73im&c=en-US&ur=in&da=n&logo=n&fmt=png&od=1&shading=hill&pp=22.958008,86.056442;dfp"
  },
  {
    "name": "Nutan Seva Sadan Clinic",
    "address": "Vill - Deharidih, Kuchai Road, Saraikela-Kharsawan, Near Block Office, Seraikella-Kharsawan, Jharkhand 833219",
    "phone": "Nutan Seva Sadan Clinic",
    "hours": null,
    "image_url": "https://www.bing.com/maps/geoplat/REST/v1/Imagery/Map/RoadVibrant?ms=92,112&key=AnTcaqBi2ypp0xI-OZNi4W_ik2KhjgpqioTAtXLC8GzkMBQRMlyxvxyTnd5b73im&c=en-US&ur=in&da=n&logo=n&fmt=png&od=1&shading=hill&pp=22.783911,85.816032;dfp"
  },
  {
    "name": "Jamshedpur Homoeopathy Dawakhana",
    "address": "Adityapur Main Road, Near Orriya School, Jamshedpur, Jharkhand 831013",
    "phone": "Jamshedpur Homoeopathy Dawakhana",
    "hours": null,
    "image_url": null
  },
  {
    "name": "Sita Devi Diagnostic Centre",
    "address": "Ground Floor, Behind Laxmi Petrol Pump, C.T.S, C.T.S. Colony, Hazaribagh, Jharkhand",
    "phone": "Sita Devi Diagnostic Centre",
    "hours": null,
    "image_url": "https://www.bing.com/maps/geoplat/REST/v1/Imagery/Map/RoadVibrant?ms=92,112&key=AnTcaqBi2ypp0xI-OZNi4W_ik2KhjgpqioTAtXLC8GzkMBQRMlyxvxyTnd5b73im&c=en-US&ur=in&da=n&logo=n&fmt=png&od=1&shading=hill&pp=22.810598,86.156189;clcp"
  }
]