[
  {
    "name": "Dr Shilpi Saraf",
    "address": "Jail Building, Nh78, Civil Lines, Shahdol, Madhya Pradesh 484001",
    "phone": "Dr Shilpi Saraf",
    "hours": null,
    "image_url": "/th?id=OLC.d86k51Dw2JhSCw480x360&w=92&h=112&c=8&rs=1&qlt=80&cdv=1&pid=Local"
  },
  {
    "name": "Dr. Vidushi Pandey- Ayurvedic specialist",
    "address": "Near Bhartiyam School, Beohari, Shahdol, Madhya Pradesh 484774",
    "phone": "Dr. Vidushi Pandey- Ayurvedic specialist",
    "hours": "Open· Closes 17:00",
    "image_url": "https://www.bing.com/maps/geoplat/REST/v1/Imagery/Map/RoadVibrant?ms=92,134&key=AnTcaqBi2ypp0xI-OZNi4W_ik2KhjgpqioTAtXLC8GzkMBQRMlyxvxyTnd5b73im&c=en-US&ur=in&da=n&logo=n&fmt=png&od=1&shading=hill&pp=24.023697,81.378418;dfp"
  },
  {
    "name": "Dr. Shyam Bihari Dubey",
    "address": "Kotma Tiraha, Banganga Road, Shahdol, Madhya Pradesh 484001, India, Shahdol, Madhya Pradesh 484…",
    "phone": "Dr. Shyam Bihari Dubey",
    "hours": null,
    "image_url": "https://www.bing.com/maps/geoplat/REST/v1/Imagery/Map/RoadVibrant?ms=92,112&key=AnTcaqBi2ypp0xI-OZNi4W_ik2KhjgpqioTAtXLC8GzkMBQRMlyxvxyTnd5b73im&c=en-US&ur=in&da=n&logo=n&fmt=png&od=1&shading=hill&pp=23.310883,81.371979;dfp"
  },
  {
    "name": "Dr Sampurnanand",
    "address": "Rajendra Talkies Chauraha, Nh78, Civil Lines, Shahdol, Madhya Pradesh 484001",
    "phone": "Dr Sampurnanand",
    "hours": null,
    "image_url": "https://www.bing.com/maps/geoplat/REST/v1/Imagery/Map/RoadVibrant?ms=92,112&key=AnTcaqBi2ypp0xI-OZNi4W_ik2KhjgpqioTAtXLC8GzkMBQRMlyxvxyTnd5b73im&c=en-US&ur=in&da=n&logo=n&fmt=png&od=1&shading=hill&pp=23.305695,81.355759;dfp"
  },
  {
    "name": "Dr. Rekha Shukla Best Obstretician and Gynaecologist",
    "address": "Reva Health Care Clinic, College Colony, Ward No. 1, Burhar Road, Dhanpuri, Shahdol, Madhya Pradesh 484…",
    "phone": "Dr. Rekha Shukla Best Obstretician and Gynaecologist",
    "hours": "Open· Closes 14:00",
    "image_url": "https://www.bing.com/maps/geoplat/REST/v1/Imagery/Map/RoadVibrant?ms=92,134&key=AnTcaqBi2ypp0xI-OZNi4W_ik2KhjgpqioTAtXLC8GzkMBQRMlyxvxyTnd5b73im&c=en-US&ur=in&da=n&logo=n&fmt=png&od=1&shading=hill&pp=23.189318,81.560158;dfp"
  },
  {
    "name": "Dr Mukund Chaturvedi Arogya Clinic",
    "address": "Shahdol Road, State Bank Of India Atm, Shahdol City, Shahdol, Madhya Pradesh 484001",
    "phone": "Dr Mukund Chaturvedi Arogya Clinic",
    "hours": null,
    "image_url": "https://www.bing.com/maps/geoplat/REST/v1/Imagery/Map/RoadVibrant?ms=92,112&key=AnTcaqBi2ypp0xI-OZNi4W_ik2KhjgpqioTAtXLC8GzkMBQRMlyxvxyTnd5b73im&c=en-US&ur=in&da=n&logo=n&fmt=png&od=1&shading=hill&pp=23.312853,81.355522;dfp"
  },
  {
    "name": "Dr. Neha Jain- Obstetrics and Gynaecology",
    "address": "Clinic in Front of Baderia Tiles, New bus Stand Road, Shahdol, Madhya Pradesh 484001",
    "phone": "Dr. Neha Jain- Obstetrics and Gynaecology",
    "hours": "Closed· Opens 16:00",
    "image_url": null
  },
  {
    "name": "Dr Vishvanath Tripathi Clinic",
    "address": "Shahdol Road, Jay Singh Nagar, Jaisinghnagar, Madhya Pradesh 484771",
    "phone": "Dr Vishvanath Tripathi Clinic",
    "hours": null,
    "image_url": "https://www.bing.com/maps/geoplat/REST/v1/Imagery/Map/RoadVibrant?ms=92,112&key=AnTcaqBi2ypp0xI-OZNi4W_ik2KhjgpqioTAtXLC8GzkMBQRMlyxvxyTnd5b73im&c=en-US&ur=in&da=n&logo=n&fmt=png&od=1&shading=hill&pp=23.684052,81.390572;dfp"
  },
  {
    "name": "Dr Jm Garg Clinic",
    "address": "Almai Road, Sub Post Office, Burhar, Madhya Pradesh 484110",
    "phone": "Dr Jm Garg Clinic",
    "hours": null,
    "image_url": "https://www.bing.com/maps/geoplat/REST/v1/Imagery/Map/RoadVibrant?ms=92,112&key=AnTcaqBi2ypp0xI-OZNi4W_ik2KhjgpqioTAtXLC8GzkMBQRMlyxvxyTnd5b73im&c=en-US&ur=in&da=n&logo=n&fmt=png&od=1&shading=hill&pp=23.208055,81.5327;dfp"
  },
  {
    "name": "Dr. Pratima Kumari | Obstetrician Ms",
    "address": "Near st Judes School Singhpur Road, Shahdol, Madhya Pradesh, India, 484001, Shahdol, Madhya Pradesh 484…",
    "phone": "Dr. Pratima Kumari | Obstetrician Ms",
    "hours": "Open· Closes 18:00",
    "image_url": null
  },
  {
    "name": "Dr Lal Path Lab",
    "address": "Rajendra Talkies, Main Road, Near Central Bank (ATM, Shahdol, Madhya Pradesh",
    "phone": "Dr Lal Path Lab",
    "hours": null,
    "image_url": "https://www.bing.com/maps/geoplat/REST/v1/Imagery/Map/RoadVibrant?ms=92,112&key=AnTcaqBi2ypp0xI-OZNi4W_ik2KhjgpqioTAtXLC8GzkMBQRMlyxvxyTnd5b73im&c=en-US&ur=in&da=n&logo=n&fmt=png&od=1&shading=hill&pp=23.296251,81.358864;dfp"
  },
  {
    "name": "Dr Pankaj Shrivastava",
    "address": "Ward No 6, Pandav Nagar, Near Saraswati School Sohagpur, Shahdol, Madhya Pradesh 484001",
    "phone": "Dr Pankaj Shrivastava",
    "hours": null,
    "image_url": "https://www.bing.com/maps/geoplat/REST/v1/Imagery/Map/RoadVibrant?ms=92,112&key=AnTcaqBi2ypp0xI-OZNi4W_ik2KhjgpqioTAtXLC8GzkMBQRMlyxvxyTnd5b73im&c=en-US&ur=in&da=n&logo=n&fmt=png&od=1&shading=hill&pp=23.304897,81.341484;dfp"
  },
  {
    "name": "Dr Shruti Women Care Clinic Paithology",
    "address": "Ward No 18 H No 334, Shastri Nagar, Infront Of Urban Pind, Sohagpur, By Pass Road, Shahdol, Madhya Prad…",
    "phone": "Dr Shruti Women Care Clinic Paithology",
    "hours": null,
    "image_url": "https://www.bing.com/maps/geoplat/REST/v1/Imagery/Map/RoadVibrant?ms=92,112&key=AnTcaqBi2ypp0xI-OZNi4W_ik2KhjgpqioTAtXLC8GzkMBQRMlyxvxyTnd5b73im&c=en-US&ur=in&da=n&logo=n&fmt=png&od=1&shading=hill&pp=23.31209,81.367424;dfp"
  },
  {
    "name": "Pawan Kumar Sharma",
    "address": "Ward NO.18, Behind Rewa Hotel, BY Pass, Shahdol, Madhya Pradesh 484001",
    "phone": "Pawan Kumar Sharma",
    "hours": null,
    "image_url": "https://www.bing.com/maps/geoplat/REST/v1/Imagery/Map/RoadVibrant?ms=92,112&key=AnTcaqBi2ypp0xI-OZNi4W_ik2KhjgpqioTAtXLC8GzkMBQRMlyxvxyTnd5b73im&c=en-US&ur=in&da=n&logo=n&fmt=png&od=1&shading=hill&pp=23.296131,81.377701;dfp"
  },
  {
    "name": "Siddhi Clinic Skin & Child Care Shahdol",
    "address": "Near new bus Stand, Beside Chirayu Medical Balpurwa, Shahdol, Madhya Pradesh",
    "phone": "Siddhi Clinic Skin & Child Care Shahdol",
    "hours": null,
    "image_url": "https://www.bing.com/maps/geoplat/REST/v1/Imagery/Map/RoadVibrant?ms=92,112&key=AnTcaqBi2ypp0xI-OZNi4W_ik2KhjgpqioTAtXLC8GzkMBQRMlyxvxyTnd5b73im&c=en-US&ur=in&da=n&logo=n&fmt=png&od=1&shading=hill&pp=23.296612,81.365784;dfp"
  },
  {
    "name": "Dr. Parihar Dental Clinic",
    "address": "Shahdol Road, Panjab National Bank Shahdol, Sohagpur Road, Shahdol, Madhya Pradesh 484001",
    "phone": "Dr. Parihar Dental Clinic",
    "hours": null,
    "image_url": "https://www.bing.com/maps/geoplat/REST/v1/Imagery/Map/RoadVibrant?ms=92,112&key=AnTcaqBi2ypp0xI-OZNi4W_ik2KhjgpqioTAtXLC8GzkMBQRMlyxvxyTnd5b73im&c=en-US&ur=in&da=n&logo=n&fmt=png&od=1&shading=hill&pp=23.305922,81.356468;dfp"
  },
  {
    "name": "Dr Mansuori Clinic",
    "address": "Anuppur Road, Anuppur, Madhya Pradesh 484224",
    "phone": "Dr Mansuori Clinic",
    "hours": null,
    "image_url": "https://www.bing.com/maps/geoplat/REST/v1/Imagery/Map/RoadVibrant?ms=92,112&key=AnTcaqBi2ypp0xI-OZNi4W_ik2KhjgpqioTAtXLC8GzkMBQRMlyxvxyTnd5b73im&c=en-US&ur=in&da=n&logo=n&fmt=png&od=1&shading=hill&pp=23.119638,81.697098;dfp"
  }
]