[
  {
    "name": "Dr Umesh Sharma",
    "address": "1st Floor Haar Phoolon Wale Galli Behind Ganesh Temple, Ujjain, Madhya Pradesh 456010",
    "phone": "Dr Umesh Sharma",
    "hours": null,
    "image_url": "/th?id=OLC.asvZf%2bEIFFrO3A480x360&w=92&h=112&c=8&rs=1&qlt=80&cdv=1&pid=Local"
  },
  {
    "name": "Dr. R Soni Clinic",
    "address": "Behind Vinayak Medical Store Gayatri Road Kasera Bazar, Shajapur, Jaipur, Madhya Pradesh 465001",
    "phone": "Dr. R Soni Clinic",
    "hours": "Closed· Opens 11:30",
    "image_url": "/th?id=OLC.1YuOokwG7kqfOA480x360&w=92&h=134&c=8&rs=1&qlt=80&cdv=1&pid=Local"
  },
  {
    "name": "Sehat clinic",
    "address": "Teleewada, Roda, Shajapur, Madhya Pradesh",
    "phone": "Sehat clinic",
    "hours": null,
    "image_url": "https://www.bing.com/maps/geoplat/REST/v1/Imagery/Map/RoadVibrant?ms=92,112&key=AnTcaqBi2ypp0xI-OZNi4W_ik2KhjgpqioTAtXLC8GzkMBQRMlyxvxyTnd5b73im&c=en-US&ur=in&da=n&logo=n&fmt=png&od=1&shading=hill&pp=23.438616,76.272644;dfp"
  },
  {
    "name": "Sindhal Clinic",
    "address": "Kila Road, Chhoti Masjid, Chhota Chowk, Shajapur, Madhya Pradesh 465001",
    "phone": "Sindhal Clinic",
    "hours": null,
    "image_url": "https://www.bing.com/maps/geoplat/REST/v1/Imagery/Map/RoadVibrant?ms=92,112&key=AnTcaqBi2ypp0xI-OZNi4W_ik2KhjgpqioTAtXLC8GzkMBQRMlyxvxyTnd5b73im&c=en-US&ur=in&da=n&logo=n&fmt=png&od=1&shading=hill&pp=23.428394,76.277992;dfp"
  },
  {
    "name": "Dr. Khadwala- Gynaecologist",
    "address": "Khadwala Clinic, Hazra Mansion, Miniki Mohalla, Boharabakhal, Shajapur, Madhya Pradesh 465001",
    "phone": "Dr. Khadwala- Gynaecologist",
    "hours": "Closed· Opens 11:00",
    "image_url": "https://www.bing.com/maps/geoplat/REST/v1/Imagery/Map/RoadVibrant?ms=92,134&key=AnTcaqBi2ypp0xI-OZNi4W_ik2KhjgpqioTAtXLC8GzkMBQRMlyxvxyTnd5b73im&c=en-US&ur=in&da=n&logo=n&fmt=png&od=1&shading=hill&pp=23.417231,76.258751;dfp"
  },
  {
    "name": "Shree Vishvkarma Clinic",
    "address": "Makan N 253 Ward N15, Post Morta, Morta, Shajapur, Madhya Pradesh 465001",
    "phone": "Shree Vishvkarma Clinic",
    "hours": null,
    "image_url": "https://www.bing.com/maps/geoplat/REST/v1/Imagery/Map/RoadVibrant?ms=92,112&key=AnTcaqBi2ypp0xI-OZNi4W_ik2KhjgpqioTAtXLC8GzkMBQRMlyxvxyTnd5b73im&c=en-US&ur=in&da=n&logo=n&fmt=png&od=1&shading=hill&pp=23.438831,76.272675;dfp"
  },
  {
    "name": "Dr Mohd ZaKi",
    "address": "First Floor Corner Shop Galaxy Tower, Lucknow, Madhya Pradesh 226010",
    "phone": "Dr Mohd ZaKi",
    "hours": "Open· Closes 22:00",
    "image_url": null
  },
  {
    "name": "Dr B R Ambedkar Government Hospital",
    "address": "Chitransh Nagar, Lalpura, Shajapur, Madhya Pradesh 465001, India, Shajapur, Madhya Pradesh 465001",
    "phone": "Dr B R Ambedkar Government Hospital",
    "hours": null,
    "image_url": "https://www.bing.com/maps/geoplat/REST/v1/Imagery/Map/RoadVibrant?ms=92,112&key=AnTcaqBi2ypp0xI-OZNi4W_ik2KhjgpqioTAtXLC8GzkMBQRMlyxvxyTnd5b73im&c=en-US&ur=in&da=n&logo=n&fmt=png&od=1&shading=hill&pp=23.4062,76.246254;dfp"
  },
  {
    "name": "Mahi Clinic",
    "address": "Makhan NO 460 Ward NO 13 Sunera, Shajapur, Madhya Pradesh 465001",
    "phone": "Mahi Clinic",
    "hours": null,
    "image_url": "https://www.bing.com/maps/geoplat/REST/v1/Imagery/Map/RoadVibrant?ms=92,112&key=AnTcaqBi2ypp0xI-OZNi4W_ik2KhjgpqioTAtXLC8GzkMBQRMlyxvxyTnd5b73im&c=en-US&ur=in&da=n&logo=n&fmt=png&od=1&shading=hill&pp=23.403786,76.294304;dfp"
  },
  {
    "name": "Naman Ray Clinic and Medical",
    "address": "126/1, RAY Bhawan, Alisariya, Road, Kalapipal, Shajapur, Madhya Pradesh 465333",
    "phone": "Naman Ray Clinic and Medical",
    "hours": null,
    "image_url": "https://www.bing.com/maps/geoplat/REST/v1/Imagery/Map/RoadVibrant?ms=92,112&key=AnTcaqBi2ypp0xI-OZNi4W_ik2KhjgpqioTAtXLC8GzkMBQRMlyxvxyTnd5b73im&c=en-US&ur=in&da=n&logo=n&fmt=png&od=1&shading=hill&pp=23.403786,76.294304;dfp"
  },
  {
    "name": "Smile Care Clinic",
    "address": "Bus Stand A B Road, Patidar Nursing Home Hospital, Bus Stand, Shajapur, Madhya Pradesh 465001",
    "phone": "Smile Care Clinic",
    "hours": null,
    "image_url": "https://www.bing.com/maps/geoplat/REST/v1/Imagery/Map/RoadVibrant?ms=92,112&key=AnTcaqBi2ypp0xI-OZNi4W_ik2KhjgpqioTAtXLC8GzkMBQRMlyxvxyTnd5b73im&c=en-US&ur=in&da=n&logo=n&fmt=png&od=1&shading=hill&pp=23.420258,76.275902;dfp"
  },
  {
    "name": "Ayodhya Clinic",
    "address": "Ward 13, Madana, Gram Madana, Teenraha, Shajapur, Madhya Pradesh 465001",
    "phone": "Ayodhya Clinic",
    "hours": null,
    "image_url": "https://www.bing.com/maps/geoplat/REST/v1/Imagery/Map/RoadVibrant?ms=92,112&key=AnTcaqBi2ypp0xI-OZNi4W_ik2KhjgpqioTAtXLC8GzkMBQRMlyxvxyTnd5b73im&c=en-US&ur=in&da=n&logo=n&fmt=png&od=1&shading=hill&pp=23.444515,76.308487;dfp"
  },
  {
    "name": "Pawan Clinic",
    "address": "Ward No 04, Sajod, Gram Sajod, Shajapur, Madhya Pradesh 465001",
    "phone": "Pawan Clinic",
    "hours": null,
    "image_url": "https://www.bing.com/maps/geoplat/REST/v1/Imagery/Map/RoadVibrant?ms=92,112&key=AnTcaqBi2ypp0xI-OZNi4W_ik2KhjgpqioTAtXLC8GzkMBQRMlyxvxyTnd5b73im&c=en-US&ur=in&da=n&logo=n&fmt=png&od=1&shading=hill&pp=23.444592,76.307335;dfp"
  },
  {
    "name": "Dr. Ashutosh Singh, Psychiatrist Shajapur",
    "address": "Vyas Medicos, Nai Sadak, Near District Hospital, Shajapur, Madhya Pradesh",
    "phone": "Dr. Ashutosh Singh, Psychiatrist Shajapur",
    "hours": null,
    "image_url": "https://www.bing.com/maps/geoplat/REST/v1/Imagery/Map/RoadVibrant?ms=92,112&key=AnTcaqBi2ypp0xI-OZNi4W_ik2KhjgpqioTAtXLC8GzkMBQRMlyxvxyTnd5b73im&c=en-US&ur=in&da=n&logo=n&fmt=png&od=1&shading=hill&pp=23.424603,76.275703;dfp"
  },
  {
    "name": "Jaiswal Aqua",
    "address": "Nagnagin Road, Bank Of India, Nai Sadak, Shajapur, Madhya Pradesh 465001",
    "phone": "Jaiswal Aqua",
    "hours": null,
    "image_url": "https://www.bing.com/maps/geoplat/REST/v1/Imagery/Map/RoadVibrant?ms=92,112&key=AnTcaqBi2ypp0xI-OZNi4W_ik2KhjgpqioTAtXLC8GzkMBQRMlyxvxyTnd5b73im&c=en-US&ur=in&da=n&logo=n&fmt=png&od=1&shading=hill&pp=23.425133,76.275536;dfp"
  },
  {
    "name": "Himanshi Clinic",
    "address": "Farad, Kalapipal, MN ROD, Shajapur, Madhya Pradesh 465337",
    "phone": "Himanshi Clinic",
    "hours": null,
    "image_url": "https://www.bing.com/maps/geoplat/REST/v1/Imagery/Map/RoadVibrant?ms=92,112&key=AnTcaqBi2ypp0xI-OZNi4W_ik2KhjgpqioTAtXLC8GzkMBQRMlyxvxyTnd5b73im&c=en-US&ur=in&da=n&logo=n&fmt=png&od=1&shading=hill&pp=23.238901,76.738251;dfp"
  }
]