[
  {
    "name": "Dr. O.P. Kushwaha",
    "address": "Gita Bhavan Chhoti Bazar Road, Bahraich, Uttar Pradesh 271801",
    "phone": "Dr. O.P. Kushwaha",
    "hours": null,
    "image_url": "https://www.bing.com/maps/geoplat/REST/v1/Imagery/Map/RoadVibrant?ms=92,112&key=AnTcaqBi2ypp0xI-OZNi4W_ik2KhjgpqioTAtXLC8GzkMBQRMlyxvxyTnd5b73im&c=en-US&ur=in&da=n&logo=n&fmt=png&od=1&shading=hill&pp=27.567682,81.598068;dfp"
  },
  {
    "name": "Shanti Clinic",
    "address": "Lucknow Road, Bahraich, Uttar Pradesh 271801",
    "phone": "Shanti Clinic",
    "hours": null,
    "image_url": "https://www.bing.com/maps/geoplat/REST/v1/Imagery/Map/RoadVibrant?ms=92,112&key=AnTcaqBi2ypp0xI-OZNi4W_ik2KhjgpqioTAtXLC8GzkMBQRMlyxvxyTnd5b73im&c=en-US&ur=in&da=n&logo=n&fmt=png&od=1&shading=hill&pp=27.578848,81.597649;dfp"
  },
  {
    "name": "Dr Sarvpalli Radha Krishnan Trust",
    "address": "Near Pani Tanki Road Ikauna, Shrawasti, Uttar Pradesh 224168",
    "phone": "Dr Sarvpalli Radha Krishnan Trust",
    "hours": null,
    "image_url": "https://www.bing.com/maps/geoplat/REST/v1/Imagery/Map/RoadVibrant?ms=92,112&key=AnTcaqBi2ypp0xI-OZNi4W_ik2KhjgpqioTAtXLC8GzkMBQRMlyxvxyTnd5b73im&c=en-US&ur=in&da=n&logo=n&fmt=png&od=1&shading=hill&pp=27.572643,81.59848;dfp"
  },
  {
    "name": "Siddiqui Clinic",
    "address": "Kalpipara, Bahraich, Uttar Pradesh 271801",
    "phone": "Siddiqui Clinic",
    "hours": null,
    "image_url": "https://www.bing.com/maps/geoplat/REST/v1/Imagery/Map/RoadVibrant?ms=92,112&key=AnTcaqBi2ypp0xI-OZNi4W_ik2KhjgpqioTAtXLC8GzkMBQRMlyxvxyTnd5b73im&c=en-US&ur=in&da=n&logo=n&fmt=png&od=1&shading=hill&pp=27.580479,81.596245;dfp"
  },
  {
    "name": "Dr. Paritosh Tiwari",
    "address": "Nai Basti, Bakshipura, Near Mahatama Budh Vidyapeeth Inter College, Bahraich, Uttar Pradesh 271801",
    "phone": "Dr. Paritosh Tiwari",
    "hours": "Closed· Opens 11:00",
    "image_url": "https://www.bing.com/maps/geoplat/REST/v1/Imagery/Map/RoadVibrant?ms=92,134&key=AnTcaqBi2ypp0xI-OZNi4W_ik2KhjgpqioTAtXLC8GzkMBQRMlyxvxyTnd5b73im&c=en-US&ur=in&da=n&logo=n&fmt=png&od=1&shading=hill&pp=27.581516,81.613373;dfp"
  },
  {
    "name": "R S Khan Clinic",
    "address": "Lucknow Road, Police Chauki Roadways, Nazir Pura, Bahraich, Uttar Pradesh 271801",
    "phone": "R S Khan Clinic",
    "hours": null,
    "image_url": "https://www.bing.com/maps/geoplat/REST/v1/Imagery/Map/RoadVibrant?ms=92,112&key=AnTcaqBi2ypp0xI-OZNi4W_ik2KhjgpqioTAtXLC8GzkMBQRMlyxvxyTnd5b73im&c=en-US&ur=in&da=n&logo=n&fmt=png&od=1&shading=hill&pp=27.572182,81.590424;dfp"
  },
  {
    "name": "Anannya Clinic-Best Ortho/Eye Clinic/Doctor",
    "address": "Near MLN Stadium, 42/A, Jail Rd, Vikas Nagar, Raebareli, Uttar Pradesh",
    "phone": "Anannya Clinic-Best Ortho/Eye Clinic/Doctor",
    "hours": null,
    "image_url": "https://www.bing.com/maps/geoplat/REST/v1/Imagery/Map/RoadVibrant?ms=92,112&key=AnTcaqBi2ypp0xI-OZNi4W_ik2KhjgpqioTAtXLC8GzkMBQRMlyxvxyTnd5b73im&c=en-US&ur=in&da=n&logo=n&fmt=png&od=1&shading=hill&pp=27.570436,81.605949;dfp"
  },
  {
    "name": "Dr. Ishtiyak Ahmad- General Physician",
    "address": "Shifa Health Care Centre, Bakshi Gain Road, Navabganj Aliabagh, Nanpara, Bahraich, Uttar Pradesh 271865",
    "phone": "Dr. Ishtiyak Ahmad- General Physician",
    "hours": "Open· Closes 21:00",
    "image_url": "https://www.bing.com/maps/geoplat/REST/v1/Imagery/Map/RoadVibrant?ms=92,134&key=AnTcaqBi2ypp0xI-OZNi4W_ik2KhjgpqioTAtXLC8GzkMBQRMlyxvxyTnd5b73im&c=en-US&ur=in&da=n&logo=n&fmt=png&od=1&shading=hill&pp=27.889454,81.650429;dfp"
  },
  {
    "name": "Dr. Ashutosh Mishra",
    "address": "Bahraich-Gonda Railway Crossing Road Bahraich, Bahraich, Uttar Pradesh",
    "phone": "Dr. Ashutosh Mishra",
    "hours": "Closed· Opens Thu 10:00",
    "image_url": null
  },
  {
    "name": "Dr A N Shukla Clinic",
    "address": "Balrampur Road, Gautam Nagar, Ikauna, Uttar Pradesh 271845",
    "phone": "Dr A N Shukla Clinic",
    "hours": null,
    "image_url": "https://www.bing.com/maps/geoplat/REST/v1/Imagery/Map/RoadVibrant?ms=92,112&key=AnTcaqBi2ypp0xI-OZNi4W_ik2KhjgpqioTAtXLC8GzkMBQRMlyxvxyTnd5b73im&c=en-US&ur=in&da=n&logo=n&fmt=png&od=1&shading=hill&pp=27.528576,81.971466;dfp"
  },
  {
    "name": "Shree Sati Aarogya Homoeopathic Clinic",
    "address": "Vill-Belkar, Belkar, Uttar Pradesh 271831",
    "phone": "Shree Sati Aarogya Homoeopathic Clinic",
    "hours": "Open 24 hours",
    "image_url": "https://www.bing.com/maps/geoplat/REST/v1/Imagery/Map/RoadVibrant?ms=92,134&key=AnTcaqBi2ypp0xI-OZNi4W_ik2KhjgpqioTAtXLC8GzkMBQRMlyxvxyTnd5b73im&c=en-US&ur=in&da=n&logo=n&fmt=png&od=1&shading=hill&pp=27.603622,81.979393;dfp"
  },
  {
    "name": "Adhikari CLINIC-Gilaula Shravasti",
    "address": "Bahraich - Balrampur Rd, Near Allahabad Bank, Gilaula, Uttar Pradesh",
    "phone": "Adhikari CLINIC-Gilaula Shravasti",
    "hours": null,
    "image_url": "https://www.bing.com/maps/geoplat/REST/v1/Imagery/Map/RoadVibrant?ms=92,112&key=AnTcaqBi2ypp0xI-OZNi4W_ik2KhjgpqioTAtXLC8GzkMBQRMlyxvxyTnd5b73im&c=en-US&ur=in&da=n&logo=n&fmt=png&od=1&shading=hill&pp=27.576057,81.59552;dfp"
  },
  {
    "name": "Dr. Ruchi Singh, skin disease & hair clinic",
    "address": "OPP. District Hospital Bahraich, Bahraich, Uttar Pradesh 271801",
    "phone": "Dr. Ruchi Singh, skin disease & hair clinic",
    "hours": "Closed· Opens Sep 27 at 10:00",
    "image_url": "https://www.bing.com/maps/geoplat/REST/v1/Imagery/Map/RoadVibrant?ms=92,112&key=AnTcaqBi2ypp0xI-OZNi4W_ik2KhjgpqioTAtXLC8GzkMBQRMlyxvxyTnd5b73im&c=en-US&ur=in&da=n&logo=n&fmt=png&od=1&shading=hill&pp=27.57353,81.604729;dfp"
  },
  {
    "name": "Siddhartha Homoeopathic Clinic",
    "address": "Front of Shiv Mandir, Khatripura, 04, Rudrabaksh Road, Bahraich, Uttar Pradesh",
    "phone": "Siddhartha Homoeopathic Clinic",
    "hours": null,
    "image_url": "https://www.bing.com/maps/geoplat/REST/v1/Imagery/Map/RoadVibrant?ms=92,112&key=AnTcaqBi2ypp0xI-OZNi4W_ik2KhjgpqioTAtXLC8GzkMBQRMlyxvxyTnd5b73im&c=en-US&ur=in&da=n&logo=n&fmt=png&od=1&shading=hill&pp=27.56575,81.595146;dfp"
  },
  {
    "name": "Dr R D Mishra Nursing Home",
    "address": "Nh730, Nawagarhi, Bakshi Pura, Bahraich, Uttar Pradesh 271801, India, Bahraich, Uttar Pradesh 271801",
    "phone": "Dr R D Mishra Nursing Home",
    "hours": null,
    "image_url": "https://www.bing.com/maps/geoplat/REST/v1/Imagery/Map/RoadVibrant?ms=92,112&key=AnTcaqBi2ypp0xI-OZNi4W_ik2KhjgpqioTAtXLC8GzkMBQRMlyxvxyTnd5b73im&c=en-US&ur=in&da=n&logo=n&fmt=png&od=1&shading=hill&pp=27.577688,81.634018;dfp"
  },
  {
    "name": "Janata Clinic",
    "address": "Katra Bazar Road, Katra, Ikauna, Uttar Pradesh 271711",
    "phone": "Janata Clinic",
    "hours": null,
    "image_url": "https://www.bing.com/maps/geoplat/REST/v1/Imagery/Map/RoadVibrant?ms=92,112&key=AnTcaqBi2ypp0xI-OZNi4W_ik2KhjgpqioTAtXLC8GzkMBQRMlyxvxyTnd5b73im&c=en-US&ur=in&da=n&logo=n&fmt=png&od=1&shading=hill&pp=27.506794,82.029694;dfp"
  },
  {
    "name": "Dr Lal PathLabs - Patient Service Centre",
    "address": "Dakabangla Road, Pani KE Tanki, Ghosi, Uttar Pradesh",
    "phone": "Dr Lal PathLabs - Patient Service Centre",
    "hours": "Open· Closes 19:30",
    "image_url": null
  },
  {
    "name": "Jerath Path Labs & Allergy Testing Centre",
    "address": "Hhcx+633, Near Kanungopura Police Chawki Hospital Chauraha, Brahmnipura, Bahraich, Uttar Pradesh",
    "phone": "Jerath Path Labs & Allergy Testing Centre",
    "hours": null,
    "image_url": null
  }
]