[
  {
    "name": "Dr H K Gogoi Clinic",
    "address": "Sibsagar, Simaluguri, Assam 785685",
    "phone": "Dr H K Gogoi Clinic",
    "hours": null,
    "image_url": "https://www.bing.com/maps/geoplat/REST/v1/Imagery/Map/RoadVibrant?ms=92,112&key=AnTcaqBi2ypp0xI-OZNi4W_ik2KhjgpqioTAtXLC8GzkMBQRMlyxvxyTnd5b73im&c=en-US&ur=in&da=n&logo=n&fmt=png&od=1&shading=hill&pp=26.925823,94.74614;dfp"
  },
  {
    "name": "Dr. Hitesh Kalita- Medical Gastroenterology & Hepatology",
    "address": "New Borthakur Medical Store, Babu Patty, Road, Near Bata, Dolmukh Chariali, Sivasagar, Assam 785640",
    "phone": "Dr. Hitesh Kalita- Medical Gastroenterology & Hepatology",
    "hours": "Closed· Opens Wed 09:00",
    "image_url": "https://www.bing.com/maps/geoplat/REST/v1/Imagery/Map/RoadVibrant?ms=92,134&key=AnTcaqBi2ypp0xI-OZNi4W_ik2KhjgpqioTAtXLC8GzkMBQRMlyxvxyTnd5b73im&c=en-US&ur=in&da=n&logo=n&fmt=png&od=1&shading=hill&pp=26.98671,94.632553;dfp"
  },
  {
    "name": "Dr. Sanjib Mahanta- Gynaecologist In Sibsagar",
    "address": "Sampreeti Hospital, AT Road, Kanak Nagar, Sivasagar, Assam 785640",
    "phone": "Dr. Sanjib Mahanta- Gynaecologist In Sibsagar",
    "hours": "Closed· Opens 16:00",
    "image_url": "https://www.bing.com/maps/geoplat/REST/v1/Imagery/Map/RoadVibrant?ms=92,134&key=AnTcaqBi2ypp0xI-OZNi4W_ik2KhjgpqioTAtXLC8GzkMBQRMlyxvxyTnd5b73im&c=en-US&ur=in&da=n&logo=n&fmt=png&od=1&shading=hill&pp=26.993526,94.640686;dfp"
  },
  {
    "name": "Dr Rajkhowa homoeopathic chamber",
    "address": "GNG Rd, Sivasagar, Assam",
    "phone": "Dr Rajkhowa homoeopathic chamber",
    "hours": null,
    "image_url": "https://www.bing.com/maps/geoplat/REST/v1/Imagery/Map/RoadVibrant?ms=92,112&key=AnTcaqBi2ypp0xI-OZNi4W_ik2KhjgpqioTAtXLC8GzkMBQRMlyxvxyTnd5b73im&c=en-US&ur=in&da=n&logo=n&fmt=png&od=1&shading=hill&pp=26.985283,94.632927;dfp"
  },
  {
    "name": "Patanjali Chikitsalaya",
    "address": "HCB Rd, Amolapatty, Sivasagar, Assam",
    "phone": "Patanjali Chikitsalaya",
    "hours": null,
    "image_url": "https://www.bing.com/maps/geoplat/REST/v1/Imagery/Map/RoadVibrant?ms=92,112&key=AnTcaqBi2ypp0xI-OZNi4W_ik2KhjgpqioTAtXLC8GzkMBQRMlyxvxyTnd5b73im&c=en-US&ur=in&da=n&logo=n&fmt=png&od=1&shading=hill&pp=26.995565,94.642532;dfp"
  },
  {
    "name": "Care Life Clinic",
    "address": "Ward No Viii, N.h 61, Amguri, Sivasagar, Assam 785680, India, Sivasagar, Assam 785680",
    "phone": "Care Life Clinic",
    "hours": null,
    "image_url": "https://www.bing.com/maps/geoplat/REST/v1/Imagery/Map/RoadVibrant?ms=92,112&key=AnTcaqBi2ypp0xI-OZNi4W_ik2KhjgpqioTAtXLC8GzkMBQRMlyxvxyTnd5b73im&c=en-US&ur=in&da=n&logo=n&fmt=png&od=1&shading=hill&pp=26.811251,94.521011;dfp"
  },
  {
    "name": "Spandan CT Scan Unit",
    "address": "Joysagar, Rupahi Pathar, Assam",
    "phone": "Spandan CT Scan Unit",
    "hours": null,
    "image_url": "https://www.bing.com/maps/geoplat/REST/v1/Imagery/Map/RoadVibrant?ms=92,112&key=AnTcaqBi2ypp0xI-OZNi4W_ik2KhjgpqioTAtXLC8GzkMBQRMlyxvxyTnd5b73im&c=en-US&ur=in&da=n&logo=n&fmt=png&od=1&shading=hill&pp=26.959316,94.61274;dfp"
  },
  {
    "name": "Dr.Satyabhama Multispeciality Dental Clinic",
    "address": "Damani Medical Store, Dolmukh Chariali, Sivasagar, Assam",
    "phone": "Dr.Satyabhama Multispeciality Dental Clinic",
    "hours": null,
    "image_url": "https://www.bing.com/maps/geoplat/REST/v1/Imagery/Map/RoadVibrant?ms=92,112&key=AnTcaqBi2ypp0xI-OZNi4W_ik2KhjgpqioTAtXLC8GzkMBQRMlyxvxyTnd5b73im&c=en-US&ur=in&da=n&logo=n&fmt=png&od=1&shading=hill&pp=26.987728,94.633163;dfp"
  },
  {
    "name": "Apollo Dialysis Clinics, Sibsagar",
    "address": "Civil Hospital, Sivasagar, Assam 785640",
    "phone": "Apollo Dialysis Clinics, Sibsagar",
    "hours": "Open· Closes 21:00",
    "image_url": "https://www.bing.com/maps/geoplat/REST/v1/Imagery/Map/RoadVibrant?ms=92,134&key=AnTcaqBi2ypp0xI-OZNi4W_ik2KhjgpqioTAtXLC8GzkMBQRMlyxvxyTnd5b73im&c=en-US&ur=in&da=n&logo=n&fmt=png&od=1&shading=hill&pp=26.955118,94.610954;dfp"
  }
]