[
  {
    "name": "Dr. Swadesh Kumar Goyal",
    "address": "Birsa Dahar Road, Udit Nagar, Orissa",
    "phone": "Dr. Swadesh Kumar Goyal",
    "hours": "Open· Closes 13:00",
    "image_url": "https://www.bing.com/maps/geoplat/REST/v1/Imagery/Map/RoadVibrant?ms=92,112&key=AnTcaqBi2ypp0xI-OZNi4W_ik2KhjgpqioTAtXLC8GzkMBQRMlyxvxyTnd5b73im&c=en-US&ur=in&da=n&logo=n&fmt=png&od=1&shading=hill&pp=22.223562,84.847878;dfp"
  },
  {
    "name": "Dr. Sushil kumar | Spark General Hospital",
    "address": "Sector 19 Rourkela, Rourkela, Odisha, India, 769005, Rourkela, Madhya Pradesh 769005",
    "phone": "Dr. Sushil kumar | Spark General Hospital",
    "hours": "Open· Closes 13:00",
    "image_url": "/th?id=OLC.gInLm5%2btTyIaJQ480x360&w=92&h=134&c=8&rs=1&qlt=80&cdv=1&pid=Local"
  },
  {
    "name": "Dr. Sekh Kalim General Physician",
    "address": "Anand Bhavan Lane, Rourkela 769001",
    "phone": "Dr. Sekh Kalim General Physician",
    "hours": "Closed· Opens 18:00",
    "image_url": "/th?id=OLC.d6S2DKKKmBP%2bPw480x360&w=92&h=134&c=8&rs=1&qlt=80&cdv=1&pid=Local"
  },
  {
    "name": "Dr Dutta Clinic",
    "address": "Panposh Road, Pragati Badi Office, Udit Nagar, Raurkela-Panposh, Odisha 769004",
    "phone": "Dr Dutta Clinic",
    "hours": null,
    "image_url": "/th?id=OLC.6tu7mHLJ1b%2foHA480x360&w=92&h=112&c=8&rs=1&qlt=80&cdv=1&pid=Local"
  },
  {
    "name": "Srijan Clinic - Best Gynaecologist in Rourkela",
    "address": "House NO. B, 227, Near तारिणी मंदिर, Koelnagar B Block, Koel Nagar, Rourkela, Odisha",
    "phone": "Srijan Clinic - Best Gynaecologist in Rourkela",
    "hours": null,
    "image_url": "/th?id=OLC.KWeSIoqhbPokrA480x360&w=92&h=112&c=8&rs=1&qlt=80&cdv=1&pid=Local"
  },
  {
    "name": "Dr P K Panda Clinic",
    "address": "Alakapuri, Raghunath Pali, Rourkela, Raurkela-Panposh, Odisha 769004",
    "phone": "Dr P K Panda Clinic",
    "hours": null,
    "image_url": "https://www.bing.com/maps/geoplat/REST/v1/Imagery/Map/RoadVibrant?ms=92,112&key=AnTcaqBi2ypp0xI-OZNi4W_ik2KhjgpqioTAtXLC8GzkMBQRMlyxvxyTnd5b73im&c=en-US&ur=in&da=n&logo=n&fmt=png&od=1&shading=hill&pp=22.22596,84.814407;dfp"
  },
  {
    "name": "Dr.Sarmistha Priyadarshani",
    "address": "Guguly Medicine Store, BDA Complex, New Bus Stand Rd, Aurobinda Nagar, Brahmapur, Odisha",
    "phone": "Dr.Sarmistha Priyadarshani",
    "hours": null,
    "image_url": "https://www.bing.com/maps/geoplat/REST/v1/Imagery/Map/RoadVibrant?ms=92,112&key=AnTcaqBi2ypp0xI-OZNi4W_ik2KhjgpqioTAtXLC8GzkMBQRMlyxvxyTnd5b73im&c=en-US&ur=in&da=n&logo=n&fmt=png&od=1&shading=hill&pp=22.226704,84.86731;dfp"
  },
  {
    "name": "Shiva Clinic",
    "address": "Sambalpur Road, Hotel Jammu, Vedvyas, Panposh, Odisha 769041",
    "phone": "Shiva Clinic",
    "hours": null,
    "image_url": "https://www.bing.com/maps/geoplat/REST/v1/Imagery/Map/RoadVibrant?ms=92,112&key=AnTcaqBi2ypp0xI-OZNi4W_ik2KhjgpqioTAtXLC8GzkMBQRMlyxvxyTnd5b73im&c=en-US&ur=in&da=n&logo=n&fmt=png&od=1&shading=hill&pp=22.233912,84.780281;dfp"
  },
  {
    "name": "Kalupada Ghat Seka Clinic",
    "address": "Shop no.-172, Laxmi Market I.G.H Gate, Sector 19, Rourkela, Odisha",
    "phone": "Kalupada Ghat Seka Clinic",
    "hours": null,
    "image_url": "https://www.bing.com/maps/geoplat/REST/v1/Imagery/Map/RoadVibrant?ms=92,112&key=AnTcaqBi2ypp0xI-OZNi4W_ik2KhjgpqioTAtXLC8GzkMBQRMlyxvxyTnd5b73im&c=en-US&ur=in&da=n&logo=n&fmt=png&od=1&shading=hill&pp=22.268505,84.870781;dfp"
  },
  {
    "name": "Dr S Sinha Clinic",
    "address": "Jaspur Road, Near Sadar Hospital, Gumla, Jharkhand 835207",
    "phone": "Dr S Sinha Clinic",
    "hours": null,
    "image_url": "https://www.bing.com/maps/geoplat/REST/v1/Imagery/Map/RoadVibrant?ms=92,112&key=AnTcaqBi2ypp0xI-OZNi4W_ik2KhjgpqioTAtXLC8GzkMBQRMlyxvxyTnd5b73im&c=en-US&ur=in&da=n&logo=n&fmt=png&od=1&shading=hill&pp=23.035748,84.538857;dfp"
  },
  {
    "name": "Jayguru Clinic",
    "address": "Sector 19 Main Road, Ispat Gajapati Market, Sector 19, Raurkela-Panposh, Odisha 769001",
    "phone": "Jayguru Clinic",
    "hours": null,
    "image_url": "https://www.bing.com/maps/geoplat/REST/v1/Imagery/Map/RoadVibrant?ms=92,112&key=AnTcaqBi2ypp0xI-OZNi4W_ik2KhjgpqioTAtXLC8GzkMBQRMlyxvxyTnd5b73im&c=en-US&ur=in&da=n&logo=n&fmt=png&od=1&shading=hill&pp=22.260695,84.871689;dfp"
  },
  {
    "name": "Dr Batra's Homeopathy",
    "address": "Ground Floor, Chowdhury Complex, Pan Posh Road, Sundargarh, Bisra, Odisha 769004",
    "phone": "Dr Batra's Homeopathy",
    "hours": "Open· Closes 20:00",
    "image_url": null
  },
  {
    "name": "Dr Das Gupta Clinic",
    "address": "Main Road Gumla, Near Shahid Tower Chowk, Gumla, Jharkhand 835207",
    "phone": "Dr Das Gupta Clinic",
    "hours": null,
    "image_url": "https://www.bing.com/maps/geoplat/REST/v1/Imagery/Map/RoadVibrant?ms=92,112&key=AnTcaqBi2ypp0xI-OZNi4W_ik2KhjgpqioTAtXLC8GzkMBQRMlyxvxyTnd5b73im&c=en-US&ur=in&da=n&logo=n&fmt=png&od=1&shading=hill&pp=23.041739,84.542404;dfp"
  },
  {
    "name": "Utkalmani Homoeopathic Medical College & Hospital",
    "address": "Kishan Basti, Nayabazar, Sector 21, Rourkela, Odisha 769010, India, Rourkela, Odisha 769010",
    "phone": "Utkalmani Homoeopathic Medical College & Hospital",
    "hours": null,
    "image_url": null
  },
  {
    "name": "Breathfree Chest Clinic",
    "address": "Shop No - 56, NAC JJ Market, Chhend Colony, Rourkela, Odisha",
    "phone": "Breathfree Chest Clinic",
    "hours": null,
    "image_url": "https://www.bing.com/maps/geoplat/REST/v1/Imagery/Map/RoadVibrant?ms=92,112&key=AnTcaqBi2ypp0xI-OZNi4W_ik2KhjgpqioTAtXLC8GzkMBQRMlyxvxyTnd5b73im&c=en-US&ur=in&da=n&logo=n&fmt=png&od=1&shading=hill&pp=22.255409,84.864113;dfp"
  },
  {
    "name": "Alam Clinic",
    "address": "Rourkela Road, Zam Zam Shopping Complex, Simdega, Jharkhand 835223",
    "phone": "Alam Clinic",
    "hours": null,
    "image_url": "https://www.bing.com/maps/geoplat/REST/v1/Imagery/Map/RoadVibrant?ms=92,112&key=AnTcaqBi2ypp0xI-OZNi4W_ik2KhjgpqioTAtXLC8GzkMBQRMlyxvxyTnd5b73im&c=en-US&ur=in&da=n&logo=n&fmt=png&od=1&shading=hill&pp=22.600878,84.501244;dfp"
  },
  {
    "name": "Dr. B Mukherjee",
    "address": "Sector 22, Rourkela 7, Orissa",
    "phone": "Dr. B Mukherjee",
    "hours": "Closed· Opens Sep 28 at 18:30",
    "image_url": "https://www.bing.com/maps/geoplat/REST/v1/Imagery/Map/RoadVibrant?ms=92,112&key=AnTcaqBi2ypp0xI-OZNi4W_ik2KhjgpqioTAtXLC8GzkMBQRMlyxvxyTnd5b73im&c=en-US&ur=in&da=n&logo=n&fmt=png&od=1&shading=hill&pp=22.189272,84.857536;dfp"
  },
  {
    "name": "Dr Prakash's Bone & Joint Care Clinic - Top Orthopaedic Doctor in Ranchi",
    "address": "48A, Near Adarsh Bal Niketan School, Old A G Colony, Kadru, Ashok Nagar, Ranchi, Jharkhand",
    "phone": "Dr Prakash's Bone & Joint Care Clinic - Top Orthopaedic Doctor in Ranchi",
    "hours": null,
    "image_url": null
  }
]