[
  {
    "name": "Dr. Gagan Sethi",
    "address": "Nh24, Euro Kids School, Avas Vikas Colony, Sitapur, Uttar Pradesh 261001",
    "phone": "Dr. Gagan Sethi",
    "hours": "Closed· Opens 11:00",
    "image_url": "https://www.bing.com/maps/geoplat/REST/v1/Imagery/Map/RoadVibrant?ms=92,112&key=AnTcaqBi2ypp0xI-OZNi4W_ik2KhjgpqioTAtXLC8GzkMBQRMlyxvxyTnd5b73im&c=en-US&ur=in&da=n&logo=n&fmt=png&od=1&shading=hill&pp=27.561644,80.690544;dfp"
  },
  {
    "name": "Dr Irshad Ali ( Ivaan Health Care)",
    "address": "Near Devson Appliances, Prem Nagar, Sitapur, Uttar Pradesh 261001",
    "phone": "Dr Irshad Ali ( Ivaan Health Care)",
    "hours": "Open· Closes 13:00",
    "image_url": "/th?id=OLC.CgADqiJ3qR9xRA480x360&w=92&h=134&c=8&rs=1&qlt=80&cdv=1&pid=Local"
  },
  {
    "name": "Sethi Hospital",
    "address": "Station Road Sitapur, Sitapur, Uttar Pradesh 261001",
    "phone": "Sethi Hospital",
    "hours": null,
    "image_url": "/th?id=OLC.umS9gi7Ed7pWeg480x360&w=92&h=112&c=8&rs=1&qlt=80&cdv=1&pid=Local"
  },
  {
    "name": "Parwati Clinic Dr Amit Kashyap",
    "address": "Unnamed Road, A.P.O, A.P.O Colony, Sitapur, Uttar Pradesh",
    "phone": "Parwati Clinic Dr Amit Kashyap",
    "hours": null,
    "image_url": "https://www.bing.com/maps/geoplat/REST/v1/Imagery/Map/RoadVibrant?ms=92,112&key=AnTcaqBi2ypp0xI-OZNi4W_ik2KhjgpqioTAtXLC8GzkMBQRMlyxvxyTnd5b73im&c=en-US&ur=in&da=n&logo=n&fmt=png&od=1&shading=hill&pp=27.565466,80.69281;dfp"
  },
  {
    "name": "Sishu Swasthya Kendra ( Dr Pradeep Jain)",
    "address": "Civil Lines, Prem Nagar, Sitapur, Uttar Pradesh 261001, India, Sitapur, Uttar Pradesh 261001",
    "phone": "Sishu Swasthya Kendra ( Dr Pradeep Jain)",
    "hours": null,
    "image_url": "/th?id=OLC.cz0voCesKwSExQ480x360&w=92&h=112&c=8&rs=1&qlt=80&cdv=1&pid=Local"
  },
  {
    "name": "Anannya Clinic, Dr Onkar Singh & Dr.Shailaja Singh",
    "address": "42/A, Vikas Nagar, Besides Stadium, Jail Rd, Raebareli, Uttar Pradesh",
    "phone": "Anannya Clinic, Dr Onkar Singh & Dr.Shailaja Singh",
    "hours": null,
    "image_url": "https://www.bing.com/maps/geoplat/REST/v1/Imagery/Map/RoadVibrant?ms=92,112&key=AnTcaqBi2ypp0xI-OZNi4W_ik2KhjgpqioTAtXLC8GzkMBQRMlyxvxyTnd5b73im&c=en-US&ur=in&da=n&logo=n&fmt=png&od=1&shading=hill&pp=27.567913,80.683487;dfp"
  },
  {
    "name": "DR.Kanika Agarwal",
    "address": "Eye Hospital Road, Sitapur, Uttar Pradesh 261001",
    "phone": "DR.Kanika Agarwal",
    "hours": null,
    "image_url": "https://www.bing.com/maps/geoplat/REST/v1/Imagery/Map/RoadVibrant?ms=92,112&key=AnTcaqBi2ypp0xI-OZNi4W_ik2KhjgpqioTAtXLC8GzkMBQRMlyxvxyTnd5b73im&c=en-US&ur=in&da=n&logo=n&fmt=png&od=1&shading=hill&pp=27.56035,80.687637;dfp"
  },
  {
    "name": "Dr. Shivendra Prtap | Lucknow Health Clinic & jaccha baccha Kendra | BAMS",
    "address": "Polyclinic and eye Care Center Sitapur, Sitapur, Uttar Pradesh, India, 261001, Sitapur, Madhya Pradesh 2610…",
    "phone": "Dr. Shivendra Prtap | Lucknow Health Clinic & jaccha baccha Kendra | BAMS",
    "hours": "Open· Closes 20:00",
    "image_url": null
  },
  {
    "name": "Khan Clinic (dr.a.a.khan)",
    "address": "130, Mirdahi Tola, Qaziyara, Uttar Pradesh 261001",
    "phone": "Khan Clinic (dr.a.a.khan)",
    "hours": null,
    "image_url": null
  },
  {
    "name": "Dr K D Joshi",
    "address": "Lucknow Road, Sitapur, Uttar Pradesh 261001",
    "phone": "Dr K D Joshi",
    "hours": null,
    "image_url": "https://www.bing.com/maps/geoplat/REST/v1/Imagery/Map/RoadVibrant?ms=92,112&key=AnTcaqBi2ypp0xI-OZNi4W_ik2KhjgpqioTAtXLC8GzkMBQRMlyxvxyTnd5b73im&c=en-US&ur=in&da=n&logo=n&fmt=png&od=1&shading=hill&pp=27.556564,80.699829;dfp"
  },
  {
    "name": "Dr. Naveen Kumar Srivastava",
    "address": "Lal Kapra Kothi Chauraha, Sitapur, Uttar Pradesh",
    "phone": "Dr. Naveen Kumar Srivastava",
    "hours": "Open· Closes 14:00",
    "image_url": null
  },
  {
    "name": "Dr. Furqanudin | Paediatrician | Sahara clinic",
    "address": "Sahara Clinic, Sitapur, Uttar Pradesh, India, 261201, Sitapur, Madhya Pradesh 261201",
    "phone": "Dr. Furqanudin | Paediatrician | Sahara clinic",
    "hours": "Open· Closes 14:30",
    "image_url": null
  },
  {
    "name": "Dr Lal PathLabs - Patient Service Centre",
    "address": "Uttar Pradesh 261001, Station Rd, Near Chaska Resturant, Halwapur House, Kochi 261001",
    "phone": "Dr Lal PathLabs - Patient Service Centre",
    "hours": "Open· Closes 19:30",
    "image_url": "https://www.bing.com/maps/geoplat/REST/v1/Imagery/Map/RoadVibrant?ms=92,134&key=AnTcaqBi2ypp0xI-OZNi4W_ik2KhjgpqioTAtXLC8GzkMBQRMlyxvxyTnd5b73im&c=en-US&ur=in&da=n&logo=n&fmt=png&od=1&shading=hill&pp=27.564774,80.68232;dfp"
  },
  {
    "name": "Sitapur ENT Superspeciality Clinic",
    "address": "Sitapur Medical Hall, Greekganj, Sitapur, Uttar Pradesh 261001",
    "phone": "Sitapur ENT Superspeciality Clinic",
    "hours": "Closed· Opens Thu 10:00",
    "image_url": "https://www.bing.com/maps/geoplat/REST/v1/Imagery/Map/RoadVibrant?ms=92,134&key=AnTcaqBi2ypp0xI-OZNi4W_ik2KhjgpqioTAtXLC8GzkMBQRMlyxvxyTnd5b73im&c=en-US&ur=in&da=n&logo=n&fmt=png&od=1&shading=hill&pp=27.571157,80.683113;dfp"
  },
  {
    "name": "Lifeline Labs Sidhauli|Best Pathology  |Pathology",
    "address": "Opposite Dr. Jaiswal, Prem Nagar, Sidhauli, Uttar Pradesh",
    "phone": "Lifeline Labs Sidhauli|Best Pathology  |Pathology",
    "hours": null,
    "image_url": null
  },
  {
    "name": "Dr. Naveen Kumar Srivastava",
    "address": "Life Line Clinic, Biswan Crossing, Sidhauli, Sitapur, Uttar Pradesh",
    "phone": "Dr. Naveen Kumar Srivastava",
    "hours": "Closed· Opens Thu 10:00",
    "image_url": null
  }
]