[
  {
    "name": "Dr. Vishwambhar Kumar",
    "address": "Prasad Health Care, opp.- Bazar Samiti, Sitamarhi Road, Bairgania, Opp.- Bazar Samiti, Sitamarhi, Bihar",
    "phone": "Dr. Vishwambhar Kumar",
    "hours": null,
    "image_url": "https://www.bing.com/maps/geoplat/REST/v1/Imagery/Map/RoadVibrant?ms=92,112&key=AnTcaqBi2ypp0xI-OZNi4W_ik2KhjgpqioTAtXLC8GzkMBQRMlyxvxyTnd5b73im&c=en-US&ur=in&da=n&logo=n&fmt=png&od=1&shading=hill&pp=26.592148,85.495956;dfp"
  },
  {
    "name": "Doctor Sushma Singh Clinic",
    "address": "Bypass Road, Bholenath Mandir, Koat Bazar, Sitamarhi, Bihar 843301",
    "phone": "Doctor Sushma Singh Clinic",
    "hours": null,
    "image_url": "https://www.bing.com/maps/geoplat/REST/v1/Imagery/Map/RoadVibrant?ms=92,112&key=AnTcaqBi2ypp0xI-OZNi4W_ik2KhjgpqioTAtXLC8GzkMBQRMlyxvxyTnd5b73im&c=en-US&ur=in&da=n&logo=n&fmt=png&od=1&shading=hill&pp=26.58873,85.489586;dfp"
  },
  {
    "name": "Dr Rajesh Kumar",
    "address": "Sitamarhi Road, Baswariya Chowk, Mehsaul Pashchim, Sitamarhi, Bihar 843301",
    "phone": "Dr Rajesh Kumar",
    "hours": "Closed· Opens 11:00",
    "image_url": "https://www.bing.com/maps/geoplat/REST/v1/Imagery/Map/RoadVibrant?ms=92,112&key=AnTcaqBi2ypp0xI-OZNi4W_ik2KhjgpqioTAtXLC8GzkMBQRMlyxvxyTnd5b73im&c=en-US&ur=in&da=n&logo=n&fmt=png&od=1&shading=hill&pp=26.600191,85.513405;dfp"
  },
  {
    "name": "Dr. Piyush Raj",
    "address": "Hospital Road, Sitamarhi, Bihar",
    "phone": "Dr. Piyush Raj",
    "hours": "Open· Closes 17:00",
    "image_url": "/th?id=OLC.R%2byEsMPk1zoSZA480x360&w=92&h=112&c=8&rs=1&qlt=80&cdv=1&pid=Local"
  },
  {
    "name": "Doctor A K Jha Clinic",
    "address": "Hospital Road, Aashirwad Hospital, Kvj Nagar, Sitamarhi, Bihar 843301",
    "phone": "Doctor A K Jha Clinic",
    "hours": null,
    "image_url": "https://www.bing.com/maps/geoplat/REST/v1/Imagery/Map/RoadVibrant?ms=92,112&key=AnTcaqBi2ypp0xI-OZNi4W_ik2KhjgpqioTAtXLC8GzkMBQRMlyxvxyTnd5b73im&c=en-US&ur=in&da=n&logo=n&fmt=png&od=1&shading=hill&pp=26.596682,85.497414;dfp"
  },
  {
    "name": "Dr Sanjay Kumar Singh Clinic",
    "address": "Sitamarhi, Bihar 843302",
    "phone": "Dr Sanjay Kumar Singh Clinic",
    "hours": null,
    "image_url": "https://www.bing.com/maps/geoplat/REST/v1/Imagery/Map/RoadVibrant?ms=92,112&key=AnTcaqBi2ypp0xI-OZNi4W_ik2KhjgpqioTAtXLC8GzkMBQRMlyxvxyTnd5b73im&c=en-US&ur=in&da=n&logo=n&fmt=png&od=1&shading=hill&pp=26.59561,85.492752;dfp"
  },
  {
    "name": "Dr. Rajesh Kumar Suman (pt)",
    "address": "Maharani Sthan Road, Talkapur, Shanti Nagar, Dumra Road, Sitamarhi, Bihar",
    "phone": "Dr. Rajesh Kumar Suman (pt)",
    "hours": "Open· Closes 11:00",
    "image_url": null
  },
  {
    "name": "Kumar Clinic",
    "address": "Hospital Road, Bairgania, Sitamarhi - 843313, Near Kali Mandir Chowk, Sitamarhi, Bihar 843313",
    "phone": "Kumar Clinic",
    "hours": null,
    "image_url": "https://www.bing.com/maps/geoplat/REST/v1/Imagery/Map/RoadVibrant?ms=92,112&key=AnTcaqBi2ypp0xI-OZNi4W_ik2KhjgpqioTAtXLC8GzkMBQRMlyxvxyTnd5b73im&c=en-US&ur=in&da=n&logo=n&fmt=png&od=1&shading=hill&pp=26.591602,85.516312;dfp"
  },
  {
    "name": "Dr. M B Singh Clinic",
    "address": "Pratap Nagar, Sitamarhi, Bihar 843301, India, Sitamarhi, Bihar 843301",
    "phone": "Dr. M B Singh Clinic",
    "hours": null,
    "image_url": null
  },
  {
    "name": "Dr. Md D Shamim | Consultant Physician & Diabetologist | Rasha Health Care",
    "address": "Behind Rajopatti Shiv Mandir, Kargil Chowk, Sitamarhi, Bihar, India, 843302, Sitamarhi, Madhya Pradesh 843302",
    "phone": "Dr. Md D Shamim | Consultant Physician & Diabetologist | Rasha Health Care",
    "hours": "Open· Closes 20:00",
    "image_url": null
  },
  {
    "name": "Shree Balaji Clinic",
    "address": "Nh77, Sitamarhi, Bihar 843302",
    "phone": "Shree Balaji Clinic",
    "hours": null,
    "image_url": "https://www.bing.com/maps/geoplat/REST/v1/Imagery/Map/RoadVibrant?ms=92,112&key=AnTcaqBi2ypp0xI-OZNi4W_ik2KhjgpqioTAtXLC8GzkMBQRMlyxvxyTnd5b73im&c=en-US&ur=in&da=n&logo=n&fmt=png&od=1&shading=hill&pp=26.586132,85.503189;dfp"
  },
  {
    "name": "Rb Singh Memorial Clinic",
    "address": "Hospital Road, Kali Mandir, Kvj Nagar, Sitamarhi, Bihar 843301",
    "phone": "Rb Singh Memorial Clinic",
    "hours": null,
    "image_url": "https://www.bing.com/maps/geoplat/REST/v1/Imagery/Map/RoadVibrant?ms=92,112&key=AnTcaqBi2ypp0xI-OZNi4W_ik2KhjgpqioTAtXLC8GzkMBQRMlyxvxyTnd5b73im&c=en-US&ur=in&da=n&logo=n&fmt=png&od=1&shading=hill&pp=26.594643,85.499062;dfp"
  },
  {
    "name": "Sarkar Clinic",
    "address": "Sitamarhi Main Road, Hanuman Mandir, Malahi, Sitamarhi, Bihar 843301",
    "phone": "Sarkar Clinic",
    "hours": null,
    "image_url": "https://www.bing.com/maps/geoplat/REST/v1/Imagery/Map/RoadVibrant?ms=92,112&key=AnTcaqBi2ypp0xI-OZNi4W_ik2KhjgpqioTAtXLC8GzkMBQRMlyxvxyTnd5b73im&c=en-US&ur=in&da=n&logo=n&fmt=png&od=1&shading=hill&pp=26.595072,85.503288;dfp"
  },
  {
    "name": "Dr Rana Rahul Clinic",
    "address": "Dr Rana Rahul, Litchi Bagan, Hospital Road, Sitamarhi, Bihar 843302",
    "phone": "Dr Rana Rahul Clinic",
    "hours": null,
    "image_url": "https://www.bing.com/maps/geoplat/REST/v1/Imagery/Map/RoadVibrant?ms=92,112&key=AnTcaqBi2ypp0xI-OZNi4W_ik2KhjgpqioTAtXLC8GzkMBQRMlyxvxyTnd5b73im&c=en-US&ur=in&da=n&logo=n&fmt=png&od=1&shading=hill&pp=26.585579,85.537117;dfp"
  },
  {
    "name": "Dr Abhishek Kumar DM neurology (Sitamarhi branch)/ Best Neurologist/ Neurophysician",
    "address": "Jya uma Complex, Nahar, Chowk, Dumra Rd, Sitamarhi, Bihar",
    "phone": "Dr Abhishek Kumar DM neurology (Sitamarhi branch)/ Best Neurologist/ Neurophysician",
    "hours": null,
    "image_url": "https://www.bing.com/maps/geoplat/REST/v1/Imagery/Map/RoadVibrant?ms=92,112&key=AnTcaqBi2ypp0xI-OZNi4W_ik2KhjgpqioTAtXLC8GzkMBQRMlyxvxyTnd5b73im&c=en-US&ur=in&da=n&logo=n&fmt=png&od=1&shading=hill&pp=26.591423,85.517159;dfp"
  },
  {
    "name": "Child Guidance Clinic",
    "address": "Kailashpuri, Dumra, Bihar",
    "phone": "Child Guidance Clinic",
    "hours": null,
    "image_url": "https://www.bing.com/maps/geoplat/REST/v1/Imagery/Map/RoadVibrant?ms=92,112&key=AnTcaqBi2ypp0xI-OZNi4W_ik2KhjgpqioTAtXLC8GzkMBQRMlyxvxyTnd5b73im&c=en-US&ur=in&da=n&logo=n&fmt=png&od=1&shading=hill&pp=26.564907,85.521538;dfp"
  },
  {
    "name": "Dr Umesh Diagnostic Centre",
    "address": "Ground Floor, OM Prakash House, Sahu Chowk, Rajopatti, Dumra, Dumra Road, Sahu Chowk, Sitamarh…",
    "phone": "Dr Umesh Diagnostic Centre",
    "hours": null,
    "image_url": "https://www.bing.com/maps/geoplat/REST/v1/Imagery/Map/RoadVibrant?ms=92,112&key=AnTcaqBi2ypp0xI-OZNi4W_ik2KhjgpqioTAtXLC8GzkMBQRMlyxvxyTnd5b73im&c=en-US&ur=in&da=n&logo=n&fmt=png&od=1&shading=hill&pp=26.597975,85.495735;dfp"
  },
  {
    "name": "Khanna-Khatri Dental Care DR.H.N.KHANNA",
    "address": "Sitamarhi - Riga Road Janki Asthan, Infront of bus Stand, Sitamarhi, Bihar",
    "phone": "Khanna-Khatri Dental Care DR.H.N.KHANNA",
    "hours": null,
    "image_url": null
  }
]