[
  {
    "name": "Dr Anwar",
    "address": "Sri Sai Multispeciality Hospital, Bangali Pakri Mor, Gaushala Road, Siwan, Bihar, Siwan",
    "phone": "Dr Anwar",
    "hours": null,
    "image_url": "/th?id=OLC.ocno30fRnpmuSg480x360&w=92&h=112&c=8&rs=1&qlt=80&cdv=1&pid=Local"
  },
  {
    "name": "Dr Pandit Jai Prakash Clinic",
    "address": "Siwan, Sadan Hospital Road, Hospital Road, Hussainganj, Bihar 841226",
    "phone": "Dr Pandit Jai Prakash Clinic",
    "hours": null,
    "image_url": "https://www.bing.com/maps/geoplat/REST/v1/Imagery/Map/RoadVibrant?ms=92,112&key=AnTcaqBi2ypp0xI-OZNi4W_ik2KhjgpqioTAtXLC8GzkMBQRMlyxvxyTnd5b73im&c=en-US&ur=in&da=n&logo=n&fmt=png&od=1&shading=hill&pp=26.226776,84.364227;dfp"
  },
  {
    "name": "Dr M A Zahid",
    "address": "Babunia Rd, Near SBI ATM, Kagzi Muhalla, Siwan, Bihar",
    "phone": "Dr M A Zahid",
    "hours": null,
    "image_url": "https://www.bing.com/maps/geoplat/REST/v1/Imagery/Map/RoadVibrant?ms=92,112&key=AnTcaqBi2ypp0xI-OZNi4W_ik2KhjgpqioTAtXLC8GzkMBQRMlyxvxyTnd5b73im&c=en-US&ur=in&da=n&logo=n&fmt=png&od=1&shading=hill&pp=26.218044,84.362152;dfp"
  },
  {
    "name": "Dr Mubarak Ali Arthroscopic & Trauma Surgeon",
    "address": "Khan Hospital, Khan Market, Hospital Road, Siwan, Bihar, Bihar 841226",
    "phone": "Dr Mubarak Ali Arthroscopic & Trauma Surgeon",
    "hours": null,
    "image_url": "https://www.bing.com/maps/geoplat/REST/v1/Imagery/Map/RoadVibrant?ms=92,112&key=AnTcaqBi2ypp0xI-OZNi4W_ik2KhjgpqioTAtXLC8GzkMBQRMlyxvxyTnd5b73im&c=en-US&ur=in&da=n&logo=n&fmt=png&od=1&shading=hill&pp=26.224937,84.360916;dfp"
  },
  {
    "name": "Dr. Shambhu Kumar",
    "address": "Gosala Road, Pakri More, Siwan, Bihar",
    "phone": "Dr. Shambhu Kumar",
    "hours": "Open· Closes 18:00",
    "image_url": "https://www.bing.com/maps/geoplat/REST/v1/Imagery/Map/RoadVibrant?ms=92,134&key=AnTcaqBi2ypp0xI-OZNi4W_ik2KhjgpqioTAtXLC8GzkMBQRMlyxvxyTnd5b73im&c=en-US&ur=in&da=n&logo=n&fmt=png&od=1&shading=hill&pp=26.226397,84.339027;dfp"
  },
  {
    "name": "Dr Ashutosh Kumar",
    "address": "Fatehpur, Bye Pass Road, Hussainganj, Bihar 841226",
    "phone": "Dr Ashutosh Kumar",
    "hours": null,
    "image_url": "https://www.bing.com/maps/geoplat/REST/v1/Imagery/Map/RoadVibrant?ms=92,112&key=AnTcaqBi2ypp0xI-OZNi4W_ik2KhjgpqioTAtXLC8GzkMBQRMlyxvxyTnd5b73im&c=en-US&ur=in&da=n&logo=n&fmt=png&od=1&shading=hill&pp=26.225569,84.363861;dfp"
  },
  {
    "name": "Dr. Rameshwar Kumar",
    "address": "Surgeon Lane, Goushala Road, Hospital Rd, Siwan, Bihar",
    "phone": "Dr. Rameshwar Kumar",
    "hours": null,
    "image_url": "https://www.bing.com/maps/geoplat/REST/v1/Imagery/Map/RoadVibrant?ms=92,112&key=AnTcaqBi2ypp0xI-OZNi4W_ik2KhjgpqioTAtXLC8GzkMBQRMlyxvxyTnd5b73im&c=en-US&ur=in&da=n&logo=n&fmt=png&od=1&shading=hill&pp=26.230028,84.36805;dfp"
  },
  {
    "name": "Dr Sarad Chaudhary Clinic",
    "address": "Sadar Hospital, Hospital Road, Hussainganj, Bihar 841226",
    "phone": "Dr Sarad Chaudhary Clinic",
    "hours": null,
    "image_url": "https://www.bing.com/maps/geoplat/REST/v1/Imagery/Map/RoadVibrant?ms=92,112&key=AnTcaqBi2ypp0xI-OZNi4W_ik2KhjgpqioTAtXLC8GzkMBQRMlyxvxyTnd5b73im&c=en-US&ur=in&da=n&logo=n&fmt=png&od=1&shading=hill&pp=26.225502,84.361542;dfp"
  },
  {
    "name": "Sufia Memorial Hospital : Laparoscopy : Urology : Laser Surgery",
    "address": "Hospital Road, Siwan, Bihar, Bihar 841226",
    "phone": "Sufia Memorial Hospital : Laparoscopy : Urology : Laser Surgery",
    "hours": null,
    "image_url": null
  },
  {
    "name": "Dr. Saurav Singh",
    "address": "Doctors Colony, Chakiya Road, Siwan, Bihar",
    "phone": "Dr. Saurav Singh",
    "hours": "Open· Closes 13:00",
    "image_url": "https://www.bing.com/maps/geoplat/REST/v1/Imagery/Map/RoadVibrant?ms=92,112&key=AnTcaqBi2ypp0xI-OZNi4W_ik2KhjgpqioTAtXLC8GzkMBQRMlyxvxyTnd5b73im&c=en-US&ur=in&da=n&logo=n&fmt=png&od=1&shading=hill&pp=26.231712,84.367439;dfp"
  },
  {
    "name": "Dr Thakur Ashok Kumar",
    "address": "Pakari Morde Kushwaha Nagar, Gousola Road, Siwan Sadar, Bihar 841227",
    "phone": "Dr Thakur Ashok Kumar",
    "hours": null,
    "image_url": "https://www.bing.com/maps/geoplat/REST/v1/Imagery/Map/RoadVibrant?ms=92,112&key=AnTcaqBi2ypp0xI-OZNi4W_ik2KhjgpqioTAtXLC8GzkMBQRMlyxvxyTnd5b73im&c=en-US&ur=in&da=n&logo=n&fmt=png&od=1&shading=hill&pp=26.233145,84.371651;dfp"
  },
  {
    "name": "Dr. Vinoy Dubey",
    "address": "Goushala Road, Post Office, Rajiv Nagar, Hussainganj, Bihar 841226",
    "phone": "Dr. Vinoy Dubey",
    "hours": "Closes in 4 mins",
    "image_url": null
  },
  {
    "name": "Dr Zahid Clinic",
    "address": "Phiktoli Mor, Babunia Road Behind Sbi Atm, Siwan, Bihar 841226",
    "phone": "Dr Zahid Clinic",
    "hours": null,
    "image_url": null
  },
  {
    "name": "Dr. Priyanka",
    "address": "Bindusar Road, Post Office, Rajiv Nagar, Hussainganj, Bihar 841226",
    "phone": "Dr. Priyanka",
    "hours": "Open· Closes 19:00",
    "image_url": null
  },
  {
    "name": "Dr Khwaja Ahtesham Ahmad",
    "address": "Bus Stand, Siswan-Siwan Rd, M M Colony, Dhala, Siwan, Bihar, Bihar 841226",
    "phone": "Dr Khwaja Ahtesham Ahmad",
    "hours": null,
    "image_url": null
  },
  {
    "name": "Dr M Shamim Rana",
    "address": "Vijayagahta, Gousola Road, Siwan Sadar, Bihar 841227",
    "phone": "Dr M Shamim Rana",
    "hours": null,
    "image_url": "https://www.bing.com/maps/geoplat/REST/v1/Imagery/Map/RoadVibrant?ms=92,112&key=AnTcaqBi2ypp0xI-OZNi4W_ik2KhjgpqioTAtXLC8GzkMBQRMlyxvxyTnd5b73im&c=en-US&ur=in&da=n&logo=n&fmt=png&od=1&shading=hill&pp=26.231977,84.3713;dfp"
  },
  {
    "name": "Dr. Manzoor Alam - Skin and Beauty Care Centre",
    "address": "Siwan, Bihar 841226",
    "phone": "Dr. Manzoor Alam - Skin and Beauty Care Centre",
    "hours": "Closed· Opens 12:00",
    "image_url": "https://www.bing.com/maps/geoplat/REST/v1/Imagery/Map/RoadVibrant?ms=92,134&key=AnTcaqBi2ypp0xI-OZNi4W_ik2KhjgpqioTAtXLC8GzkMBQRMlyxvxyTnd5b73im&c=en-US&ur=in&da=n&logo=n&fmt=png&od=1&shading=hill&pp=26.22471,84.361649;dfp"
  },
  {
    "name": "Dr. Saurabh Kumar",
    "address": "Barharia Stand, Hospital Road, Beside Axis Bank Atm, Gaushalaroad Siwan 841226",
    "phone": "Dr. Saurabh Kumar",
    "hours": "Open· Closes 19:00",
    "image_url": null
  }
]