[
  {
    "name": "Dr.Mahesh Bhairi Clinic",
    "address": "33/3 Vijay Nagar, Near Raghavendra Tower, New Paccha Peth, Solapur, Solapur, Maharashtra, Maharashtra 413…",
    "phone": "Dr.Mahesh Bhairi Clinic",
    "hours": null,
    "image_url": "https://www.bing.com/maps/geoplat/REST/v1/Imagery/Map/RoadVibrant?ms=92,112&key=AnTcaqBi2ypp0xI-OZNi4W_ik2KhjgpqioTAtXLC8GzkMBQRMlyxvxyTnd5b73im&c=en-US&ur=in&da=n&logo=n&fmt=png&od=1&shading=hill&pp=28.66073,77.18824;dfp"
  },
  {
    "name": "Dr. Feroz Sayyed S",
    "address": "321, Begum Peth, Landmark : Near Police Station Begum Pet, Solapur, Solapur 413001",
    "phone": "Dr. Feroz Sayyed S",
    "hours": "Closed· Opens 11:00",
    "image_url": "/th?id=OLC.eRv66ePmnPBIpw480x360&w=92&h=134&c=8&rs=1&qlt=80&cdv=1&pid=Local"
  },
  {
    "name": "Dr. Arun Bakle",
    "address": "162/18a, Railwaay Lines, Landmark : Near Old Employment Chowk, Solapur, Solapur 413001",
    "phone": "Dr. Arun Bakle",
    "hours": "Closed· Opens 11:00",
    "image_url": "https://www.bing.com/maps/geoplat/REST/v1/Imagery/Map/RoadVibrant?ms=92,134&key=AnTcaqBi2ypp0xI-OZNi4W_ik2KhjgpqioTAtXLC8GzkMBQRMlyxvxyTnd5b73im&c=en-US&ur=in&da=n&logo=n&fmt=png&od=1&shading=hill&pp=17.662386,75.901825;dfp"
  },
  {
    "name": "Dr. Ashish Giridhari Bhutada",
    "address": "Shinde Wada, Budhavar Peth, Solapur, Maharashtra 413001, India, Solapur, Solapur 413001",
    "phone": "Dr. Ashish Giridhari Bhutada",
    "hours": "Closed· Opens 14:30",
    "image_url": "https://www.bing.com/maps/geoplat/REST/v1/Imagery/Map/RoadVibrant?ms=92,134&key=AnTcaqBi2ypp0xI-OZNi4W_ik2KhjgpqioTAtXLC8GzkMBQRMlyxvxyTnd5b73im&c=en-US&ur=in&da=n&logo=n&fmt=png&od=1&shading=hill&pp=17.678034,75.907234;dfp"
  },
  {
    "name": "DR. Batra''s Clinic",
    "address": "Survey No 8340/2A, 3rd Floor, 96 Railway Lines, Dufferine Chowk, Rajgir, Opposite Saint Joseph High S…",
    "phone": "DR. Batra''s Clinic",
    "hours": "Closed· Opens 11:00",
    "image_url": "/th?id=OLC.kZo5eXx12tqNAA480x360&w=92&h=134&c=8&rs=1&qlt=80&cdv=1&pid=Local"
  },
  {
    "name": "Dr. P K Joshi",
    "address": "B-157/2, Solapur Market, Landmark : Upon Railyway Lines, Solapur",
    "phone": "Dr. P K Joshi",
    "hours": "Closed· Opens 12:00",
    "image_url": "https://www.bing.com/maps/geoplat/REST/v1/Imagery/Map/RoadVibrant?ms=92,112&key=AnTcaqBi2ypp0xI-OZNi4W_ik2KhjgpqioTAtXLC8GzkMBQRMlyxvxyTnd5b73im&c=en-US&ur=in&da=n&logo=n&fmt=png&od=1&shading=hill&pp=17.664175,75.9011;dfp"
  },
  {
    "name": "Dr. Sailesh Zadbuke- General Physician In Solapur",
    "address": "Zadbuke Hospital, Sh 74, Somrai Nagar, Mohol, Solapur, Maharashtra 413248",
    "phone": "Dr. Sailesh Zadbuke- General Physician In Solapur",
    "hours": "Open· Closes 14:00",
    "image_url": "https://www.bing.com/maps/geoplat/REST/v1/Imagery/Map/RoadVibrant?ms=92,134&key=AnTcaqBi2ypp0xI-OZNi4W_ik2KhjgpqioTAtXLC8GzkMBQRMlyxvxyTnd5b73im&c=en-US&ur=in&da=n&logo=n&fmt=png&od=1&shading=hill&pp=17.808559,75.635223;dfp"
  },
  {
    "name": "Dr. Mujawar Jalil Shaikh Omer",
    "address": "1, Suranji Complex, Ground Floor, Solapur, Maharashtra 413001",
    "phone": "Dr. Mujawar Jalil Shaikh Omer",
    "hours": "Open· Closes 19:00",
    "image_url": "https://www.bing.com/maps/geoplat/REST/v1/Imagery/Map/RoadVibrant?ms=92,134&key=AnTcaqBi2ypp0xI-OZNi4W_ik2KhjgpqioTAtXLC8GzkMBQRMlyxvxyTnd5b73im&c=en-US&ur=in&da=n&logo=n&fmt=png&od=1&shading=hill&pp=17.678865,75.909904;dfp"
  },
  {
    "name": "Homeopathic Clinic",
    "address": "128, Juni Foujdar Chawdi, Near Ayurvedic Hospital, Shukrawar Peth, Solapur, Maharashtra 413001",
    "phone": "Homeopathic Clinic",
    "hours": "Open· Closes 18:00",
    "image_url": null
  },
  {
    "name": "Dr. Sudhanshu Kothadia- Orthopedics",
    "address": "Kothadia Nursing Home, 6185/ E- 1, Siddheshwar Peth, Landmark: Near Zilla Parishad Office, Solapur, Mahara…",
    "phone": "Dr. Sudhanshu Kothadia- Orthopedics",
    "hours": "Closed· Opens 12:00",
    "image_url": null
  },
  {
    "name": "Gurav Clinic",
    "address": "Nh-13, Solapur, Maharashtra 413001",
    "phone": "Gurav Clinic",
    "hours": null,
    "image_url": null
  },
  {
    "name": "Sanjeevan Homeopathic Clinic",
    "address": "128, Shukarwar Peth, Near Foujadar Chav, Solapur, Maharashtra 413002",
    "phone": "Sanjeevan Homeopathic Clinic",
    "hours": "Open· Closes 17:00",
    "image_url": null
  },
  {
    "name": "Shuddhi Hiims (Solapur) Ayurveda Clinic",
    "address": "201, Rajendra Chowk Ravivar Path, Opp. To Markandeya Bus Depo Solapur, Solapur, Maharashtra 413005",
    "phone": "Shuddhi Hiims (Solapur) Ayurveda Clinic",
    "hours": "Open· Closes 18:00",
    "image_url": null
  },
  {
    "name": "Dr. Vijay Andhare's Guide to Heart Clinic Heart surgery vascular surgery thoracic lung surgery",
    "address": "Office no 23 Wellness Zone sat Rasta Near Rotari Garden Behind Vodafone Store Solapur, South Sadar …",
    "phone": "Dr. Vijay Andhare's Guide to Heart Clinic Heart surgery vascular surgery thoracic lung surgery",
    "hours": null,
    "image_url": "https://www.bing.com/maps/geoplat/REST/v1/Imagery/Map/RoadVibrant?ms=92,112&key=AnTcaqBi2ypp0xI-OZNi4W_ik2KhjgpqioTAtXLC8GzkMBQRMlyxvxyTnd5b73im&c=en-US&ur=in&da=n&logo=n&fmt=png&od=1&shading=hill&pp=17.658545,75.907425;dfp"
  },
  {
    "name": "Dr. Nirmalkumar B.Taparia",
    "address": "Shinde Chowk, Mahalaxmi Complex, First Floor, Sholapur, Maharashtra",
    "phone": "Dr. Nirmalkumar B.Taparia",
    "hours": "Closed· Opens 11:30",
    "image_url": null
  },
  {
    "name": "Dr.Mrs.Trupti P.Khatawkar's Dermatology and Cosmetology Clinic",
    "address": "Main Road Opposite Bhuikot Killa New Gate, Sidheshwar Temple Area, Solapur, Maharashtra",
    "phone": "Dr.Mrs.Trupti P.Khatawkar's Dermatology and Cosmetology Clinic",
    "hours": null,
    "image_url": "https://www.bing.com/maps/geoplat/REST/v1/Imagery/Map/RoadVibrant?ms=92,112&key=AnTcaqBi2ypp0xI-OZNi4W_ik2KhjgpqioTAtXLC8GzkMBQRMlyxvxyTnd5b73im&c=en-US&ur=in&da=n&logo=n&fmt=png&od=1&shading=hill&pp=17.673882,75.900551;dfp"
  },
  {
    "name": "Dr.ukarande's Elite Cosmo Clinic",
    "address": "Birajdar Complex, 2nd Floor, in Front Of Unique Hospital, Fauzdar Chawdi, Solapur, Maharashtra, Maharashtra 4…",
    "phone": "Dr.ukarande's Elite Cosmo Clinic",
    "hours": "Open· Closes 20:00",
    "image_url": null
  },
  {
    "name": "Dr. Jawahar Bedmutha",
    "address": "154, South Sadar Bazar, Sholapur, Maharashtra",
    "phone": "Dr. Jawahar Bedmutha",
    "hours": "Open· Closes 13:00",
    "image_url": "https://www.bing.com/maps/geoplat/REST/v1/Imagery/Map/RoadVibrant?ms=92,112&key=AnTcaqBi2ypp0xI-OZNi4W_ik2KhjgpqioTAtXLC8GzkMBQRMlyxvxyTnd5b73im&c=en-US&ur=in&da=n&logo=n&fmt=png&od=1&shading=hill&pp=17.658312,75.909508;dfp"
  }
]