[
  {
    "name": "Dr.Amit Dawash.Shoolini Homoeo Clinic",
    "address": "Shoolini Homoeo Clinic, Bakhru Complex. Opposite MC Office, Above CSB Bank Solan, Solan, Himachal Pradesh",
    "phone": "Dr.Amit Dawash.Shoolini Homoeo Clinic",
    "hours": null,
    "image_url": "/th?id=OLC.5fcqzyXqFWpzHg480x360&w=92&h=112&c=8&rs=1&qlt=80&cdv=1&pid=Local"
  },
  {
    "name": "Dr Ganga Ram Mamoore Poly Clinic",
    "address": "Mall Road, Lawi Khurd, Solan, Himachal Pradesh 173212",
    "phone": "Dr Ganga Ram Mamoore Poly Clinic",
    "hours": null,
    "image_url": "/th?id=OLC.ozTuZgvMtPJKpg480x360&w=92&h=112&c=8&rs=1&qlt=80&cdv=1&pid=Local"
  },
  {
    "name": "Dr. (Maj) Aditya Sharma | General Physician | Dr. (Maj) Aditya Sharma",
    "address": "General Physician, MPH, Dr. (Maj) Aditya Sharma, Mbbs, Bank Colony, Bahadurgarh, Haryana",
    "phone": "Dr. (Maj) Aditya Sharma | General Physician | Dr. (Maj) Aditya Sharma",
    "hours": null,
    "image_url": "https://www.bing.com/maps/geoplat/REST/v1/Imagery/Map/RoadVibrant?ms=92,112&key=AnTcaqBi2ypp0xI-OZNi4W_ik2KhjgpqioTAtXLC8GzkMBQRMlyxvxyTnd5b73im&c=en-US&ur=in&da=n&logo=n&fmt=png&od=1&shading=hill&pp=30.906315,77.106468;dfp"
  },
  {
    "name": "Dr. Parul Sharma",
    "address": "Near St Luke's Senior Secondary School, The Mall, Solan, Madhya Pradesh 173212",
    "phone": "Dr. Parul Sharma",
    "hours": "Open· Closes 18:00",
    "image_url": "/th?id=OLC.gqefXzzkXIEM3Q480x360&w=92&h=134&c=8&rs=1&qlt=80&cdv=1&pid=Local"
  },
  {
    "name": "Yugal Kishore Ayurveda Doctor",
    "address": "Chindi Mata Mandir, Tank Road, Solan, Solan, Himachal Pradesh, Indien",
    "phone": "Yugal Kishore Ayurveda Doctor",
    "hours": null,
    "image_url": "/th?id=OLC.wpnB6Y5DAY33EQ480x360&w=92&h=112&c=8&rs=1&qlt=80&cdv=1&pid=Local"
  },
  {
    "name": "Guru Clinic Dr Surinder Kanwar",
    "address": "Ward no 7 Chowk, Daulatpur, Himachal Pradesh",
    "phone": "Guru Clinic Dr Surinder Kanwar",
    "hours": null,
    "image_url": "https://www.bing.com/maps/geoplat/REST/v1/Imagery/Map/RoadVibrant?ms=92,112&key=AnTcaqBi2ypp0xI-OZNi4W_ik2KhjgpqioTAtXLC8GzkMBQRMlyxvxyTnd5b73im&c=en-US&ur=in&da=n&logo=n&fmt=png&od=1&shading=hill&pp=30.907385,77.105453;dfp"
  },
  {
    "name": "Dr. J P Bisht",
    "address": "JP Hospital, Solan, Himachal Pradesh",
    "phone": "Dr. J P Bisht",
    "hours": "Open· Closes 14:00",
    "image_url": "https://www.bing.com/maps/geoplat/REST/v1/Imagery/Map/RoadVibrant?ms=92,112&key=AnTcaqBi2ypp0xI-OZNi4W_ik2KhjgpqioTAtXLC8GzkMBQRMlyxvxyTnd5b73im&c=en-US&ur=in&da=n&logo=n&fmt=png&od=1&shading=hill&pp=30.904343,77.109108;dfp"
  },
  {
    "name": "Life Care Homoeopathic Clinic",
    "address": "Jain Bhawan, Near Vipul Gas Agency, Hospital Road, Solan, Solan, Himachal Pradesh, Himachal Pradesh 17…",
    "phone": "Life Care Homoeopathic Clinic",
    "hours": "Open· Closes 13:30",
    "image_url": null
  },
  {
    "name": "Dr. Kanika Negi",
    "address": "Durga Lab, Hospital Road, Kotlanala Solan, Solan, Himachal Pradesh",
    "phone": "Dr. Kanika Negi",
    "hours": "Open· Closes 14:00",
    "image_url": "https://www.bing.com/maps/geoplat/REST/v1/Imagery/Map/RoadVibrant?ms=92,112&key=AnTcaqBi2ypp0xI-OZNi4W_ik2KhjgpqioTAtXLC8GzkMBQRMlyxvxyTnd5b73im&c=en-US&ur=in&da=n&logo=n&fmt=png&od=1&shading=hill&pp=30.907616,77.106972;dfp"
  },
  {
    "name": "Kishore Clinic",
    "address": "Mall Road, Solan, Himachal Pradesh 173212",
    "phone": "Kishore Clinic",
    "hours": null,
    "image_url": "https://www.bing.com/maps/geoplat/REST/v1/Imagery/Map/RoadVibrant?ms=92,112&key=AnTcaqBi2ypp0xI-OZNi4W_ik2KhjgpqioTAtXLC8GzkMBQRMlyxvxyTnd5b73im&c=en-US&ur=in&da=n&logo=n&fmt=png&od=1&shading=hill&pp=30.911364,77.104866;dfp"
  },
  {
    "name": "Soolini Homoeo Clinic",
    "address": "Second Floor, Bhakru Complex, Solan, Opposite MC Office, Solan, Himachal Pradesh 173212",
    "phone": "Soolini Homoeo Clinic",
    "hours": null,
    "image_url": "https://www.bing.com/maps/geoplat/REST/v1/Imagery/Map/RoadVibrant?ms=92,112&key=AnTcaqBi2ypp0xI-OZNi4W_ik2KhjgpqioTAtXLC8GzkMBQRMlyxvxyTnd5b73im&c=en-US&ur=in&da=n&logo=n&fmt=png&od=1&shading=hill&pp=30.907574,77.104149;dfp"
  },
  {
    "name": "Dr. Suri's Homoeo clinic",
    "address": "The Mall Road, Solan, Himachal Pradesh 173212",
    "phone": "Dr. Suri's Homoeo clinic",
    "hours": "Open· Closes 19:00",
    "image_url": null
  },
  {
    "name": "Aditya Clinic",
    "address": "Durga Lab, Hospital Road, Kotlanala Solan, Solan, Solan 173212",
    "phone": "Aditya Clinic",
    "hours": null,
    "image_url": "https://www.bing.com/maps/geoplat/REST/v1/Imagery/Map/RoadVibrant?ms=92,112&key=AnTcaqBi2ypp0xI-OZNi4W_ik2KhjgpqioTAtXLC8GzkMBQRMlyxvxyTnd5b73im&c=en-US&ur=in&da=n&logo=n&fmt=png&od=1&shading=hill&pp=30.907722,77.107109;dfp"
  },
  {
    "name": "Solan Homeopathic Clinic",
    "address": "Court House, Kather, Solan, Himachal Pradesh 173212",
    "phone": "Solan Homeopathic Clinic",
    "hours": null,
    "image_url": null
  },
  {
    "name": "Dr. Bhavna Sharma",
    "address": "Pinjore-Baddi-Nalagarh Road, Solan, Himachal Pradesh",
    "phone": "Dr. Bhavna Sharma",
    "hours": "Open· Closes 19:30",
    "image_url": null
  },
  {
    "name": "Dr. Shukla’s Homeo Clinic",
    "address": "Ahuja Niwas, Solan, Himachal Pradesh 173212",
    "phone": "Dr. Shukla’s Homeo Clinic",
    "hours": null,
    "image_url": "https://www.bing.com/maps/geoplat/REST/v1/Imagery/Map/RoadVibrant?ms=92,112&key=AnTcaqBi2ypp0xI-OZNi4W_ik2KhjgpqioTAtXLC8GzkMBQRMlyxvxyTnd5b73im&c=en-US&ur=in&da=n&logo=n&fmt=png&od=1&shading=hill&pp=30.9182,77.101456;dfp"
  },
  {
    "name": "Apex Diagnostics",
    "address": "Near Netaji Park, Hospital Road, Kotla Nala, Solan, Himachal Pradesh 173212",
    "phone": "Apex Diagnostics",
    "hours": "Open· Closes 20:00",
    "image_url": null
  },
  {
    "name": "Dr. Sankaran Namboodiri",
    "address": "Vrindavan, Village Thana, Epip, Phase-2, Solan, Himachal Pradesh",
    "phone": "Dr. Sankaran Namboodiri",
    "hours": "Open· Closes 13:00",
    "image_url": "https://www.bing.com/maps/geoplat/REST/v1/Imagery/Map/RoadVibrant?ms=92,112&key=AnTcaqBi2ypp0xI-OZNi4W_ik2KhjgpqioTAtXLC8GzkMBQRMlyxvxyTnd5b73im&c=en-US&ur=in&da=n&logo=n&fmt=png&od=1&shading=hill&pp=30.968925,76.804893;dfp"
  }
]