[
  {
    "name": "Primary Health Centre",
    "address": "Sonapur Bazar Road, Sonapur Sub Post Office, Sonapur Gumoria Pathar, Kamrup, Assam 782402",
    "phone": "Primary Health Centre",
    "hours": null,
    "image_url": "https://www.bing.com/maps/geoplat/REST/v1/Imagery/Map/RoadVibrant?ms=92,112&key=AnTcaqBi2ypp0xI-OZNi4W_ik2KhjgpqioTAtXLC8GzkMBQRMlyxvxyTnd5b73im&c=en-US&ur=in&da=n&logo=n&fmt=png&od=1&shading=hill&pp=26.117323,91.963501;dfp"
  },
  {
    "name": "Dr Pankaj Kumar Bhagabati | Best Laparoscopic Surgeon",
    "address": "Health City Hospital, N.H 37, Khanapara, Koinadhara, Guwahati, Assam",
    "phone": "Dr Pankaj Kumar Bhagabati | Best Laparoscopic Surgeon",
    "hours": null,
    "image_url": "https://www.bing.com/maps/geoplat/REST/v1/Imagery/Map/RoadVibrant?ms=92,112&key=AnTcaqBi2ypp0xI-OZNi4W_ik2KhjgpqioTAtXLC8GzkMBQRMlyxvxyTnd5b73im&c=en-US&ur=in&da=n&logo=n&fmt=png&od=1&shading=hill&pp=26.125834,91.815117;dfp"
  },
  {
    "name": "Dr Anjan Jyoti Talukder- Best Medicine Diabetes Doctor/Specialist",
    "address": "Medicity Guwahati Aditya, opp. Down Town Hospital, Guwahati, Assam",
    "phone": "Dr Anjan Jyoti Talukder- Best Medicine Diabetes Doctor/Specialist",
    "hours": null,
    "image_url": "https://www.bing.com/maps/geoplat/REST/v1/Imagery/Map/RoadVibrant?ms=92,112&key=AnTcaqBi2ypp0xI-OZNi4W_ik2KhjgpqioTAtXLC8GzkMBQRMlyxvxyTnd5b73im&c=en-US&ur=in&da=n&logo=n&fmt=png&od=1&shading=hill&pp=26.135006,91.810036;clcp"
  },
  {
    "name": "Dr. Sunil Malla Bujar Barua | Best Endocrine Surgeon | Guwahati Metro Hospital",
    "address": "opp. Bodoland Guest House, Uday Nagar, Khanapara, Guwahati, Assam",
    "phone": "Dr. Sunil Malla Bujar Barua | Best Endocrine Surgeon | Guwahati Metro Hospital",
    "hours": null,
    "image_url": "https://www.bing.com/maps/geoplat/REST/v1/Imagery/Map/RoadVibrant?ms=92,112&key=AnTcaqBi2ypp0xI-OZNi4W_ik2KhjgpqioTAtXLC8GzkMBQRMlyxvxyTnd5b73im&c=en-US&ur=in&da=n&logo=n&fmt=png&od=1&shading=hill&pp=26.133539,91.824966;dfp"
  },
  {
    "name": "Dr. G.P. Sarmah's Wellness & Health Clinic",
    "address": "Tiniali, NH-37, Opposite Iocl Petrol Pump, Gaurisagar, Phakum Kumar Phodia, Assam",
    "phone": "Dr. G.P. Sarmah's Wellness & Health Clinic",
    "hours": null,
    "image_url": "https://www.bing.com/maps/geoplat/REST/v1/Imagery/Map/RoadVibrant?ms=92,112&key=AnTcaqBi2ypp0xI-OZNi4W_ik2KhjgpqioTAtXLC8GzkMBQRMlyxvxyTnd5b73im&c=en-US&ur=in&da=n&logo=n&fmt=png&od=1&shading=hill&pp=26.136595,91.813301;dfp"
  },
  {
    "name": "Dr. Bhaskar Neog | Best Diabetologist & Medicine Doctor  | Apollo Clinic Dispur",
    "address": "GS Rd, opp. Downtown Hospital, Dispur, Rukmini Gaon, Guwahati, Assam",
    "phone": "Dr. Bhaskar Neog | Best Diabetologist & Medicine Doctor  | Apollo Clinic Dispur",
    "hours": null,
    "image_url": "https://www.bing.com/maps/geoplat/REST/v1/Imagery/Map/RoadVibrant?ms=92,112&key=AnTcaqBi2ypp0xI-OZNi4W_ik2KhjgpqioTAtXLC8GzkMBQRMlyxvxyTnd5b73im&c=en-US&ur=in&da=n&logo=n&fmt=png&od=1&shading=hill&pp=26.138144,91.799614;dfp"
  },
  {
    "name": "Swasthyam Multispeciality Clinic",
    "address": "1st Floor, Lobby C, Supreme Tower, GS Rd, Near Silkalay Store, Christian Basti, Guwahati, Assam",
    "phone": "Swasthyam Multispeciality Clinic",
    "hours": null,
    "image_url": "https://www.bing.com/maps/geoplat/REST/v1/Imagery/Map/RoadVibrant?ms=92,112&key=AnTcaqBi2ypp0xI-OZNi4W_ik2KhjgpqioTAtXLC8GzkMBQRMlyxvxyTnd5b73im&c=en-US&ur=in&da=n&logo=n&fmt=png&od=1&shading=hill&pp=26.153191,91.781448;dfp"
  },
  {
    "name": "Dr. Abrar Ahmed | Apollo Clinic Dispur | Best Senior Consultant Spine Surgeon",
    "address": "Apollo Clinic, opp. Downtown Hospital, Near SBI ATM, Rukmini Gaon, Guwahati, Assam",
    "phone": "Dr. Abrar Ahmed | Apollo Clinic Dispur | Best Senior Consultant Spine Surgeon",
    "hours": null,
    "image_url": "https://www.bing.com/maps/geoplat/REST/v1/Imagery/Map/RoadVibrant?ms=92,112&key=AnTcaqBi2ypp0xI-OZNi4W_ik2KhjgpqioTAtXLC8GzkMBQRMlyxvxyTnd5b73im&c=en-US&ur=in&da=n&logo=n&fmt=png&od=1&shading=hill&pp=26.135798,91.802567;dfp"
  },
  {
    "name": "ANB Clinic",
    "address": "Raja Complex, Beltola Rd, Near Shiv Mandir, Below Assam Gramin Vikash Bank, Beltola Tiniali, Guwahati, …",
    "phone": "ANB Clinic",
    "hours": null,
    "image_url": "https://www.bing.com/maps/geoplat/REST/v1/Imagery/Map/RoadVibrant?ms=92,112&key=AnTcaqBi2ypp0xI-OZNi4W_ik2KhjgpqioTAtXLC8GzkMBQRMlyxvxyTnd5b73im&c=en-US&ur=in&da=n&logo=n&fmt=png&od=1&shading=hill&pp=26.127228,91.79641;dfp"
  },
  {
    "name": "Dr Anup Kumar Nath Clinic",
    "address": "Beltola Road, Swarupa Bhawan, Ag Office Guwahati, Guwahati, Assam 781028",
    "phone": "Dr Anup Kumar Nath Clinic",
    "hours": null,
    "image_url": "https://www.bing.com/maps/geoplat/REST/v1/Imagery/Map/RoadVibrant?ms=92,112&key=AnTcaqBi2ypp0xI-OZNi4W_ik2KhjgpqioTAtXLC8GzkMBQRMlyxvxyTnd5b73im&c=en-US&ur=in&da=n&logo=n&fmt=png&od=1&shading=hill&pp=26.117208,91.798431;dfp"
  },
  {
    "name": "Dr. Deepanava Jyoti Das",
    "address": "Hatigaon Main Road, Landmark: Near Hotel Grand Majesty, Guwahati 781019",
    "phone": "Dr. Deepanava Jyoti Das",
    "hours": "Open· Closes 22:00",
    "image_url": "https://www.bing.com/maps/geoplat/REST/v1/Imagery/Map/RoadVibrant?ms=92,134&key=AnTcaqBi2ypp0xI-OZNi4W_ik2KhjgpqioTAtXLC8GzkMBQRMlyxvxyTnd5b73im&c=en-US&ur=in&da=n&logo=n&fmt=png&od=1&shading=hill&pp=26.136402,91.785789;dfp"
  },
  {
    "name": "Dr J C Patowary Clinic",
    "address": "H.no 7, Tarun Nagar, 2nd Bi Lane, Bhangagarh, Guwahati, Assam 781005",
    "phone": "Dr J C Patowary Clinic",
    "hours": null,
    "image_url": "https://www.bing.com/maps/geoplat/REST/v1/Imagery/Map/RoadVibrant?ms=92,112&key=AnTcaqBi2ypp0xI-OZNi4W_ik2KhjgpqioTAtXLC8GzkMBQRMlyxvxyTnd5b73im&c=en-US&ur=in&da=n&logo=n&fmt=png&od=1&shading=hill&pp=26.162931,91.772751;dfp"
  },
  {
    "name": "Dr Pankaj Deka - Gyne Oncologist",
    "address": "Adobe Grand GS Road, Rukmininagar, opp. Downtown Hospital, Dispur, Guwahati, Assam",
    "phone": "Dr Pankaj Deka - Gyne Oncologist",
    "hours": null,
    "image_url": "https://www.bing.com/maps/geoplat/REST/v1/Imagery/Map/RoadVibrant?ms=92,112&key=AnTcaqBi2ypp0xI-OZNi4W_ik2KhjgpqioTAtXLC8GzkMBQRMlyxvxyTnd5b73im&c=en-US&ur=in&da=n&logo=n&fmt=png&od=1&shading=hill&pp=26.140905,91.796089;dfp"
  },
  {
    "name": "Dr. Nishat Fatima",
    "address": "2nd Floor, Gulshan Grand, Dispur, Guwahati, Assam",
    "phone": "Dr. Nishat Fatima",
    "hours": "Open· Closes 19:00",
    "image_url": "https://www.bing.com/maps/geoplat/REST/v1/Imagery/Map/RoadVibrant?ms=92,112&key=AnTcaqBi2ypp0xI-OZNi4W_ik2KhjgpqioTAtXLC8GzkMBQRMlyxvxyTnd5b73im&c=en-US&ur=in&da=n&logo=n&fmt=png&od=1&shading=hill&pp=26.157244,91.77787;dfp"
  },
  {
    "name": "Dr. Shubham Purkayastha",
    "address": "1st Floor, Oracle Diagnostic Building, Lalganesh, Lokhra Road, Opposite Indian Oil Petrol Pump, Guwahati 781034",
    "phone": "Dr. Shubham Purkayastha",
    "hours": "Opens in 4 mins",
    "image_url": "https://www.bing.com/maps/geoplat/REST/v1/Imagery/Map/RoadVibrant?ms=92,134&key=AnTcaqBi2ypp0xI-OZNi4W_ik2KhjgpqioTAtXLC8GzkMBQRMlyxvxyTnd5b73im&c=en-US&ur=in&da=n&logo=n&fmt=png&od=1&shading=hill&pp=26.142891,91.742149;dfp"
  },
  {
    "name": "Naryana Health OPD &Health Network Clinic",
    "address": "Assam Trunk Rd, Opposite Ashoka Furnishings, Adabari Tiniali, Adabari, Guwahati, Assam",
    "phone": "Naryana Health OPD &Health Network Clinic",
    "hours": null,
    "image_url": null
  },
  {
    "name": "Dr Monowar Hussain",
    "address": "Medicity Guwahati Aditya, Ground Floor Aditya Tower, GS Rd, Near Hotel Novotel, Dispur, Guwahati, Assam",
    "phone": "Dr Monowar Hussain",
    "hours": null,
    "image_url": "https://www.bing.com/maps/geoplat/REST/v1/Imagery/Map/RoadVibrant?ms=92,112&key=AnTcaqBi2ypp0xI-OZNi4W_ik2KhjgpqioTAtXLC8GzkMBQRMlyxvxyTnd5b73im&c=en-US&ur=in&da=n&logo=n&fmt=png&od=1&shading=hill&pp=26.158323,91.775375;dfp"
  },
  {
    "name": "Dr Abhijit Phukan, DM Hematology (Best Hematologist  - Excel Hematology Centre)",
    "address": "Old Building, Excel Hematology Centre, GS Rd, Opposite Nemcare Hospital, Bhangagarh, Guwahati, Assam",
    "phone": "Dr Abhijit Phukan, DM Hematology (Best Hematologist  - Excel Hematology Centre)",
    "hours": null,
    "image_url": null
  }
]