[
  {
    "name": "Doctor Amrit Chauhan Clinic",
    "address": "House NO 396A DIH Baba Sthan, Bhusuwa, Uttar Pradesh",
    "phone": "Doctor Amrit Chauhan Clinic",
    "hours": null,
    "image_url": "https://www.bing.com/maps/geoplat/REST/v1/Imagery/Map/RoadVibrant?ms=92,112&key=AnTcaqBi2ypp0xI-OZNi4W_ik2KhjgpqioTAtXLC8GzkMBQRMlyxvxyTnd5b73im&c=en-US&ur=in&da=n&logo=n&fmt=png&od=1&shading=hill&pp=24.690001,83.064003;dfp"
  },
  {
    "name": "Krishiv Clinic",
    "address": "Robertsganj, Dharmshalla Infront Raj Cinema, Sonbhadra, Uttar Pradesh 231216",
    "phone": "Krishiv Clinic",
    "hours": null,
    "image_url": "https://www.bing.com/maps/geoplat/REST/v1/Imagery/Map/RoadVibrant?ms=92,112&key=AnTcaqBi2ypp0xI-OZNi4W_ik2KhjgpqioTAtXLC8GzkMBQRMlyxvxyTnd5b73im&c=en-US&ur=in&da=n&logo=n&fmt=png&od=1&shading=hill&pp=24.686144,83.064697;dfp"
  },
  {
    "name": "Sai Homeopathic Clinic Robertsganj Sonbhadra U.P",
    "address": "Vijaygarh Petrol Pump k Samne Robertsganj Sonbhadra, Robertsganj, Uttar Pradesh 231216",
    "phone": "Sai Homeopathic Clinic Robertsganj Sonbhadra U.P",
    "hours": "Open路 Closes 14:00",
    "image_url": "/th?id=OLC.mp1RaZBWV3AzfQ480x360&w=92&h=134&c=8&rs=1&qlt=80&cdv=1&pid=Local"
  },
  {
    "name": "DP Clinic",
    "address": "Pannuganj Road, Robertsganj, Uttar Pradesh 213216",
    "phone": "DP Clinic",
    "hours": null,
    "image_url": "https://www.bing.com/maps/geoplat/REST/v1/Imagery/Map/RoadVibrant?ms=92,112&key=AnTcaqBi2ypp0xI-OZNi4W_ik2KhjgpqioTAtXLC8GzkMBQRMlyxvxyTnd5b73im&c=en-US&ur=in&da=n&logo=n&fmt=png&od=1&shading=hill&pp=24.688686,83.075592;dfp"
  },
  {
    "name": "Sri Jee Homoeopathik Clinic",
    "address": "Ramghdh Road, Purab Mahal, Robertsganj, Uttar Pradesh 231216",
    "phone": "Sri Jee Homoeopathik Clinic",
    "hours": null,
    "image_url": "https://www.bing.com/maps/geoplat/REST/v1/Imagery/Map/RoadVibrant?ms=92,112&key=AnTcaqBi2ypp0xI-OZNi4W_ik2KhjgpqioTAtXLC8GzkMBQRMlyxvxyTnd5b73im&c=en-US&ur=in&da=n&logo=n&fmt=png&od=1&shading=hill&pp=24.689394,83.06739;dfp"
  },
  {
    "name": "Dr Shivaji Herbal India",
    "address": "2ND Flor, Nandlal Katra, Robertsganj, Main Road, Sonbhadra, Uttar Pradesh 231216",
    "phone": "Dr Shivaji Herbal India",
    "hours": null,
    "image_url": "https://www.bing.com/maps/geoplat/REST/v1/Imagery/Map/RoadVibrant?ms=92,112&key=AnTcaqBi2ypp0xI-OZNi4W_ik2KhjgpqioTAtXLC8GzkMBQRMlyxvxyTnd5b73im&c=en-US&ur=in&da=n&logo=n&fmt=png&od=1&shading=hill&pp=24.691286,83.065529;dfp"
  },
  {
    "name": "Dr. Arun kumar Ayurvedic practitioner",
    "address": "Varun Clinic, Sonbhadra, Uttar Pradesh 231225",
    "phone": "Dr. Arun kumar Ayurvedic practitioner",
    "hours": "Closed路 Opens tomorrow 08:00",
    "image_url": "https://www.bing.com/maps/geoplat/REST/v1/Imagery/Map/RoadVibrant?ms=92,134&key=AnTcaqBi2ypp0xI-OZNi4W_ik2KhjgpqioTAtXLC8GzkMBQRMlyxvxyTnd5b73im&c=en-US&ur=in&da=n&logo=n&fmt=png&od=1&shading=hill&pp=24.239246,82.885597;dfp"
  },
  {
    "name": "Sri Ram Children Clinic",
    "address": "Dp Clinic, Pannuganj Road, Robertsganj, Uttar Pradesh 213216",
    "phone": "Sri Ram Children Clinic",
    "hours": null,
    "image_url": "https://www.bing.com/maps/geoplat/REST/v1/Imagery/Map/RoadVibrant?ms=92,112&key=AnTcaqBi2ypp0xI-OZNi4W_ik2KhjgpqioTAtXLC8GzkMBQRMlyxvxyTnd5b73im&c=en-US&ur=in&da=n&logo=n&fmt=png&od=1&shading=hill&pp=24.688324,83.078979;dfp"
  },
  {
    "name": "Samar Diagnostic Centre",
    "address": "Hospital Gate Ghorawal, Sonbhadra, Uttar Pradesh 231210",
    "phone": "Samar Diagnostic Centre",
    "hours": null,
    "image_url": "https://www.bing.com/maps/geoplat/REST/v1/Imagery/Map/RoadVibrant?ms=92,112&key=AnTcaqBi2ypp0xI-OZNi4W_ik2KhjgpqioTAtXLC8GzkMBQRMlyxvxyTnd5b73im&c=en-US&ur=in&da=n&logo=n&fmt=png&od=1&shading=hill&pp=24.692406,83.0597;dfp"
  },
  {
    "name": "Agriclinic and Agri Business Centre",
    "address": "Mamua, Varanasi Highway, Robertsganj, Sonbhadra, Uttar Pradesh 231216",
    "phone": "Agriclinic and Agri Business Centre",
    "hours": null,
    "image_url": "https://www.bing.com/maps/geoplat/REST/v1/Imagery/Map/RoadVibrant?ms=92,112&key=AnTcaqBi2ypp0xI-OZNi4W_ik2KhjgpqioTAtXLC8GzkMBQRMlyxvxyTnd5b73im&c=en-US&ur=in&da=n&logo=n&fmt=png&od=1&shading=hill&pp=24.708149,83.007889;dfp"
  },
  {
    "name": "Life Care Pathology Lab R.T.S Club Robertsganj",
    "address": "R.T.S Club, Nirala Nagar, Robertsganj, Uttar Pradesh",
    "phone": "Life Care Pathology Lab R.T.S Club Robertsganj",
    "hours": null,
    "image_url": "https://www.bing.com/maps/geoplat/REST/v1/Imagery/Map/RoadVibrant?ms=92,112&key=AnTcaqBi2ypp0xI-OZNi4W_ik2KhjgpqioTAtXLC8GzkMBQRMlyxvxyTnd5b73im&c=en-US&ur=in&da=n&logo=n&fmt=png&od=1&shading=hill&pp=24.687822,83.067299;dfp"
  },
  {
    "name": "Dr Lal PathLabs - Patient Service Centre",
    "address": "Ground Floor, Dodhar Gate, Bijpur, Sonbhadra, Uttar Pradesh 231223",
    "phone": "Dr Lal PathLabs - Patient Service Centre",
    "hours": "Open路 Closes 19:30",
    "image_url": "https://www.bing.com/maps/geoplat/REST/v1/Imagery/Map/RoadVibrant?ms=92,134&key=AnTcaqBi2ypp0xI-OZNi4W_ik2KhjgpqioTAtXLC8GzkMBQRMlyxvxyTnd5b73im&c=en-US&ur=in&da=n&logo=n&fmt=png&od=1&shading=hill&pp=24.017475,82.80722;dfp"
  },
  {
    "name": "Life Care pathology R. T. S Club Robertsganj",
    "address": "R. T. S. Club, Robertsganj, Uttar Pradesh",
    "phone": "Life Care pathology R. T. S Club Robertsganj",
    "hours": null,
    "image_url": "https://www.bing.com/maps/geoplat/REST/v1/Imagery/Map/RoadVibrant?ms=92,112&key=AnTcaqBi2ypp0xI-OZNi4W_ik2KhjgpqioTAtXLC8GzkMBQRMlyxvxyTnd5b73im&c=en-US&ur=in&da=n&logo=n&fmt=png&od=1&shading=hill&pp=24.695742,83.06601;dfp"
  },
  {
    "name": "Kridha Hearing and Speech Clinic",
    "address": "1St Floor, Shankheshwar Building, Madhupur, Robertsganj, Sonbhadra, Uttar Pradesh 231216",
    "phone": "Kridha Hearing and Speech Clinic",
    "hours": null,
    "image_url": "https://www.bing.com/maps/geoplat/REST/v1/Imagery/Map/RoadVibrant?ms=92,112&key=AnTcaqBi2ypp0xI-OZNi4W_ik2KhjgpqioTAtXLC8GzkMBQRMlyxvxyTnd5b73im&c=en-US&ur=in&da=n&logo=n&fmt=png&od=1&shading=hill&pp=24.687853,83.061874;dfp"
  },
  {
    "name": "Sonebhadra Pathology Centre",
    "address": "Deep Nagar, Robertsganj, Uttar Pradesh 231216",
    "phone": "Sonebhadra Pathology Centre",
    "hours": "Open路 Closes 20:00",
    "image_url": null
  },
  {
    "name": "Son Diagnostic Centre",
    "address": "Near Bypass Road Robertsganj S, Robertsganj, Sonbhadra, Uttar Pradesh 231216",
    "phone": "Son Diagnostic Centre",
    "hours": null,
    "image_url": "https://www.bing.com/maps/geoplat/REST/v1/Imagery/Map/RoadVibrant?ms=92,112&key=AnTcaqBi2ypp0xI-OZNi4W_ik2KhjgpqioTAtXLC8GzkMBQRMlyxvxyTnd5b73im&c=en-US&ur=in&da=n&logo=n&fmt=png&od=1&shading=hill&pp=24.687881,83.061958;dfp"
  },
  {
    "name": "Prakash Pathology Center",
    "address": "Madhupur, Robertsganj, Sonbhadra, Uttar Pradesh 231216",
    "phone": "Prakash Pathology Center",
    "hours": null,
    "image_url": "https://www.bing.com/maps/geoplat/REST/v1/Imagery/Map/RoadVibrant?ms=92,112&key=AnTcaqBi2ypp0xI-OZNi4W_ik2KhjgpqioTAtXLC8GzkMBQRMlyxvxyTnd5b73im&c=en-US&ur=in&da=n&logo=n&fmt=png&od=1&shading=hill&pp=24.688366,83.078613;dfp"
  }
]