[
  {
    "name": "Dr. Sanjay Paul",
    "address": "Times Hospital, Old N.T. Road, Deurigaon Opposite NRL Petrol Pump, Mission Chariali, Ketekibari, Tezpur, Assa…",
    "phone": "Dr. Sanjay Paul",
    "hours": "Open· Closes 18:00",
    "image_url": "/th?id=OLC.Wt6zxaK1qpEPgQ480x360&w=92&h=134&c=8&rs=1&qlt=80&cdv=1&pid=Local"
  },
  {
    "name": "Dr Arup Rajbongshi Clinic",
    "address": "Tezpur, Assam 784001",
    "phone": "Dr Arup Rajbongshi Clinic",
    "hours": null,
    "image_url": "https://www.bing.com/maps/geoplat/REST/v1/Imagery/Map/RoadVibrant?ms=92,112&key=AnTcaqBi2ypp0xI-OZNi4W_ik2KhjgpqioTAtXLC8GzkMBQRMlyxvxyTnd5b73im&c=en-US&ur=in&da=n&logo=n&fmt=png&od=1&shading=hill&pp=26.627657,92.792931;dfp"
  },
  {
    "name": "Parikhyya Diagnostic Centre",
    "address": "Akshoy Plaza, Hatipilkhana, Tezpur, Assam",
    "phone": "Parikhyya Diagnostic Centre",
    "hours": null,
    "image_url": "/th?id=OLC.zpAlMXuyjd5Iuw480x360&w=92&h=112&c=8&rs=1&qlt=80&cdv=1&pid=Local"
  },
  {
    "name": "Dr. Nupur Nath",
    "address": "Hatipilkhana, Tezpur City- Tezpur, Tezpur, Assam, India, 784001, Tezpur, Madhya Pradesh 784001",
    "phone": "Dr. Nupur Nath",
    "hours": "Closed· Opens 15:00",
    "image_url": "/th?id=OLC.76NMfTiwgRohuA480x360&w=92&h=134&c=8&rs=1&qlt=80&cdv=1&pid=Local"
  },
  {
    "name": "Dr Tilak Bhattacherjee Clinic",
    "address": "Tezpur, Assam 784001",
    "phone": "Dr Tilak Bhattacherjee Clinic",
    "hours": null,
    "image_url": "/th?id=OLC.tId4y3Y8unVyWg480x360&w=92&h=112&c=8&rs=1&qlt=80&cdv=1&pid=Local"
  },
  {
    "name": "Dr. Ritankur Barkotoky- Interventional Cardiologist",
    "address": "B. K. Memorial Hospital, Natunpara Rd, Mahabhairab, Tezpur, Assam 784001",
    "phone": "Dr. Ritankur Barkotoky- Interventional Cardiologist",
    "hours": "Closed· Opens Wed 09:00",
    "image_url": "https://www.bing.com/maps/geoplat/REST/v1/Imagery/Map/RoadVibrant?ms=92,134&key=AnTcaqBi2ypp0xI-OZNi4W_ik2KhjgpqioTAtXLC8GzkMBQRMlyxvxyTnd5b73im&c=en-US&ur=in&da=n&logo=n&fmt=png&od=1&shading=hill&pp=26.625257,92.800362;dfp"
  },
  {
    "name": "Dr. Palashmoni Keot- Gynecologist And Fertility",
    "address": "Dambaru Keot, Tarajan Kumar Gaon, Civil Hospital Road, Tezpur, Assam 784001",
    "phone": "Dr. Palashmoni Keot- Gynecologist And Fertility",
    "hours": "Closed· Opens 14:00",
    "image_url": "https://www.bing.com/maps/geoplat/REST/v1/Imagery/Map/RoadVibrant?ms=92,134&key=AnTcaqBi2ypp0xI-OZNi4W_ik2KhjgpqioTAtXLC8GzkMBQRMlyxvxyTnd5b73im&c=en-US&ur=in&da=n&logo=n&fmt=png&od=1&shading=hill&pp=26.652594,92.737625;dfp"
  },
  {
    "name": "Dr Rajesh Kr Gupta",
    "address": "Mahatma Gandhi Road, Tezpur, Assam 784001",
    "phone": "Dr Rajesh Kr Gupta",
    "hours": null,
    "image_url": null
  },
  {
    "name": "The Silver Spoon",
    "address": "Capital Drug House AND Clinic, Tribeni, Sonitpur, Assam",
    "phone": "The Silver Spoon",
    "hours": "Open· Closes 13:00",
    "image_url": "https://www.bing.com/maps/geoplat/REST/v1/Imagery/Map/RoadVibrant?ms=92,112&key=AnTcaqBi2ypp0xI-OZNi4W_ik2KhjgpqioTAtXLC8GzkMBQRMlyxvxyTnd5b73im&c=en-US&ur=in&da=n&logo=n&fmt=png&od=1&shading=hill&pp=26.627789,92.789864;dfp"
  },
  {
    "name": "Kids Care / M H Clinic / Arogya Niketan",
    "address": "Missamari Cant, Tezpur, Assam 784506",
    "phone": "Kids Care / M H Clinic / Arogya Niketan",
    "hours": null,
    "image_url": null
  },
  {
    "name": "Dr. Ashok Kr Prasad Skin Specialist",
    "address": "Mahatma Gandhi Rd, opp. to Indusind Bank, Mahabhairab, Tezpur, Assam",
    "phone": "Dr. Ashok Kr Prasad Skin Specialist",
    "hours": null,
    "image_url": "https://www.bing.com/maps/geoplat/REST/v1/Imagery/Map/RoadVibrant?ms=92,112&key=AnTcaqBi2ypp0xI-OZNi4W_ik2KhjgpqioTAtXLC8GzkMBQRMlyxvxyTnd5b73im&c=en-US&ur=in&da=n&logo=n&fmt=png&od=1&shading=hill&pp=26.642002,92.798439;dfp"
  },
  {
    "name": "PKD Skin Clinic, Tezpur, ASSAM",
    "address": "Dalim Bora Road, Opposite To Silver Jubilee Lp School, Tezpur, Assam, Assam 784001",
    "phone": "PKD Skin Clinic, Tezpur, ASSAM",
    "hours": "Open· Closes 19:00",
    "image_url": null
  },
  {
    "name": "Dr. Pawan Kumar",
    "address": "2nd Floor, Mission Chariali, Tezpur, Assam",
    "phone": "Dr. Pawan Kumar",
    "hours": "Open· Closes 19:00",
    "image_url": "https://www.bing.com/maps/geoplat/REST/v1/Imagery/Map/RoadVibrant?ms=92,112&key=AnTcaqBi2ypp0xI-OZNi4W_ik2KhjgpqioTAtXLC8GzkMBQRMlyxvxyTnd5b73im&c=en-US&ur=in&da=n&logo=n&fmt=png&od=1&shading=hill&pp=26.655258,92.7715;dfp"
  },
  {
    "name": "Doctors Clinic",
    "address": "LNB Rd, Near Assam Gramin Bikash Bank, Mangaldoi, Assam",
    "phone": "Doctors Clinic",
    "hours": null,
    "image_url": "https://www.bing.com/maps/geoplat/REST/v1/Imagery/Map/RoadVibrant?ms=92,112&key=AnTcaqBi2ypp0xI-OZNi4W_ik2KhjgpqioTAtXLC8GzkMBQRMlyxvxyTnd5b73im&c=en-US&ur=in&da=n&logo=n&fmt=png&od=1&shading=hill&pp=26.341249,92.681015;dfp"
  },
  {
    "name": "Dr Rikeswar Thengal Saikia Clinic",
    "address": "Moirabari Morigaon Road, Moirabari, Nagaon, Assam 782126",
    "phone": "Dr Rikeswar Thengal Saikia Clinic",
    "hours": null,
    "image_url": "https://www.bing.com/maps/geoplat/REST/v1/Imagery/Map/RoadVibrant?ms=92,112&key=AnTcaqBi2ypp0xI-OZNi4W_ik2KhjgpqioTAtXLC8GzkMBQRMlyxvxyTnd5b73im&c=en-US&ur=in&da=n&logo=n&fmt=png&od=1&shading=hill&pp=26.451946,92.422493;dfp"
  }
]