[
  {
    "name": "Dr. Gaurav Dembla",
    "address": "Murthal Road, Sonipat, Haryana",
    "phone": "Dr. Gaurav Dembla",
    "hours": "Open· Closes 13:00",
    "image_url": "/th?id=OLC.Tq2QQl2CAgkUtw480x360&w=92&h=112&c=8&rs=1&qlt=80&cdv=1&pid=Local"
  },
  {
    "name": "Crossroads Hospital",
    "address": "4-5, Opposite Huda Office, Sector 12, Sonipat, Haryana",
    "phone": "Crossroads Hospital",
    "hours": null,
    "image_url": "https://www.bing.com/maps/geoplat/REST/v1/Imagery/Map/RoadVibrant?ms=92,112&key=AnTcaqBi2ypp0xI-OZNi4W_ik2KhjgpqioTAtXLC8GzkMBQRMlyxvxyTnd5b73im&c=en-US&ur=in&da=n&logo=n&fmt=png&od=1&shading=hill&pp=28.994007,77.038963;dfp"
  },
  {
    "name": "H Doctor Clinic",
    "address": "Rohtak Road, City Sonipat Police Station, Aggarsain Nagar, Sonipat, Haryana 131001",
    "phone": "H Doctor Clinic",
    "hours": null,
    "image_url": "https://www.bing.com/maps/geoplat/REST/v1/Imagery/Map/RoadVibrant?ms=92,112&key=AnTcaqBi2ypp0xI-OZNi4W_ik2KhjgpqioTAtXLC8GzkMBQRMlyxvxyTnd5b73im&c=en-US&ur=in&da=n&logo=n&fmt=png&od=1&shading=hill&pp=28.980541,77.013939;dfp"
  },
  {
    "name": "Dr. Kriti Dembla",
    "address": "Murthal Road, Sonipat, Haryana",
    "phone": "Dr. Kriti Dembla",
    "hours": "Open· Closes 13:00",
    "image_url": "/th?id=OLC.6V9JPTqXMiCELQ480x360&w=92&h=112&c=8&rs=1&qlt=80&cdv=1&pid=Local"
  },
  {
    "name": "SAINI Clinic",
    "address": "Sonipat, Haryana 131001",
    "phone": "SAINI Clinic",
    "hours": null,
    "image_url": "https://www.bing.com/maps/geoplat/REST/v1/Imagery/Map/RoadVibrant?ms=92,112&key=AnTcaqBi2ypp0xI-OZNi4W_ik2KhjgpqioTAtXLC8GzkMBQRMlyxvxyTnd5b73im&c=en-US&ur=in&da=n&logo=n&fmt=png&od=1&shading=hill&pp=28.99523,77.022186;dfp"
  },
  {
    "name": "Ravinder homeopathic clinic",
    "address": "8666+MQ2, Tibba, Punjab",
    "phone": "Ravinder homeopathic clinic",
    "hours": null,
    "image_url": "https://www.bing.com/maps/geoplat/REST/v1/Imagery/Map/RoadVibrant?ms=92,112&key=AnTcaqBi2ypp0xI-OZNi4W_ik2KhjgpqioTAtXLC8GzkMBQRMlyxvxyTnd5b73im&c=en-US&ur=in&da=n&logo=n&fmt=png&od=1&shading=hill&pp=28.993605,77.021759;dfp"
  },
  {
    "name": "Girdhar Hospital Sonepat",
    "address": "Bawa Tarana Road, Near Bus Stand, Khanna Colony, Sonipat, Haryana 131001",
    "phone": "Girdhar Hospital Sonepat",
    "hours": "Open· Closes 14:00",
    "image_url": null
  },
  {
    "name": "Dr. S P S Bakshi",
    "address": "DSS 176, Ground Floor, Part 2, Main Market Sonepat, Sector 14, Sonipat, Haryana",
    "phone": "Dr. S P S Bakshi",
    "hours": null,
    "image_url": "https://www.bing.com/maps/geoplat/REST/v1/Imagery/Map/RoadVibrant?ms=92,112&key=AnTcaqBi2ypp0xI-OZNi4W_ik2KhjgpqioTAtXLC8GzkMBQRMlyxvxyTnd5b73im&c=en-US&ur=in&da=n&logo=n&fmt=png&od=1&shading=hill&pp=28.997299,77.03344;dfp"
  },
  {
    "name": "Gupta Clinic",
    "address": "Urban Co Operative Bank, Jamalpura, Sonipat, Haryana 131001",
    "phone": "Gupta Clinic",
    "hours": null,
    "image_url": "https://www.bing.com/maps/geoplat/REST/v1/Imagery/Map/RoadVibrant?ms=92,112&key=AnTcaqBi2ypp0xI-OZNi4W_ik2KhjgpqioTAtXLC8GzkMBQRMlyxvxyTnd5b73im&c=en-US&ur=in&da=n&logo=n&fmt=png&od=1&shading=hill&pp=29.001867,77.018211;dfp"
  },
  {
    "name": "Komal Kaya Clinic",
    "address": "Balaji Rd, Little Angels Senior Secondary School, Patel Nagar Sector 1, Sonipat, Haryana 131001",
    "phone": "Komal Kaya Clinic",
    "hours": null,
    "image_url": "https://www.bing.com/maps/geoplat/REST/v1/Imagery/Map/RoadVibrant?ms=92,112&key=AnTcaqBi2ypp0xI-OZNi4W_ik2KhjgpqioTAtXLC8GzkMBQRMlyxvxyTnd5b73im&c=en-US&ur=in&da=n&logo=n&fmt=png&od=1&shading=hill&pp=28.993652,77.021919;dfp"
  },
  {
    "name": "Kasturba Clinic",
    "address": "Old D C Road, Bhagat Pura, Sonipat, Haryana 131001",
    "phone": "Kasturba Clinic",
    "hours": null,
    "image_url": "https://www.bing.com/maps/geoplat/REST/v1/Imagery/Map/RoadVibrant?ms=92,112&key=AnTcaqBi2ypp0xI-OZNi4W_ik2KhjgpqioTAtXLC8GzkMBQRMlyxvxyTnd5b73im&c=en-US&ur=in&da=n&logo=n&fmt=png&od=1&shading=hill&pp=28.9891,77.025742;dfp"
  },
  {
    "name": "Shuddhi Clinic By Guru Manish Ji - Best Ayurveda Doctor & Ayurvedic Treatment",
    "address": "Shella Bypass To Sonipat Road, 1st Floor Opposite Dr. Lal Path Lab, Near Axis Bank ATM, Rohtak, Haryana",
    "phone": "Shuddhi Clinic By Guru Manish Ji - Best Ayurveda Doctor & Ayurvedic Treatment",
    "hours": null,
    "image_url": "https://www.bing.com/maps/geoplat/REST/v1/Imagery/Map/RoadVibrant?ms=92,112&key=AnTcaqBi2ypp0xI-OZNi4W_ik2KhjgpqioTAtXLC8GzkMBQRMlyxvxyTnd5b73im&c=en-US&ur=in&da=n&logo=n&fmt=png&od=1&shading=hill&pp=28.989811,77.022057;dfp"
  },
  {
    "name": "Haryana Clinic",
    "address": "Kakroi Road, Swarnprastha Arya Vidya Mandir School, West Ram Nagar, Sonipat, Haryana 131001",
    "phone": "Haryana Clinic",
    "hours": null,
    "image_url": "https://www.bing.com/maps/geoplat/REST/v1/Imagery/Map/RoadVibrant?ms=92,112&key=AnTcaqBi2ypp0xI-OZNi4W_ik2KhjgpqioTAtXLC8GzkMBQRMlyxvxyTnd5b73im&c=en-US&ur=in&da=n&logo=n&fmt=png&od=1&shading=hill&pp=28.982409,77.007919;dfp"
  },
  {
    "name": "Chdeva Clinic",
    "address": "Kakroi Road, Moolchand Chowk, Vijay Nagar, Sonipat, Haryana 131001",
    "phone": "Chdeva Clinic",
    "hours": null,
    "image_url": "https://www.bing.com/maps/geoplat/REST/v1/Imagery/Map/RoadVibrant?ms=92,112&key=AnTcaqBi2ypp0xI-OZNi4W_ik2KhjgpqioTAtXLC8GzkMBQRMlyxvxyTnd5b73im&c=en-US&ur=in&da=n&logo=n&fmt=png&od=1&shading=hill&pp=28.992277,77.010948;dfp"
  },
  {
    "name": "Dr Grover Naturopathy clinic",
    "address": "Anand Nagar, , Sonipat, Haryana",
    "phone": "Dr Grover Naturopathy clinic",
    "hours": null,
    "image_url": "https://www.bing.com/maps/geoplat/REST/v1/Imagery/Map/RoadVibrant?ms=92,112&key=AnTcaqBi2ypp0xI-OZNi4W_ik2KhjgpqioTAtXLC8GzkMBQRMlyxvxyTnd5b73im&c=en-US&ur=in&da=n&logo=n&fmt=png&od=1&shading=hill&pp=28.989843,77.027138;dfp"
  },
  {
    "name": "Shivay Clinic",
    "address": "Village Bhurri, Near HP Petrol Pump, Sonipat Ganaur Road, Sonepat, Haryana 131001",
    "phone": "Shivay Clinic",
    "hours": null,
    "image_url": "https://www.bing.com/maps/geoplat/REST/v1/Imagery/Map/RoadVibrant?ms=92,112&key=AnTcaqBi2ypp0xI-OZNi4W_ik2KhjgpqioTAtXLC8GzkMBQRMlyxvxyTnd5b73im&c=en-US&ur=in&da=n&logo=n&fmt=png&od=1&shading=hill&pp=28.996401,77.023094;dfp"
  },
  {
    "name": "Sonepat Fetal Medicine & Genetic Centre",
    "address": "Sonepat Fetal Medicine & Genetic Center Sunehri Devi Hospital, Mission Rd, Sonipat, Haryana 131001, Sonep…",
    "phone": "Sonepat Fetal Medicine & Genetic Centre",
    "hours": null,
    "image_url": null
  },
  {
    "name": "Riva Ayurvedic",
    "address": "H. No. 1533, Sector/14, Sonipat, Delhi 131001",
    "phone": "Riva Ayurvedic",
    "hours": null,
    "image_url": "https://www.bing.com/maps/geoplat/REST/v1/Imagery/Map/RoadVibrant?ms=92,112&key=AnTcaqBi2ypp0xI-OZNi4W_ik2KhjgpqioTAtXLC8GzkMBQRMlyxvxyTnd5b73im&c=en-US&ur=in&da=n&logo=n&fmt=png&od=1&shading=hill&pp=28.996487,77.031036;dfp"
  }
]