[
  {
    "name": "Dr Ruchi Tandoa Clinic",
    "address": "E-301, New Delhi, Delhi 110048",
    "phone": "Dr Ruchi Tandoa Clinic",
    "hours": "Open· Closes 20:00",
    "image_url": "https://www.bing.com/maps/geoplat/REST/v1/Imagery/Map/RoadVibrant?ms=92,134&key=AnTcaqBi2ypp0xI-OZNi4W_ik2KhjgpqioTAtXLC8GzkMBQRMlyxvxyTnd5b73im&c=en-US&ur=in&da=n&logo=n&fmt=png&od=1&shading=hill&pp=28.537182,77.241646;dfp"
  },
  {
    "name": "\"SOHAM\" Dr. Tuli's Clinic for Holistic MediCare",
    "address": "D-961, CV Raman Marg, New Friends Colony East, New Friends Colony, Delhi 110065",
    "phone": "\"SOHAM\" Dr. Tuli's Clinic for Holistic MediCare",
    "hours": "Open· Closes 20:00",
    "image_url": "/th?id=OLC.ocE55uMzE4tZJw480x360&w=92&h=134&c=8&rs=1&qlt=80&cdv=1&pid=Local"
  },
  {
    "name": "Maheshwari Clinics",
    "address": "Sukhdev Vihar Road, Near Central Bank Of India, Sukhdev Vihar, Okhla, Delhi 110025",
    "phone": "Maheshwari Clinics",
    "hours": "Open· Closes 20:00",
    "image_url": "/th?id=OLC.WkcJ5aAE9KISGA480x360&w=92&h=134&c=8&rs=1&qlt=80&cdv=1&pid=Local"
  },
  {
    "name": "Dr. Vivek Vij - Best Organ Transplant Surgeon in Noida | Director, Fortis Healthcare",
    "address": "502, Okhla Road, Sukhdev Vihar Metro Station, New Delhi, Delhi 110025",
    "phone": "Dr. Vivek Vij - Best Organ Transplant Surgeon in Noida | Director, Fortis Healthcare",
    "hours": "Open· Closes 12:00",
    "image_url": "/th?id=OLC.mfHfRmMz%2blqzIQ480x360&w=92&h=134&c=8&rs=1&qlt=80&cdv=1&pid=Local"
  },
  {
    "name": "Dr. Sanchayan Roy (General Physician, Internal Medicine, Critical Care, Diabetologist))",
    "address": "D772, Lower Ground Floor, Bipin Chandra Pal Marg, Opposite Market 2, Chittaranjan Park, New Delhi, Delhi",
    "phone": "Dr. Sanchayan Roy (General Physician, Internal Medicine, Critical Care, Diabetologist))",
    "hours": "Closed· Opens 18:00",
    "image_url": "/th?id=OLC.b8ERVVMZ1lnxBQ480x360&w=92&h=134&c=8&rs=1&qlt=80&cdv=1&pid=Local"
  },
  {
    "name": "Lalit Mohan Parashar",
    "address": "159, Sukhdev Vihar Road, Sukhdev Vihar, Okhla, Delhi 110025",
    "phone": "Lalit Mohan Parashar",
    "hours": "Open· Closes 21:00",
    "image_url": "/th?id=OLC.Rq4jPgzjoF5FVA480x360&w=92&h=134&c=8&rs=1&qlt=80&cdv=1&pid=Local"
  },
  {
    "name": "Dr Amita Jain - Laparoscopic Surgeon in Delhi",
    "address": "OPD, Artemis Lite Hospital, A-1, New Friends Colony, South Delhi, Delhi 110025",
    "phone": "Dr Amita Jain - Laparoscopic Surgeon in Delhi",
    "hours": "Open· Closes 14:00",
    "image_url": null
  },
  {
    "name": "Dr. Ashish Gupta, Fortis Okhla, Neuro Surgeon",
    "address": "Cabin No- 111, Okhla Road Sukhdev Vihar Metro Station, Okhla, New Delhi, Delhi 110025",
    "phone": "Dr. Ashish Gupta, Fortis Okhla, Neuro Surgeon",
    "hours": "Closed· Opens 16:00",
    "image_url": "https://www.bing.com/maps/geoplat/REST/v1/Imagery/Map/RoadVibrant?ms=92,134&key=AnTcaqBi2ypp0xI-OZNi4W_ik2KhjgpqioTAtXLC8GzkMBQRMlyxvxyTnd5b73im&c=en-US&ur=in&da=n&logo=n&fmt=png&od=1&shading=hill&pp=28.560974,77.273911;dfp"
  },
  {
    "name": "Dr. Geeta Maheshwari",
    "address": "Kalka Ji Marg, Near Hdfc Bank, Block F, East Of Kailash, Delhi 110048",
    "phone": "Dr. Geeta Maheshwari",
    "hours": "Open· Closes 18:00",
    "image_url": "https://www.bing.com/maps/geoplat/REST/v1/Imagery/Map/RoadVibrant?ms=92,134&key=AnTcaqBi2ypp0xI-OZNi4W_ik2KhjgpqioTAtXLC8GzkMBQRMlyxvxyTnd5b73im&c=en-US&ur=in&da=n&logo=n&fmt=png&od=1&shading=hill&pp=28.560936,77.250862;dfp"
  },
  {
    "name": "Dr Vishal Dutt Gour",
    "address": "M 4, Greater Kailash-1, M Block, Delhi 110048",
    "phone": "Dr Vishal Dutt Gour",
    "hours": null,
    "image_url": "https://www.bing.com/maps/geoplat/REST/v1/Imagery/Map/RoadVibrant?ms=92,112&key=AnTcaqBi2ypp0xI-OZNi4W_ik2KhjgpqioTAtXLC8GzkMBQRMlyxvxyTnd5b73im&c=en-US&ur=in&da=n&logo=n&fmt=png&od=1&shading=hill&pp=28.536699,77.244614;dfp"
  },
  {
    "name": "Dr. Sumit Goyal- Best Neurosurgeon In Delhi, Neurosurgeon In Delhi, Best Brain Tumor Surgeon In D…",
    "address": "Vimhans Nayati Super Speciality Hospital, 1, Institutional Area, Nehru Nagar, Lajpat Nagar, New Delhi, Delhi",
    "phone": "Dr. Sumit Goyal- Best Neurosurgeon In Delhi, Neurosurgeon In Delhi, Best Brain Tumor Surgeon In D…",
    "hours": "Open· Closes 17:00",
    "image_url": "https://www.bing.com/maps/geoplat/REST/v1/Imagery/Map/RoadVibrant?ms=92,112&key=AnTcaqBi2ypp0xI-OZNi4W_ik2KhjgpqioTAtXLC8GzkMBQRMlyxvxyTnd5b73im&c=en-US&ur=in&da=n&logo=n&fmt=png&od=1&shading=hill&pp=28.570124,77.253403;dfp"
  },
  {
    "name": "Dr. Akhil Agnihotri (Arthroscopy and Joint Replacement Surgeon)",
    "address": "National Heart Institute, East Of Kailash, Delhi 110065",
    "phone": "Dr. Akhil Agnihotri (Arthroscopy and Joint Replacement Surgeon)",
    "hours": "Open· Closes 21:00",
    "image_url": null
  },
  {
    "name": "Dr. S K Thakur",
    "address": "8, Siri Fort Road, Landmark: Near Gargi College, Siri Fort Road, Delhi 110049",
    "phone": "Dr. S K Thakur",
    "hours": "Open· Closes 12:30",
    "image_url": null
  },
  {
    "name": "Dr Sumit Sinha Best Neurosurgeon in Agra, Delhi, India | Brain & Spine Specialist",
    "address": "Third Floor, Madhuban Plaza Delhi Gate, Uttar Pradesh",
    "phone": "Dr Sumit Sinha Best Neurosurgeon in Agra, Delhi, India | Brain & Spine Specialist",
    "hours": null,
    "image_url": "https://www.bing.com/maps/geoplat/REST/v1/Imagery/Map/RoadVibrant?ms=92,112&key=AnTcaqBi2ypp0xI-OZNi4W_ik2KhjgpqioTAtXLC8GzkMBQRMlyxvxyTnd5b73im&c=en-US&ur=in&da=n&logo=n&fmt=png&od=1&shading=hill&pp=28.547993,77.252014;dfp"
  },
  {
    "name": "Cornea Clinic",
    "address": "Chamber No-G9, A-7 Kailash Colony Road, Greater Kailash, New Delhi, Delhi 110048",
    "phone": "Cornea Clinic",
    "hours": "Open· Closes 18:00",
    "image_url": null
  },
  {
    "name": "Dr. S P Singh",
    "address": "Okhla Road, New Friends Colony, Delhi",
    "phone": "Dr. S P Singh",
    "hours": "Closed· Opens 11:00",
    "image_url": null
  },
  {
    "name": "Dr. Deepak Sikriwal",
    "address": "C 30-31, Nehru Enclave, Kalkaji Road, Block G, Delhi",
    "phone": "Dr. Deepak Sikriwal",
    "hours": "Closed· Opens 12:00",
    "image_url": null
  },
  {
    "name": "Dr. N. K. Gupta Clinic",
    "address": "27 - B, Kailash Colony Extn, Landmark: Adjacent To Kailash Colony, Zamrudpur, Greater Kailash I, New Del…",
    "phone": "Dr. N. K. Gupta Clinic",
    "hours": "Closed· Opens 14:00",
    "image_url": "https://www.bing.com/maps/geoplat/REST/v1/Imagery/Map/RoadVibrant?ms=92,112&key=AnTcaqBi2ypp0xI-OZNi4W_ik2KhjgpqioTAtXLC8GzkMBQRMlyxvxyTnd5b73im&c=en-US&ur=in&da=n&logo=n&fmt=png&od=1&shading=hill&pp=28.557133,77.237;dfp"
  }
]