[
  {
    "name": "Dr Mohonish N Chettri, MS.",
    "address": "Sichey School Rd, Sungava, Gangtok, Sikkim",
    "phone": "Dr Mohonish N Chettri, MS.",
    "hours": null,
    "image_url": "https://www.bing.com/maps/geoplat/REST/v1/Imagery/Map/RoadVibrant?ms=92,112&key=AnTcaqBi2ypp0xI-OZNi4W_ik2KhjgpqioTAtXLC8GzkMBQRMlyxvxyTnd5b73im&c=en-US&ur=in&da=n&logo=n&fmt=png&od=1&shading=hill&pp=27.335308,88.615738;dfp"
  },
  {
    "name": "Dr Shiva Kumar Rai",
    "address": "Deorali Road, Gangtok, Sikkim 737101",
    "phone": "Dr Shiva Kumar Rai",
    "hours": "Open 24 hours",
    "image_url": "/th?id=OLC.2DDHv2Ds6sbJCg480x360&w=92&h=134&c=8&rs=1&qlt=80&cdv=1&pid=Local"
  },
  {
    "name": "Dr. Tapas Kumar Har - General physician and child specialist",
    "address": "Dr. Tapas Kumar Har - Nandan Medical, Main Road, Kalimpong, West Bengal 734301",
    "phone": "Dr. Tapas Kumar Har - General physician and child specialist",
    "hours": "Open· Closes 17:30",
    "image_url": "/th?id=OLC.UkXrIpZIxQi31w480x360&w=92&h=134&c=8&rs=1&qlt=80&cdv=1&pid=Local"
  },
  {
    "name": "Dr. Subarna Khatiwara | General Medicine | District Hospital",
    "address": "Golitar, Singtam, Sikkim 737134, Singtam, Madhya Pradesh 737134",
    "phone": "Dr. Subarna Khatiwara | General Medicine | District Hospital",
    "hours": "Open· Closes 15:00",
    "image_url": "/th?id=OLC.QoqFFHXCsRWNqw480x360&w=92&h=134&c=8&rs=1&qlt=80&cdv=1&pid=Local"
  },
  {
    "name": "Dr Hanuman Marda Clinic",
    "address": "Tadong To Zero Point Road, Gangtok, Sikkim 737102",
    "phone": "Dr Hanuman Marda Clinic",
    "hours": null,
    "image_url": "https://www.bing.com/maps/geoplat/REST/v1/Imagery/Map/RoadVibrant?ms=92,112&key=AnTcaqBi2ypp0xI-OZNi4W_ik2KhjgpqioTAtXLC8GzkMBQRMlyxvxyTnd5b73im&c=en-US&ur=in&da=n&logo=n&fmt=png&od=1&shading=hill&pp=27.318241,88.606598;dfp"
  },
  {
    "name": "Dr Indira Bharti. Holistic Homoeo Health Clinic",
    "address": "Baghdhara Road, Kalimpong Khasmahal, Kalimpong, Madhya Pradesh 734301",
    "phone": "Dr Indira Bharti. Holistic Homoeo Health Clinic",
    "hours": "Closed· Opens 14:00",
    "image_url": "/th?id=OLC.nXvW9VRtcJXLng480x360&w=92&h=134&c=8&rs=1&qlt=80&cdv=1&pid=Local"
  },
  {
    "name": "Durga Healthcare & Diagnostic Centre",
    "address": "Ranipool Bazar, Gangtok, Sikkim 737135",
    "phone": "Durga Healthcare & Diagnostic Centre",
    "hours": "Open· Closes 19:00",
    "image_url": null
  },
  {
    "name": "Homoeopathic Clinic - Dr V K Prasad",
    "address": "D.c Building Lal Bazar Gangtok, Gangtok, Sikkim 737101",
    "phone": "Homoeopathic Clinic - Dr V K Prasad",
    "hours": null,
    "image_url": null
  },
  {
    "name": "Dr. Sharma's Wellness Clinic",
    "address": "31 A N.h.way, Gangtok, Sikkim, Sikkim 737101",
    "phone": "Dr. Sharma's Wellness Clinic",
    "hours": null,
    "image_url": null
  },
  {
    "name": "Thea Aesthetic Clinic",
    "address": "National Highway 31A, Upper Tadong, Tadong, Gangtok, Sikkim",
    "phone": "Thea Aesthetic Clinic",
    "hours": "Closed· Opens 11:00",
    "image_url": null
  },
  {
    "name": "Dr Lal PathLabs - Patient Service Centre",
    "address": "Jigtsing Commercials, Indira Bypass Rd, Near D C Office, Upper Sichey, Sungava, Gangtok, Sikkim",
    "phone": "Dr Lal PathLabs - Patient Service Centre",
    "hours": null,
    "image_url": "https://www.bing.com/maps/geoplat/REST/v1/Imagery/Map/RoadVibrant?ms=92,112&key=AnTcaqBi2ypp0xI-OZNi4W_ik2KhjgpqioTAtXLC8GzkMBQRMlyxvxyTnd5b73im&c=en-US&ur=in&da=n&logo=n&fmt=png&od=1&shading=hill&pp=27.32255,88.611694;dfp"
  },
  {
    "name": "Regional Ayurveda Research Institute",
    "address": "Nh31a, Gangtok, Sikkim 737102",
    "phone": "Regional Ayurveda Research Institute",
    "hours": null,
    "image_url": "https://www.bing.com/maps/geoplat/REST/v1/Imagery/Map/RoadVibrant?ms=92,112&key=AnTcaqBi2ypp0xI-OZNi4W_ik2KhjgpqioTAtXLC8GzkMBQRMlyxvxyTnd5b73im&c=en-US&ur=in&da=n&logo=n&fmt=png&od=1&shading=hill&pp=27.315109,88.601624;dfp"
  },
  {
    "name": "Holistic Homoeo Wellness Clinic",
    "address": "Jopa, Main Road, Kalimpong Near Airtel Office, Kalimpong, Madhya Pradesh 734301",
    "phone": "Holistic Homoeo Wellness Clinic",
    "hours": "Open· Closes 18:15",
    "image_url": null
  },
  {
    "name": "Primary Health Care Centre (SHAW)",
    "address": "Ground Floor, K&M Garden, Plot No. SB-20, Block 14 Karachi, Pakistan, Jorebunglow Sukhia, West Bengal 7…",
    "phone": "Primary Health Care Centre (SHAW)",
    "hours": null,
    "image_url": "https://www.bing.com/maps/geoplat/REST/v1/Imagery/Map/RoadVibrant?ms=92,112&key=AnTcaqBi2ypp0xI-OZNi4W_ik2KhjgpqioTAtXLC8GzkMBQRMlyxvxyTnd5b73im&c=en-US&ur=in&da=n&logo=n&fmt=png&od=1&shading=hill&pp=27.036865,88.265671;dfp"
  },
  {
    "name": "Dr Lal Pathlabs",
    "address": "Darjeeling, West Bengal 734101",
    "phone": "Dr Lal Pathlabs",
    "hours": null,
    "image_url": null
  }
]