[
  {
    "name": "Apollo Clinic",
    "address": "No – 192, Garacharma Main Road, Port Blair 744103",
    "phone": "Apollo Clinic",
    "hours": "Open· Closes 20:00",
    "image_url": "https://www.bing.com/maps/geoplat/REST/v1/Imagery/Map/RoadVibrant?ms=92,134&key=AnTcaqBi2ypp0xI-OZNi4W_ik2KhjgpqioTAtXLC8GzkMBQRMlyxvxyTnd5b73im&c=en-US&ur=in&da=n&logo=n&fmt=png&od=1&shading=hill&pp=11.606019,92.705841;dfp"
  },
  {
    "name": "Dr Chhanda's Clinic (Opc)",
    "address": "C/O Mandal Chhanda, Brinda Clinic Garacharma Medical, Andaman Blair Andaman Islands, Port Blair 744103",
    "phone": "Dr Chhanda's Clinic (Opc)",
    "hours": null,
    "image_url": "https://www.bing.com/maps/geoplat/REST/v1/Imagery/Map/RoadVibrant?ms=92,112&key=AnTcaqBi2ypp0xI-OZNi4W_ik2KhjgpqioTAtXLC8GzkMBQRMlyxvxyTnd5b73im&c=en-US&ur=in&da=n&logo=n&fmt=png&od=1&shading=hill&pp=11.614472,92.701645;dfp"
  },
  {
    "name": "Dr. G. Selvaraj",
    "address": "4th Cross Road, Besides K R Store, Junglighat, Andaman, Andaman and Nicobar Islands",
    "phone": "Dr. G. Selvaraj",
    "hours": "Open· Closes 13:30",
    "image_url": "https://www.bing.com/maps/geoplat/REST/v1/Imagery/Map/RoadVibrant?ms=92,112&key=AnTcaqBi2ypp0xI-OZNi4W_ik2KhjgpqioTAtXLC8GzkMBQRMlyxvxyTnd5b73im&c=en-US&ur=in&da=n&logo=n&fmt=png&od=1&shading=hill&pp=11.657406,92.733536;dfp"
  },
  {
    "name": "Homoeo Clinic",
    "address": "Shop NO 1, 1ST Floor, South Andaman, Junglighat, Port Blair 744103",
    "phone": "Homoeo Clinic",
    "hours": null,
    "image_url": "https://www.bing.com/maps/geoplat/REST/v1/Imagery/Map/RoadVibrant?ms=92,112&key=AnTcaqBi2ypp0xI-OZNi4W_ik2KhjgpqioTAtXLC8GzkMBQRMlyxvxyTnd5b73im&c=en-US&ur=in&da=n&logo=n&fmt=png&od=1&shading=hill&pp=11.614472,92.701645;dfp"
  },
  {
    "name": "Chaithanya Ayur Care, Ayurveda Panchakarma Clinic",
    "address": "Mp4m+3fr, Vip Rd, Thomas Colony, Police Line",
    "phone": "Chaithanya Ayur Care, Ayurveda Panchakarma Clinic",
    "hours": null,
    "image_url": "https://www.bing.com/maps/geoplat/REST/v1/Imagery/Map/RoadVibrant?ms=92,112&key=AnTcaqBi2ypp0xI-OZNi4W_ik2KhjgpqioTAtXLC8GzkMBQRMlyxvxyTnd5b73im&c=en-US&ur=in&da=n&logo=n&fmt=png&od=1&shading=hill&pp=11.658344,92.731445;dfp"
  },
  {
    "name": "DR. Anand's Swasthya Hospital",
    "address": "90\\3\\8, Near Rsn Godown, Old Pahargaon, Po Dollygunj, Atr, Port Blair, South Andaman 744103",
    "phone": "DR. Anand's Swasthya Hospital",
    "hours": null,
    "image_url": "https://www.bing.com/maps/geoplat/REST/v1/Imagery/Map/RoadVibrant?ms=92,112&key=AnTcaqBi2ypp0xI-OZNi4W_ik2KhjgpqioTAtXLC8GzkMBQRMlyxvxyTnd5b73im&c=en-US&ur=in&da=n&logo=n&fmt=png&od=1&shading=hill&pp=11.681599,92.724289;dfp"
  },
  {
    "name": "Dr Agarwals Eye Hospital",
    "address": "No 32/4, RGT Road, Port Blair 744101",
    "phone": "Dr Agarwals Eye Hospital",
    "hours": "Open· Closes 19:00",
    "image_url": null
  },
  {
    "name": "Dr. Shanti's Dental Care Centre",
    "address": "1st Floor, Bathu Basthi JN, Beside Axis Bank LTD, Port Blair, Andaman and Nicobar Islands 744105",
    "phone": "Dr. Shanti's Dental Care Centre",
    "hours": "Open· Closes 13:00",
    "image_url": null
  }
]