[
  {
    "name": "Dr Ranjan Kumar Mustafi Clinic",
    "address": "Balurghat, West Bengal 733101",
    "phone": "Dr Ranjan Kumar Mustafi Clinic",
    "hours": null,
    "image_url": "https://www.bing.com/maps/geoplat/REST/v1/Imagery/Map/RoadVibrant?ms=92,112&key=AnTcaqBi2ypp0xI-OZNi4W_ik2KhjgpqioTAtXLC8GzkMBQRMlyxvxyTnd5b73im&c=en-US&ur=in&da=n&logo=n&fmt=png&od=1&shading=hill&pp=25.246056,88.780579;dfp"
  },
  {
    "name": "Dr. Payel Mandal (MBBS, MS - প্রসূতি ও স্ত্রীরোগ বিশেষজ্ঞ)",
    "address": "HP Laboratory & Polyclinic, Near Majumder Nursing Home, Raghunathpur, Balurghat, West Bengal",
    "phone": "Dr. Payel Mandal (MBBS, MS - প্রসূতি ও স্ত্রীরোগ বিশেষজ্ঞ)",
    "hours": null,
    "image_url": "https://www.bing.com/maps/geoplat/REST/v1/Imagery/Map/RoadVibrant?ms=92,112&key=AnTcaqBi2ypp0xI-OZNi4W_ik2KhjgpqioTAtXLC8GzkMBQRMlyxvxyTnd5b73im&c=en-US&ur=in&da=n&logo=n&fmt=png&od=1&shading=hill&pp=25.222527,88.780708;dfp"
  },
  {
    "name": "Spandan Diagnostics and Super Speciality Clinic",
    "address": "Raghunathpur, Forest Road, Tank More ( Near District Hospital), Balurghat, West Bengal, West Bengal 733103",
    "phone": "Spandan Diagnostics and Super Speciality Clinic",
    "hours": null,
    "image_url": "/th?id=OLC.IYC3kobPz%2fZQ2w480x360&w=92&h=112&c=8&rs=1&qlt=80&cdv=1&pid=Local"
  },
  {
    "name": "Dr.Somnath Sarkar",
    "address": "Beside Samajkalyan Primary School South Dinajpur, Balurghat, West Bengal",
    "phone": "Dr.Somnath Sarkar",
    "hours": null,
    "image_url": "https://www.bing.com/maps/geoplat/REST/v1/Imagery/Map/RoadVibrant?ms=92,112&key=AnTcaqBi2ypp0xI-OZNi4W_ik2KhjgpqioTAtXLC8GzkMBQRMlyxvxyTnd5b73im&c=en-US&ur=in&da=n&logo=n&fmt=png&od=1&shading=hill&pp=25.234856,88.794319;dfp"
  },
  {
    "name": "Pravash Clinic & Laboratory",
    "address": "Mini Market Bus Stand 1st Floor, Balurghat, West Bengal 733101",
    "phone": "Pravash Clinic & Laboratory",
    "hours": null,
    "image_url": "https://www.bing.com/maps/geoplat/REST/v1/Imagery/Map/RoadVibrant?ms=92,112&key=AnTcaqBi2ypp0xI-OZNi4W_ik2KhjgpqioTAtXLC8GzkMBQRMlyxvxyTnd5b73im&c=en-US&ur=in&da=n&logo=n&fmt=png&od=1&shading=hill&pp=25.22216,88.77655;dfp"
  },
  {
    "name": "Dr. Uttam Kumar Halder | Best Cardiologist near me Raghunathpur Balurghat",
    "address": "Spandan Super Speciality Clinic, Raghunathpur Tank More, Balurghat, West Bengal",
    "phone": "Dr. Uttam Kumar Halder | Best Cardiologist near me Raghunathpur Balurghat",
    "hours": null,
    "image_url": "https://www.bing.com/maps/geoplat/REST/v1/Imagery/Map/RoadVibrant?ms=92,112&key=AnTcaqBi2ypp0xI-OZNi4W_ik2KhjgpqioTAtXLC8GzkMBQRMlyxvxyTnd5b73im&c=en-US&ur=in&da=n&logo=n&fmt=png&od=1&shading=hill&pp=25.226662,88.782997;dfp"
  },
  {
    "name": "Patanjali Chikitsalaya",
    "address": "Chak Bhawani (Ghospara), Po. Balurghat",
    "phone": "Patanjali Chikitsalaya",
    "hours": null,
    "image_url": "https://www.bing.com/maps/geoplat/REST/v1/Imagery/Map/RoadVibrant?ms=92,112&key=AnTcaqBi2ypp0xI-OZNi4W_ik2KhjgpqioTAtXLC8GzkMBQRMlyxvxyTnd5b73im&c=en-US&ur=in&da=n&logo=n&fmt=png&od=1&shading=hill&pp=25.24889,88.781219;dfp"
  },
  {
    "name": "Dr Lal PathLabs",
    "address": "Raghunath Diagnostic Centre, Near Tank More P.O - B.P Park, Balurghat, Dakshin, Balurghat, West Bengal",
    "phone": "Dr Lal PathLabs",
    "hours": null,
    "image_url": null
  },
  {
    "name": "Bio-Xin Skin Care Clinic & Dermo Cosmetics - Rajshahi",
    "address": "Level-3, Stylo Premises, ( East of Rajshahi New Market, 6000, Balurghat, West Bengal 733101",
    "phone": "Bio-Xin Skin Care Clinic & Dermo Cosmetics - Rajshahi",
    "hours": null,
    "image_url": "https://www.bing.com/maps/geoplat/REST/v1/Imagery/Map/RoadVibrant?ms=92,112&key=AnTcaqBi2ypp0xI-OZNi4W_ik2KhjgpqioTAtXLC8GzkMBQRMlyxvxyTnd5b73im&c=en-US&ur=in&da=n&logo=n&fmt=png&od=1&shading=hill&pp=25.224611,88.777649;dfp"
  },
  {
    "name": "Dr Dhar Ray Dental Clinic",
    "address": "Balurghat, Hili More, Dakshin Dinajpur, West Bengal 733101",
    "phone": "Dr Dhar Ray Dental Clinic",
    "hours": null,
    "image_url": "https://www.bing.com/maps/geoplat/REST/v1/Imagery/Map/RoadVibrant?ms=92,112&key=AnTcaqBi2ypp0xI-OZNi4W_ik2KhjgpqioTAtXLC8GzkMBQRMlyxvxyTnd5b73im&c=en-US&ur=in&da=n&logo=n&fmt=png&od=1&shading=hill&pp=25.225416,88.781265;dfp"
  },
  {
    "name": "Ashok Kumar Sarkar",
    "address": "East Aptair, South Dinajpur, Hili, Dakshin Dinajpur, West Bengal 733126",
    "phone": "Ashok Kumar Sarkar",
    "hours": null,
    "image_url": "https://www.bing.com/maps/geoplat/REST/v1/Imagery/Map/RoadVibrant?ms=92,112&key=AnTcaqBi2ypp0xI-OZNi4W_ik2KhjgpqioTAtXLC8GzkMBQRMlyxvxyTnd5b73im&c=en-US&ur=in&da=n&logo=n&fmt=png&od=1&shading=hill&pp=25.230194,88.778;dfp"
  },
  {
    "name": "I + Optical, 100% Accurate eye Testing",
    "address": "In Front of Balurghat High School, Balurghat, West Bengal 733101",
    "phone": "I + Optical, 100% Accurate eye Testing",
    "hours": "Open· Closes 21:00",
    "image_url": null
  }
]