[
  {
    "name": "Dr Rima Sultana",
    "address": "Sajahan Road, Baruipur, South 24 Parganas, West Bengal 700144",
    "phone": "Dr Rima Sultana",
    "hours": null,
    "image_url": "https://www.bing.com/maps/geoplat/REST/v1/Imagery/Map/RoadVibrant?ms=92,112&key=AnTcaqBi2ypp0xI-OZNi4W_ik2KhjgpqioTAtXLC8GzkMBQRMlyxvxyTnd5b73im&c=en-US&ur=in&da=n&logo=n&fmt=png&od=1&shading=hill&pp=22.364491,88.433319;dfp"
  },
  {
    "name": "Sm Seba Clinic",
    "address": "Village Kumir Mari, Para Kumir Mari, Jibantala, Kumirmari, South 24 Parganas, West Bengal 743378",
    "phone": "Sm Seba Clinic",
    "hours": null,
    "image_url": "https://www.bing.com/maps/geoplat/REST/v1/Imagery/Map/RoadVibrant?ms=92,112&key=AnTcaqBi2ypp0xI-OZNi4W_ik2KhjgpqioTAtXLC8GzkMBQRMlyxvxyTnd5b73im&c=en-US&ur=in&da=n&logo=n&fmt=png&od=1&shading=hill&pp=22.175779,88.420433;dfp"
  },
  {
    "name": "Doctor Clinic",
    "address": "Budge Budge II, Brindabanpur, Kamra, Nodakhali, South 24 Parganas, West Bengal 743318",
    "phone": "Doctor Clinic",
    "hours": null,
    "image_url": "https://www.bing.com/maps/geoplat/REST/v1/Imagery/Map/RoadVibrant?ms=92,112&key=AnTcaqBi2ypp0xI-OZNi4W_ik2KhjgpqioTAtXLC8GzkMBQRMlyxvxyTnd5b73im&c=en-US&ur=in&da=n&logo=n&fmt=png&od=1&shading=hill&pp=22.393053,88.170906;dfp"
  },
  {
    "name": "General Clinic",
    "address": "Magrahat-1, Deula, Usthi, South 24 Parganas, West Bengal 743375",
    "phone": "General Clinic",
    "hours": null,
    "image_url": "https://www.bing.com/maps/geoplat/REST/v1/Imagery/Map/RoadVibrant?ms=92,112&key=AnTcaqBi2ypp0xI-OZNi4W_ik2KhjgpqioTAtXLC8GzkMBQRMlyxvxyTnd5b73im&c=en-US&ur=in&da=n&logo=n&fmt=png&od=1&shading=hill&pp=22.252808,88.293655;dfp"
  },
  {
    "name": "Apollo Clinic Amtala",
    "address": "Regent Market, 2nd Floor, D.H.Road, Opp. Amtala Bus Stand, Amtala, South 24 Parganas, Amtala, West Beng…",
    "phone": "Apollo Clinic Amtala",
    "hours": "Open· Closes 21:00",
    "image_url": "/th?id=OLC.Y%2fD0bVuvaqoFcQ480x360&w=92&h=134&c=8&rs=1&qlt=80&cdv=1&pid=Local"
  },
  {
    "name": "Canning Madrasi Clinic",
    "address": "Sanjaypally, Canning, South 24 Parganas, West Bengal 743329",
    "phone": "Canning Madrasi Clinic",
    "hours": null,
    "image_url": "https://www.bing.com/maps/geoplat/REST/v1/Imagery/Map/RoadVibrant?ms=92,112&key=AnTcaqBi2ypp0xI-OZNi4W_ik2KhjgpqioTAtXLC8GzkMBQRMlyxvxyTnd5b73im&c=en-US&ur=in&da=n&logo=n&fmt=png&od=1&shading=hill&pp=22.310402,88.683334;dfp"
  },
  {
    "name": "Dr. Samik Hazra",
    "address": "Canning, Ghosh Para, South 24 Parganas, West Bengal",
    "phone": "Dr. Samik Hazra",
    "hours": "Closed· Opens Wed 15:00",
    "image_url": null
  },
  {
    "name": "Sheefa Clinic",
    "address": "Taharul Molla, Chakdahat, Magrahat\\ii, Magrahat Road, Magrahat, South 24 Parganas, West Bengal 743609",
    "phone": "Sheefa Clinic",
    "hours": null,
    "image_url": "https://www.bing.com/maps/geoplat/REST/v1/Imagery/Map/RoadVibrant?ms=92,112&key=AnTcaqBi2ypp0xI-OZNi4W_ik2KhjgpqioTAtXLC8GzkMBQRMlyxvxyTnd5b73im&c=en-US&ur=in&da=n&logo=n&fmt=png&od=1&shading=hill&pp=22.259642,88.333397;dfp"
  },
  {
    "name": "Omkar Polyclinic and Diagnostic Centre",
    "address": "Bakultala, Jagadish Pur, Baruipur, Baruipur Amtala Road, Kolkata, South 24 Parganas, West Bengal 700145",
    "phone": "Omkar Polyclinic and Diagnostic Centre",
    "hours": null,
    "image_url": "https://www.bing.com/maps/geoplat/REST/v1/Imagery/Map/RoadVibrant?ms=92,112&key=AnTcaqBi2ypp0xI-OZNi4W_ik2KhjgpqioTAtXLC8GzkMBQRMlyxvxyTnd5b73im&c=en-US&ur=in&da=n&logo=n&fmt=png&od=1&shading=hill&pp=22.371214,88.409462;dfp"
  },
  {
    "name": "Shibani Health Care and Diagnostic Centre",
    "address": "361, Subuddhipur Middle Road, Baruipur, Kulpi Road, Kolkata, South 24 Parganas, West Bengal 700144",
    "phone": "Shibani Health Care and Diagnostic Centre",
    "hours": null,
    "image_url": "https://www.bing.com/maps/geoplat/REST/v1/Imagery/Map/RoadVibrant?ms=92,112&key=AnTcaqBi2ypp0xI-OZNi4W_ik2KhjgpqioTAtXLC8GzkMBQRMlyxvxyTnd5b73im&c=en-US&ur=in&da=n&logo=n&fmt=png&od=1&shading=hill&pp=22.361612,88.43158;dfp"
  },
  {
    "name": "Satyajit Diagnostic Centre",
    "address": "Ns Bose Road, Jaynagar Mazilpur, Jaynagar I, South 24 Parganas, West Bengal 743337",
    "phone": "Satyajit Diagnostic Centre",
    "hours": null,
    "image_url": null
  },
  {
    "name": "Khan Ayurvedic and Unani Clinic",
    "address": "Dehimedanmolla, Dakshin Gobindapur, Baruipur, South 24 Parganas, West Bengal 700145",
    "phone": "Khan Ayurvedic and Unani Clinic",
    "hours": null,
    "image_url": "https://www.bing.com/maps/geoplat/REST/v1/Imagery/Map/RoadVibrant?ms=92,112&key=AnTcaqBi2ypp0xI-OZNi4W_ik2KhjgpqioTAtXLC8GzkMBQRMlyxvxyTnd5b73im&c=en-US&ur=in&da=n&logo=n&fmt=png&od=1&shading=hill&pp=22.372057,88.412117;dfp"
  },
  {
    "name": "Dr Dipuranjan Bairagi Clinic",
    "address": "Sh1, Dakshin Barasat, Jaynagar-I, West Bengal 743372",
    "phone": "Dr Dipuranjan Bairagi Clinic",
    "hours": null,
    "image_url": "https://www.bing.com/maps/geoplat/REST/v1/Imagery/Map/RoadVibrant?ms=92,112&key=AnTcaqBi2ypp0xI-OZNi4W_ik2KhjgpqioTAtXLC8GzkMBQRMlyxvxyTnd5b73im&c=en-US&ur=in&da=n&logo=n&fmt=png&od=1&shading=hill&pp=22.226578,88.446655;dfp"
  },
  {
    "name": "Dr. Abhiruchi Chatterjee",
    "address": "Sh1, Dakshin Barasat, Jaynagar-I, West Bengal 743372",
    "phone": "Dr. Abhiruchi Chatterjee",
    "hours": "Closed· Opens Sep 28 at 12:15",
    "image_url": null
  },
  {
    "name": "Disha Ayurved Clinic",
    "address": "12, Disha, Beniabow, Kalikapur Station Road, Sonarpur, South 24 Parganas, West Bengal 743613",
    "phone": "Disha Ayurved Clinic",
    "hours": null,
    "image_url": "https://www.bing.com/maps/geoplat/REST/v1/Imagery/Map/RoadVibrant?ms=92,112&key=AnTcaqBi2ypp0xI-OZNi4W_ik2KhjgpqioTAtXLC8GzkMBQRMlyxvxyTnd5b73im&c=en-US&ur=in&da=n&logo=n&fmt=png&od=1&shading=hill&pp=22.417177,88.474083;dfp"
  },
  {
    "name": "Well Care Clinic",
    "address": "Baruipur-Kulpi Road, Near Sristi Coaching Center, Dakshin Barasat, Kolkata, West Bengal 743372",
    "phone": "Well Care Clinic",
    "hours": null,
    "image_url": "https://www.bing.com/maps/geoplat/REST/v1/Imagery/Map/RoadVibrant?ms=92,112&key=AnTcaqBi2ypp0xI-OZNi4W_ik2KhjgpqioTAtXLC8GzkMBQRMlyxvxyTnd5b73im&c=en-US&ur=in&da=n&logo=n&fmt=png&od=1&shading=hill&pp=22.224527,88.449715;dfp"
  },
  {
    "name": "Asma Clinic",
    "address": "Usthi, Maniktala, Chakhaturia, Sherpur, South 24 Parganas, West Bengal 743503",
    "phone": "Asma Clinic",
    "hours": null,
    "image_url": "https://www.bing.com/maps/geoplat/REST/v1/Imagery/Map/RoadVibrant?ms=92,112&key=AnTcaqBi2ypp0xI-OZNi4W_ik2KhjgpqioTAtXLC8GzkMBQRMlyxvxyTnd5b73im&c=en-US&ur=in&da=n&logo=n&fmt=png&od=1&shading=hill&pp=22.31896,88.267509;dfp"
  },
  {
    "name": "New Satabdi Diagnostic Centre",
    "address": "24 Parganas, NEW Petrol Pump, South 24 Parganas, West Bengal 743329",
    "phone": "New Satabdi Diagnostic Centre",
    "hours": null,
    "image_url": null
  }
]