[
  {
    "name": "Dr. Shahnawaz Ahmad",
    "address": "Munawarabad Nowpora Link Road, Opposite To Smd Institute Srinagar, Srinagar, Jammu and Kashmir (State…",
    "phone": "Dr. Shahnawaz Ahmad",
    "hours": "Closed· Opens 16:00",
    "image_url": "/th?id=OLC.aq8ydWQsJ2C7Iw480x360&w=92&h=112&c=8&rs=1&qlt=80&cdv=1&pid=Local"
  },
  {
    "name": "Dr Shahnawaz B Kaloo",
    "address": "Max Medcentre, Karan Nagar Gole Market Rd, Karan Nagar, Srinagar",
    "phone": "Dr Shahnawaz B Kaloo",
    "hours": null,
    "image_url": "https://www.bing.com/maps/geoplat/REST/v1/Imagery/Map/RoadVibrant?ms=92,112&key=AnTcaqBi2ypp0xI-OZNi4W_ik2KhjgpqioTAtXLC8GzkMBQRMlyxvxyTnd5b73im&c=en-US&ur=in&da=n&logo=n&fmt=png&od=1&shading=hill&pp=34.081017,74.799271;dfp"
  },
  {
    "name": "Dr Khurshid Ahmad Lone",
    "address": "Ganderbal-Lar Rd, New Colony Batmaloo, Watlar, Srinagar",
    "phone": "Dr Khurshid Ahmad Lone",
    "hours": null,
    "image_url": "https://www.bing.com/maps/geoplat/REST/v1/Imagery/Map/RoadVibrant?ms=92,112&key=AnTcaqBi2ypp0xI-OZNi4W_ik2KhjgpqioTAtXLC8GzkMBQRMlyxvxyTnd5b73im&c=en-US&ur=in&da=n&logo=n&fmt=png&od=1&shading=hill&pp=34.072659,74.792633;dfp"
  },
  {
    "name": "Dr. Arshad Rashid- General & Laproscopic Surgeon",
    "address": "New City Hospital, Tengpora, Srinagar 190014",
    "phone": "Dr. Arshad Rashid- General & Laproscopic Surgeon",
    "hours": "Closed· Opens 16:30",
    "image_url": "https://www.bing.com/maps/geoplat/REST/v1/Imagery/Map/RoadVibrant?ms=92,134&key=AnTcaqBi2ypp0xI-OZNi4W_ik2KhjgpqioTAtXLC8GzkMBQRMlyxvxyTnd5b73im&c=en-US&ur=in&da=n&logo=n&fmt=png&od=1&shading=hill&pp=34.061234,74.782104;dfp"
  },
  {
    "name": "Dr Shah Naveed - Cancer Surgeon",
    "address": "Paras Hospitals, Durganag, Dalgate, Srinagar 190001",
    "phone": "Dr Shah Naveed - Cancer Surgeon",
    "hours": "Open· Closes 17:00",
    "image_url": "/th?id=OLC.W9uU99S1o91psw480x360&w=92&h=134&c=8&rs=1&qlt=80&cdv=1&pid=Local"
  },
  {
    "name": "Dr. Syed Asrar Ahmad Qadri | Associate Director | CVTS - Paras Health",
    "address": "Durganag, Dalgate Bridge, Karapura, Durgjan, Srinagar",
    "phone": "Dr. Syed Asrar Ahmad Qadri | Associate Director | CVTS - Paras Health",
    "hours": null,
    "image_url": "https://www.bing.com/maps/geoplat/REST/v1/Imagery/Map/RoadVibrant?ms=92,112&key=AnTcaqBi2ypp0xI-OZNi4W_ik2KhjgpqioTAtXLC8GzkMBQRMlyxvxyTnd5b73im&c=en-US&ur=in&da=n&logo=n&fmt=png&od=1&shading=hill&pp=34.082615,74.83493;dfp"
  },
  {
    "name": "Dr. Ajaz Majeed",
    "address": "Orthopaedic Speciality Clinic H.No.3, Wing B, Gole Market, Karan Nagar, Near Modern Sweets, Srinagar 1…",
    "phone": "Dr. Ajaz Majeed",
    "hours": "Closed· Opens 16:30",
    "image_url": null
  },
  {
    "name": "DR. Obaid Khursheed",
    "address": "Opposite Govt. Girls HR. SEC, Radio Colony, Near RAJ Bagh Police Station -190008, Srinagar",
    "phone": "DR. Obaid Khursheed",
    "hours": null,
    "image_url": "https://www.bing.com/maps/geoplat/REST/v1/Imagery/Map/RoadVibrant?ms=92,112&key=AnTcaqBi2ypp0xI-OZNi4W_ik2KhjgpqioTAtXLC8GzkMBQRMlyxvxyTnd5b73im&c=en-US&ur=in&da=n&logo=n&fmt=png&od=1&shading=hill&pp=34.072987,74.79998;dfp"
  },
  {
    "name": "Dr Ajaz Kariem khan - Arthritis & Rheumatology Clinic",
    "address": "Prime Clinics Gole Market. Karan Nagar, Srinagar 190010",
    "phone": "Dr Ajaz Kariem khan - Arthritis & Rheumatology Clinic",
    "hours": "Open· Closes 16:00",
    "image_url": null
  },
  {
    "name": "Khyberinstitue",
    "address": "Bishember Nagar Road, Srinagar South 190003",
    "phone": "Khyberinstitue",
    "hours": null,
    "image_url": null
  },
  {
    "name": "Dr. Mohammad Maqbool Sohil | Associate Director | Interventional Cardiology | Paras Hospitals",
    "address": "Durganag, Dalgate Bridge, Karapura, Durgjan, Srinagar",
    "phone": "Dr. Mohammad Maqbool Sohil | Associate Director | Interventional Cardiology | Paras Hospitals",
    "hours": null,
    "image_url": "https://www.bing.com/maps/geoplat/REST/v1/Imagery/Map/RoadVibrant?ms=92,112&key=AnTcaqBi2ypp0xI-OZNi4W_ik2KhjgpqioTAtXLC8GzkMBQRMlyxvxyTnd5b73im&c=en-US&ur=in&da=n&logo=n&fmt=png&od=1&shading=hill&pp=34.082615,74.83493;dfp"
  },
  {
    "name": "Dr. Mukhtar Masoodi- Rheumatologist",
    "address": "Rheumax Arthritis and Rheumatology Center, Ground Floor, Shah Complex, Near Panaash Coaching Center, …",
    "phone": "Dr. Mukhtar Masoodi- Rheumatologist",
    "hours": "Closed· Opens Wed 16:00",
    "image_url": null
  },
  {
    "name": "Dr Ghulam Hassan",
    "address": "Tengpora Bemina Bypass Road, Tengpora, Srinagar, Jammu and Kashmir (State) 190009",
    "phone": "Dr Ghulam Hassan",
    "hours": null,
    "image_url": "https://www.bing.com/maps/geoplat/REST/v1/Imagery/Map/RoadVibrant?ms=92,112&key=AnTcaqBi2ypp0xI-OZNi4W_ik2KhjgpqioTAtXLC8GzkMBQRMlyxvxyTnd5b73im&c=en-US&ur=in&da=n&logo=n&fmt=png&od=1&shading=hill&pp=34.061157,74.78437;dfp"
  },
  {
    "name": "Nulife Clinic",
    "address": "Main Road, Govt Degree College Jammu and Kashmir, Bemina, Srinagar",
    "phone": "Nulife Clinic",
    "hours": "Open· Closes 19:00",
    "image_url": null
  },
  {
    "name": "Vardaan IVF Clinic",
    "address": "at jk Sonography, 2, Magarmal Bagh Rd, Shergarhi, Srinagar",
    "phone": "Vardaan IVF Clinic",
    "hours": null,
    "image_url": null
  },
  {
    "name": "DR.Abid's Sexology Clinic",
    "address": "77, Ibrahim Sector Bemina, Bemina Housing Colony, Opp Police Public School Gate, Srinagar, Srinagar 190018",
    "phone": "DR.Abid's Sexology Clinic",
    "hours": "Closed· Opens tomorrow 00:00",
    "image_url": "https://www.bing.com/maps/geoplat/REST/v1/Imagery/Map/RoadVibrant?ms=92,134&key=AnTcaqBi2ypp0xI-OZNi4W_ik2KhjgpqioTAtXLC8GzkMBQRMlyxvxyTnd5b73im&c=en-US&ur=in&da=n&logo=n&fmt=png&od=1&shading=hill&pp=34.0742,74.767914;dfp"
  },
  {
    "name": "Imprimis IVF & Fertility Centre - Srinagar",
    "address": "Second Floor, S R Plaza, Hyderpora Flyover, Hyderpora, Srinagar, Jammu and Kashmir 190014, Srinagar 190014",
    "phone": "Imprimis IVF & Fertility Centre - Srinagar",
    "hours": "Open· Closes 17:00",
    "image_url": null
  },
  {
    "name": "Dr. Qadri's Hematology Center and Clinical Laboratory",
    "address": "Shaheen Plaza, Karan Nagar, Srinagar 190010",
    "phone": "Dr. Qadri's Hematology Center and Clinical Laboratory",
    "hours": null,
    "image_url": null
  }
]