[
  {
    "name": "Dr. Md Danish Ansari- Ayush",
    "address": "Md Danish Ansari Clinic, Pyare Pati Road, Near By Pass, Sultanpur, Uttar Pradesh 228001",
    "phone": "Dr. Md Danish Ansari- Ayush",
    "hours": "Open· Closes 14:00",
    "image_url": "https://www.bing.com/maps/geoplat/REST/v1/Imagery/Map/RoadVibrant?ms=92,134&key=AnTcaqBi2ypp0xI-OZNi4W_ik2KhjgpqioTAtXLC8GzkMBQRMlyxvxyTnd5b73im&c=en-US&ur=in&da=n&logo=n&fmt=png&od=1&shading=hill&pp=26.260981,82.07151;dfp"
  },
  {
    "name": "Bionica Gastro And Liver Clinic -Dr Divya Singh",
    "address": "Supermarket, 409, Civil Line Number 2, Sultanpur, Uttar Pradesh",
    "phone": "Bionica Gastro And Liver Clinic -Dr Divya Singh",
    "hours": null,
    "image_url": "https://www.bing.com/maps/geoplat/REST/v1/Imagery/Map/RoadVibrant?ms=92,112&key=AnTcaqBi2ypp0xI-OZNi4W_ik2KhjgpqioTAtXLC8GzkMBQRMlyxvxyTnd5b73im&c=en-US&ur=in&da=n&logo=n&fmt=png&od=1&shading=hill&pp=26.2645,82.0728;dfp"
  },
  {
    "name": "Dr Arshi Khan Clinic",
    "address": "Bus Adda Road, New Sabji Mandi, Sultanpur, Uttar Pradesh 228001",
    "phone": "Dr Arshi Khan Clinic",
    "hours": null,
    "image_url": "https://www.bing.com/maps/geoplat/REST/v1/Imagery/Map/RoadVibrant?ms=92,112&key=AnTcaqBi2ypp0xI-OZNi4W_ik2KhjgpqioTAtXLC8GzkMBQRMlyxvxyTnd5b73im&c=en-US&ur=in&da=n&logo=n&fmt=png&od=1&shading=hill&pp=26.2619,82.069832;dfp"
  },
  {
    "name": "Dr. Mayank Srivastava Clinic",
    "address": "Infront of Ceremony Point, 1, PWD Office Rd, Behind Sankat Mochan Hanuman Mandir, Civil Line, Sultanpur…",
    "phone": "Dr. Mayank Srivastava Clinic",
    "hours": null,
    "image_url": "https://www.bing.com/maps/geoplat/REST/v1/Imagery/Map/RoadVibrant?ms=92,112&key=AnTcaqBi2ypp0xI-OZNi4W_ik2KhjgpqioTAtXLC8GzkMBQRMlyxvxyTnd5b73im&c=en-US&ur=in&da=n&logo=n&fmt=png&od=1&shading=hill&pp=26.267321,82.07531;dfp"
  },
  {
    "name": "Dr Rajiv Srivastav",
    "address": "1631, Barhyabeer, Civil Lines, Sultanpur, Uttar Pradesh, Uttar Pradesh 228001",
    "phone": "Dr Rajiv Srivastav",
    "hours": null,
    "image_url": "https://www.bing.com/maps/geoplat/REST/v1/Imagery/Map/RoadVibrant?ms=92,112&key=AnTcaqBi2ypp0xI-OZNi4W_ik2KhjgpqioTAtXLC8GzkMBQRMlyxvxyTnd5b73im&c=en-US&ur=in&da=n&logo=n&fmt=png&od=1&shading=hill&pp=26.27,82.07;dfp"
  },
  {
    "name": "Dr Umesh Kumar Gupta Clinic",
    "address": "Lucknow Naka Road, Dariyapur, Sultanpur, Uttar Pradesh 228001",
    "phone": "Dr Umesh Kumar Gupta Clinic",
    "hours": null,
    "image_url": "https://www.bing.com/maps/geoplat/REST/v1/Imagery/Map/RoadVibrant?ms=92,112&key=AnTcaqBi2ypp0xI-OZNi4W_ik2KhjgpqioTAtXLC8GzkMBQRMlyxvxyTnd5b73im&c=en-US&ur=in&da=n&logo=n&fmt=png&od=1&shading=hill&pp=26.253487,82.070251;dfp"
  },
  {
    "name": "Dr Rajeev Shree Vastava",
    "address": "Ground Floor, GIC Field Road, Kurwar Naka, Badhaiyabeer, Civil Line, Sultanpur, Uttar Pradesh",
    "phone": "Dr Rajeev Shree Vastava",
    "hours": null,
    "image_url": "https://www.bing.com/maps/geoplat/REST/v1/Imagery/Map/RoadVibrant?ms=92,112&key=AnTcaqBi2ypp0xI-OZNi4W_ik2KhjgpqioTAtXLC8GzkMBQRMlyxvxyTnd5b73im&c=en-US&ur=in&da=n&logo=n&fmt=png&od=1&shading=hill&pp=26.267866,82.070038;dfp"
  },
  {
    "name": "Dr S K Pathak",
    "address": "Sirwara Road, Paltan Bazar, Sultanpur, Uttar Pradesh 228001",
    "phone": "Dr S K Pathak",
    "hours": null,
    "image_url": "https://www.bing.com/maps/geoplat/REST/v1/Imagery/Map/RoadVibrant?ms=92,112&key=AnTcaqBi2ypp0xI-OZNi4W_ik2KhjgpqioTAtXLC8GzkMBQRMlyxvxyTnd5b73im&c=en-US&ur=in&da=n&logo=n&fmt=png&od=1&shading=hill&pp=26.261187,82.07563;dfp"
  },
  {
    "name": "Dr P K SINGH",
    "address": "Piri, Vallipur, Kasba Sultanpur, Uttar Pradesh",
    "phone": "Dr P K SINGH",
    "hours": null,
    "image_url": "https://www.bing.com/maps/geoplat/REST/v1/Imagery/Map/RoadVibrant?ms=92,112&key=AnTcaqBi2ypp0xI-OZNi4W_ik2KhjgpqioTAtXLC8GzkMBQRMlyxvxyTnd5b73im&c=en-US&ur=in&da=n&logo=n&fmt=png&od=1&shading=hill&pp=26.280237,82.076599;dfp"
  },
  {
    "name": "Dr Amit Kaushal Naak Kaan Gala Specialist",
    "address": "Sirwara Road, Paltan Bazar, Sultanpur, Uttar Pradesh 228001",
    "phone": "Dr Amit Kaushal Naak Kaan Gala Specialist",
    "hours": null,
    "image_url": "https://www.bing.com/maps/geoplat/REST/v1/Imagery/Map/RoadVibrant?ms=92,112&key=AnTcaqBi2ypp0xI-OZNi4W_ik2KhjgpqioTAtXLC8GzkMBQRMlyxvxyTnd5b73im&c=en-US&ur=in&da=n&logo=n&fmt=png&od=1&shading=hill&pp=26.261106,82.075653;dfp"
  },
  {
    "name": "Dr Vikash Singh Clinic",
    "address": "Karaudiya Road, Kurwar Maka, Sultanpur, Uttar Pradesh 228001",
    "phone": "Dr Vikash Singh Clinic",
    "hours": null,
    "image_url": "https://www.bing.com/maps/geoplat/REST/v1/Imagery/Map/RoadVibrant?ms=92,112&key=AnTcaqBi2ypp0xI-OZNi4W_ik2KhjgpqioTAtXLC8GzkMBQRMlyxvxyTnd5b73im&c=en-US&ur=in&da=n&logo=n&fmt=png&od=1&shading=hill&pp=26.265875,82.068382;dfp"
  },
  {
    "name": "Dr R R Mishra Clinic",
    "address": "Sirwara Road Normal Compound, Sultanpur, Uttar Pradesh 228001",
    "phone": "Dr R R Mishra Clinic",
    "hours": null,
    "image_url": "https://www.bing.com/maps/geoplat/REST/v1/Imagery/Map/RoadVibrant?ms=92,112&key=AnTcaqBi2ypp0xI-OZNi4W_ik2KhjgpqioTAtXLC8GzkMBQRMlyxvxyTnd5b73im&c=en-US&ur=in&da=n&logo=n&fmt=png&od=1&shading=hill&pp=26.260981,82.075684;dfp"
  },
  {
    "name": "Dr Baranwal Clinic",
    "address": "Kurwar Road, Karaundiya, Sultanpur, Uttar Pradesh 228001",
    "phone": "Dr Baranwal Clinic",
    "hours": null,
    "image_url": "https://www.bing.com/maps/geoplat/REST/v1/Imagery/Map/RoadVibrant?ms=92,112&key=AnTcaqBi2ypp0xI-OZNi4W_ik2KhjgpqioTAtXLC8GzkMBQRMlyxvxyTnd5b73im&c=en-US&ur=in&da=n&logo=n&fmt=png&od=1&shading=hill&pp=26.271292,82.064499;dfp"
  },
  {
    "name": "Sultanpur Hospital And Ortho Center",
    "address": "1149 Civil Lines Gola Ghat, Sultanpur, Uttar Pradesh 228001",
    "phone": "Sultanpur Hospital And Ortho Center",
    "hours": null,
    "image_url": "https://www.bing.com/maps/geoplat/REST/v1/Imagery/Map/RoadVibrant?ms=92,112&key=AnTcaqBi2ypp0xI-OZNi4W_ik2KhjgpqioTAtXLC8GzkMBQRMlyxvxyTnd5b73im&c=en-US&ur=in&da=n&logo=n&fmt=png&od=1&shading=hill&pp=26.26759,82.075203;dfp"
  },
  {
    "name": "Indira Ivf Hospital",
    "address": "Gola Ghat 1st Floor, Above Icici Bank, Near Civil Lines Bus Stand, Badhaiyabeer, Civil Lines, Sultanpur 228001",
    "phone": "Indira Ivf Hospital",
    "hours": "Open· Closes 18:00",
    "image_url": "https://www.bing.com/maps/geoplat/REST/v1/Imagery/Map/RoadVibrant?ms=92,134&key=AnTcaqBi2ypp0xI-OZNi4W_ik2KhjgpqioTAtXLC8GzkMBQRMlyxvxyTnd5b73im&c=en-US&ur=in&da=n&logo=n&fmt=png&od=1&shading=hill&pp=26.267111,82.075394;dfp"
  },
  {
    "name": "Jaiswal Homio Clinic",
    "address": "Diyara Bazar Sultanpur, Jaisinghpur, Uttar Pradesh 228132",
    "phone": "Jaiswal Homio Clinic",
    "hours": null,
    "image_url": null
  },
  {
    "name": "Skin Glow Clinic",
    "address": "Dhawan Tower, Near Khoa Mandi, Gandhi Ashram ke Samne, Sultanpur, Uttar Pradesh 228001",
    "phone": "Skin Glow Clinic",
    "hours": "Open· Closes 15:00",
    "image_url": null
  },
  {
    "name": "Dr Kp Singh Eye Hospital",
    "address": "Dr.k.p.Singh eye Hospital, Gola Ghat, Near Peepal Tree, Sultanpur, Uttar Pradesh 228001",
    "phone": "Dr Kp Singh Eye Hospital",
    "hours": null,
    "image_url": "https://www.bing.com/maps/geoplat/REST/v1/Imagery/Map/RoadVibrant?ms=92,112&key=AnTcaqBi2ypp0xI-OZNi4W_ik2KhjgpqioTAtXLC8GzkMBQRMlyxvxyTnd5b73im&c=en-US&ur=in&da=n&logo=n&fmt=png&od=1&shading=hill&pp=26.2645,82.0728;dfp"
  }
]