[
  {
    "name": "Dr. Maharshi Ranjan Sahoo",
    "address": "Infront of DHH Sundargarh, Sankara, Sundargarh, Odisha, India, 770002, Sundargarh, Madhya Pradesh 7…",
    "phone": "Dr. Maharshi Ranjan Sahoo",
    "hours": "Open· Closes 18:00",
    "image_url": "/th?id=OLC.OGEw8WRquVQyAQ480x360&w=92&h=134&c=8&rs=1&qlt=80&cdv=1&pid=Local"
  },
  {
    "name": "Patel Diagnostic Centre",
    "address": "BT Rd, Sundargarh, Odisha",
    "phone": "Patel Diagnostic Centre",
    "hours": null,
    "image_url": "https://www.bing.com/maps/geoplat/REST/v1/Imagery/Map/RoadVibrant?ms=92,112&key=AnTcaqBi2ypp0xI-OZNi4W_ik2KhjgpqioTAtXLC8GzkMBQRMlyxvxyTnd5b73im&c=en-US&ur=in&da=n&logo=n&fmt=png&od=1&shading=hill&pp=22.119801,84.037399;dfp"
  },
  {
    "name": "Dr. Deepak Kumar Pradhan",
    "address": "Besides Shiva Multiplex, Orissa",
    "phone": "Dr. Deepak Kumar Pradhan",
    "hours": "Closed· Opens Sep 29 at 10:00",
    "image_url": "https://www.bing.com/maps/geoplat/REST/v1/Imagery/Map/RoadVibrant?ms=92,112&key=AnTcaqBi2ypp0xI-OZNi4W_ik2KhjgpqioTAtXLC8GzkMBQRMlyxvxyTnd5b73im&c=en-US&ur=in&da=n&logo=n&fmt=png&od=1&shading=hill&pp=21.870399,84.025299;dfp"
  },
  {
    "name": "Dr G N Patel Clinic",
    "address": "Sh10, Purani Basti, Jharsuguda, Odisha 768201",
    "phone": "Dr G N Patel Clinic",
    "hours": null,
    "image_url": "https://www.bing.com/maps/geoplat/REST/v1/Imagery/Map/RoadVibrant?ms=92,112&key=AnTcaqBi2ypp0xI-OZNi4W_ik2KhjgpqioTAtXLC8GzkMBQRMlyxvxyTnd5b73im&c=en-US&ur=in&da=n&logo=n&fmt=png&od=1&shading=hill&pp=21.862705,84.021004;dfp"
  }
]