[
  {
    "name": "Dr Sujit Kumar",
    "address": "Sh66, Supaul, Bihar 852131",
    "phone": "Dr Sujit Kumar",
    "hours": null,
    "image_url": "https://www.bing.com/maps/geoplat/REST/v1/Imagery/Map/RoadVibrant?ms=92,112&key=AnTcaqBi2ypp0xI-OZNi4W_ik2KhjgpqioTAtXLC8GzkMBQRMlyxvxyTnd5b73im&c=en-US&ur=in&da=n&logo=n&fmt=png&od=1&shading=hill&pp=26.115099,86.602013;dfp"
  },
  {
    "name": "Dr Shanti Bhushan Clinic",
    "address": "Sh76, Supaul, Bihar 852131",
    "phone": "Dr Shanti Bhushan Clinic",
    "hours": null,
    "image_url": "https://www.bing.com/maps/geoplat/REST/v1/Imagery/Map/RoadVibrant?ms=92,112&key=AnTcaqBi2ypp0xI-OZNi4W_ik2KhjgpqioTAtXLC8GzkMBQRMlyxvxyTnd5b73im&c=en-US&ur=in&da=n&logo=n&fmt=png&od=1&shading=hill&pp=26.12365,86.603729;dfp"
  },
  {
    "name": "Dr Lal Pathak Clinic",
    "address": "12, Mahavir Chowk, Sh66, Sapaul, Supaul, Bihar 853121",
    "phone": "Dr Lal Pathak Clinic",
    "hours": null,
    "image_url": "https://www.bing.com/maps/geoplat/REST/v1/Imagery/Map/RoadVibrant?ms=92,112&key=AnTcaqBi2ypp0xI-OZNi4W_ik2KhjgpqioTAtXLC8GzkMBQRMlyxvxyTnd5b73im&c=en-US&ur=in&da=n&logo=n&fmt=png&od=1&shading=hill&pp=26.115496,86.595207;dfp"
  },
  {
    "name": "Dr V R Das Clinic",
    "address": "11, Maricha Road, Sapaul, Supaul, Bihar 853121",
    "phone": "Dr V R Das Clinic",
    "hours": null,
    "image_url": "https://www.bing.com/maps/geoplat/REST/v1/Imagery/Map/RoadVibrant?ms=92,112&key=AnTcaqBi2ypp0xI-OZNi4W_ik2KhjgpqioTAtXLC8GzkMBQRMlyxvxyTnd5b73im&c=en-US&ur=in&da=n&logo=n&fmt=png&od=1&shading=hill&pp=26.117662,86.598068;dfp"
  },
  {
    "name": "Dr V K Clinic Centre",
    "address": "Sh-66, Supaul 852131",
    "phone": "Dr V K Clinic Centre",
    "hours": null,
    "image_url": "https://www.bing.com/maps/geoplat/REST/v1/Imagery/Map/RoadVibrant?ms=92,112&key=AnTcaqBi2ypp0xI-OZNi4W_ik2KhjgpqioTAtXLC8GzkMBQRMlyxvxyTnd5b73im&c=en-US&ur=in&da=n&logo=n&fmt=png&od=1&shading=hill&pp=26.112286,86.592392;dfp"
  },
  {
    "name": "Dr R K Yadab Clinic",
    "address": "Lohia Nagar Chowk, Supaul, Bihar 852131",
    "phone": "Dr R K Yadab Clinic",
    "hours": null,
    "image_url": "https://www.bing.com/maps/geoplat/REST/v1/Imagery/Map/RoadVibrant?ms=92,112&key=AnTcaqBi2ypp0xI-OZNi4W_ik2KhjgpqioTAtXLC8GzkMBQRMlyxvxyTnd5b73im&c=en-US&ur=in&da=n&logo=n&fmt=png&od=1&shading=hill&pp=26.122585,86.602165;dfp"
  },
  {
    "name": "Vikas Kumar",
    "address": "Bus Stand, Sh76, Supaul, Bihar 852131, India, Supaul, Bihar, Bihar 852131",
    "phone": "Vikas Kumar",
    "hours": null,
    "image_url": "https://www.bing.com/maps/geoplat/REST/v1/Imagery/Map/RoadVibrant?ms=92,112&key=AnTcaqBi2ypp0xI-OZNi4W_ik2KhjgpqioTAtXLC8GzkMBQRMlyxvxyTnd5b73im&c=en-US&ur=in&da=n&logo=n&fmt=png&od=1&shading=hill&pp=26.158354,86.652832;dfp"
  },
  {
    "name": "Vanya Health Center.",
    "address": "Opposite Degree College Supaul / Kishanpur Road, Supaul, Bihar",
    "phone": "Vanya Health Center.",
    "hours": null,
    "image_url": null
  },
  {
    "name": "Dr. Vinay Kumar",
    "address": "Harari Baskhora, Supaul, Bihar 847402",
    "phone": "Dr. Vinay Kumar",
    "hours": "OpenÂ· Closes 13:00",
    "image_url": "https://www.bing.com/maps/geoplat/REST/v1/Imagery/Map/RoadVibrant?ms=92,134&key=AnTcaqBi2ypp0xI-OZNi4W_ik2KhjgpqioTAtXLC8GzkMBQRMlyxvxyTnd5b73im&c=en-US&ur=in&da=n&logo=n&fmt=png&od=1&shading=hill&pp=26.261309,86.458855;dfp"
  },
  {
    "name": "Paswan Clinic",
    "address": "Ward No \\ 14, Kishori Bhawan, Thadhi, Ladania, Khajedih, Madhubani, Bihar 847232",
    "phone": "Paswan Clinic",
    "hours": null,
    "image_url": "https://www.bing.com/maps/geoplat/REST/v1/Imagery/Map/RoadVibrant?ms=92,112&key=AnTcaqBi2ypp0xI-OZNi4W_ik2KhjgpqioTAtXLC8GzkMBQRMlyxvxyTnd5b73im&c=en-US&ur=in&da=n&logo=n&fmt=png&od=1&shading=hill&pp=26.112432,86.592552;dfp"
  },
  {
    "name": "Dr D K Gupta Clinic",
    "address": "Nh-106, Supaul, Bihar 852218",
    "phone": "Dr D K Gupta Clinic",
    "hours": null,
    "image_url": "https://www.bing.com/maps/geoplat/REST/v1/Imagery/Map/RoadVibrant?ms=92,112&key=AnTcaqBi2ypp0xI-OZNi4W_ik2KhjgpqioTAtXLC8GzkMBQRMlyxvxyTnd5b73im&c=en-US&ur=in&da=n&logo=n&fmt=png&od=1&shading=hill&pp=26.16111,86.797638;dfp"
  },
  {
    "name": "Vimla Medical Diagnostic Centre",
    "address": "Ward No 06, Shatrughan Sharma, Tarave, Gamhariya, Sh66, Madhepura, Bihar 852108",
    "phone": "Vimla Medical Diagnostic Centre",
    "hours": null,
    "image_url": "https://www.bing.com/maps/geoplat/REST/v1/Imagery/Map/RoadVibrant?ms=92,112&key=AnTcaqBi2ypp0xI-OZNi4W_ik2KhjgpqioTAtXLC8GzkMBQRMlyxvxyTnd5b73im&c=en-US&ur=in&da=n&logo=n&fmt=png&od=1&shading=hill&pp=26.112555,86.592697;dfp"
  },
  {
    "name": "Abhinav X-Ray",
    "address": "Abhinav X-RAY Hospital Chowk, Benipatti, Madhubani, Bihar 847223",
    "phone": "Abhinav X-Ray",
    "hours": null,
    "image_url": "https://www.bing.com/maps/geoplat/REST/v1/Imagery/Map/RoadVibrant?ms=92,112&key=AnTcaqBi2ypp0xI-OZNi4W_ik2KhjgpqioTAtXLC8GzkMBQRMlyxvxyTnd5b73im&c=en-US&ur=in&da=n&logo=n&fmt=png&od=1&shading=hill&pp=26.11569,86.596634;dfp"
  },
  {
    "name": "Dr Jagannath Mishra Inter College",
    "address": "Sh66, Supaul, Bihar 852131",
    "phone": "Dr Jagannath Mishra Inter College",
    "hours": null,
    "image_url": "https://www.bing.com/maps/geoplat/REST/v1/Imagery/Map/RoadVibrant?ms=92,112&key=AnTcaqBi2ypp0xI-OZNi4W_ik2KhjgpqioTAtXLC8GzkMBQRMlyxvxyTnd5b73im&c=en-US&ur=in&da=n&logo=n&fmt=png&od=1&shading=hill&pp=26.094889,86.576988;dfp"
  },
  {
    "name": "Dr Shabana Clinic",
    "address": "Nh106, Pipra, Bihar 852218",
    "phone": "Dr Shabana Clinic",
    "hours": null,
    "image_url": "https://www.bing.com/maps/geoplat/REST/v1/Imagery/Map/RoadVibrant?ms=92,112&key=AnTcaqBi2ypp0xI-OZNi4W_ik2KhjgpqioTAtXLC8GzkMBQRMlyxvxyTnd5b73im&c=en-US&ur=in&da=n&logo=n&fmt=png&od=1&shading=hill&pp=26.161196,86.797462;dfp"
  }
]