[
  {
    "name": "Dr. Nilay Desai",
    "address": "Apollo Clinic Surat, Mann Complex, Anand Mahal Road, Muktanand Nagar, Adajan, Surat, Gujarat 395009",
    "phone": "Dr. Nilay Desai",
    "hours": "Closed· Opens 11:00",
    "image_url": "/th?id=OLC.7c8HkdM17aqQ9Q480x360&w=92&h=134&c=8&rs=1&qlt=80&cdv=1&pid=Local"
  },
  {
    "name": "Dr Nischal Chovatiya",
    "address": "Diabeat Clinic, Infinity Tower, Lal Darwaja Road, Surat, Gujarat, India, 395003, Gujarat 395003",
    "phone": "Dr Nischal Chovatiya",
    "hours": "Opens in 3 mins",
    "image_url": "/th?id=OLC.tFuVS5sFBfLr7w480x360&w=92&h=112&c=8&rs=1&qlt=80&cdv=1&pid=Local"
  },
  {
    "name": "Dr. Yogesh Desai",
    "address": "18, Patel Colony, Main Road, Udhna, Surat, Landmark: Behind Dena Bank, Surat 394210",
    "phone": "Dr. Yogesh Desai",
    "hours": "Closed· Opens 11:00",
    "image_url": "/th?id=OLC.GBUG6y1QJfZpeQ480x360&w=92&h=134&c=8&rs=1&qlt=80&cdv=1&pid=Local"
  },
  {
    "name": "Dr. Jimit Vadgama - Swaminarayan Diabetes, Thyroid & Hormone Clinic",
    "address": "517-518, Fifth Floor, Infinity Tower, Beside Ayurvedic College, Lal Darwaja Station Road, Surat, Gujarat 395003",
    "phone": "Dr. Jimit Vadgama - Swaminarayan Diabetes, Thyroid & Hormone Clinic",
    "hours": "Open· Closes 14:30",
    "image_url": "/th?id=OLC.GEsZxbGdtwci6g480x360&w=92&h=134&c=8&rs=1&qlt=80&cdv=1&pid=Local"
  },
  {
    "name": "Gastro Bariatric surgeon Dr Vimal Dhaduk - Laparoscopic Doctor / Top Weight Loss Surgeon / Best Hernia Surgeon",
    "address": "Param Doctor House, 6th Floor, Lal Darwaja, Station, Surat, Gujarat, Gujarat 395003",
    "phone": "Gastro Bariatric surgeon Dr Vimal Dhaduk - Laparoscopic Doctor / Top Weight Loss Surgeon / Best Hernia Surgeon",
    "hours": "Open 24 hours",
    "image_url": "/th?id=OLC.Slg3HOC80JFAmA480x360&w=92&h=134&c=8&rs=1&qlt=80&cdv=1&pid=Local"
  },
  {
    "name": "Dr. Nishant Goyal",
    "address": "Shop No 8-10, Sukum Platinum, Surat, Gujarat",
    "phone": "Dr. Nishant Goyal",
    "hours": "Open· Closes 13:00",
    "image_url": "/th?id=OLC.styTe3fJzIOSSQ480x360&w=92&h=112&c=8&rs=1&qlt=80&cdv=1&pid=Local"
  },
  {
    "name": "Shreeji Clinic - Dr.Shraddha & Dr.Nirav",
    "address": "310 -3rd Flor, Infinity Tower, Beside Aayurvedic College, Near Lal Darwaja, Surat, Gujarat",
    "phone": "Shreeji Clinic - Dr.Shraddha & Dr.Nirav",
    "hours": null,
    "image_url": null
  },
  {
    "name": "Dr. Kaushal B Patel",
    "address": "108-109 SNS Axis Building, Beside Mahavir Hospital, Nanpura, Surat, Gujarat",
    "phone": "Dr. Kaushal B Patel",
    "hours": "Closed· Opens 17:00",
    "image_url": null
  },
  {
    "name": "Shuddhi Clinic Surat",
    "address": "Shop No. 121, 122 & 123, Nathubhai Towers, Opp. Dhru Motors, Udhna, Near Motiwala Opticals, Surat, Gujarat …",
    "phone": "Shuddhi Clinic Surat",
    "hours": "Open· Closes 18:00",
    "image_url": null
  },
  {
    "name": "Dr. M.P Pandav",
    "address": "Amroli Char Rasta, Amroli, Surat, Gujarat",
    "phone": "Dr. M.P Pandav",
    "hours": "Open· Closes 13:00",
    "image_url": null
  },
  {
    "name": "Dr Siddharth M Sakhiya",
    "address": "104, 1st Floor, Param Doctor House, Lal Darwaja - Station Road, Surat",
    "phone": "Dr Siddharth M Sakhiya",
    "hours": "Open· Closes 20:00",
    "image_url": null
  },
  {
    "name": "Dr. Dinesh Gosai",
    "address": "Ayurvedic Complex, 3rd Floor, Front Of Ayurvedic College, Lal Darwaza, Landmark: Station Road, Surat, …",
    "phone": "Dr. Dinesh Gosai",
    "hours": "Open· Closes 13:00",
    "image_url": null
  },
  {
    "name": "Dr. Manoj Kumar T Pipaliya- Ayush",
    "address": "Parth Clinic, Nana Varachha, Near Umiya Mata Mandir, Landmark: Opp. Kinnary Cinema, Surat, Gujarat 394210",
    "phone": "Dr. Manoj Kumar T Pipaliya- Ayush",
    "hours": "Open· Closes 13:30",
    "image_url": null
  },
  {
    "name": "Dr. Chandrakant Kasat",
    "address": "101, Ajanta Shopping Centre, Surat, Surat 395001",
    "phone": "Dr. Chandrakant Kasat",
    "hours": "Open· Closes 13:00",
    "image_url": null
  },
  {
    "name": "Ashirwad Spine Hospital - Dr Ghanshyam Kakadiya",
    "address": "395003, Surat, GJ, India, Gujarat",
    "phone": "Ashirwad Spine Hospital - Dr Ghanshyam Kakadiya",
    "hours": null,
    "image_url": null
  },
  {
    "name": "Dr. Rushabh Mehta",
    "address": "4th Floor, Millionaire Business Park, Adajan Dn, Surat, Gujarat",
    "phone": "Dr. Rushabh Mehta",
    "hours": "Open· Closes 13:00",
    "image_url": null
  },
  {
    "name": "Dr. Pallav Parikh",
    "address": "Ayush Doctor House, 304, Lal Darwaja Station Rd, Lal Darwaja, Varachha, Gujarat 395003",
    "phone": "Dr. Pallav Parikh",
    "hours": null,
    "image_url": null
  },
  {
    "name": "Sharvi Medical Hospital",
    "address": "2nd Floor, Devi Plaza. Landmark : Opposite Shree Ram Petrol Pump Adajan, Surat, Surat 395009",
    "phone": "Sharvi Medical Hospital",
    "hours": null,
    "image_url": "https://www.bing.com/maps/geoplat/REST/v1/Imagery/Map/RoadVibrant?ms=92,112&key=AnTcaqBi2ypp0xI-OZNi4W_ik2KhjgpqioTAtXLC8GzkMBQRMlyxvxyTnd5b73im&c=en-US&ur=in&da=n&logo=n&fmt=png&od=1&shading=hill&pp=21.195807,72.797836;dfp"
  }
]