[
  {
    "name": "Dr. Siddhesh vora General & Laproscopic surgeon",
    "address": "Yugam Surgical Hospital Vitthal Press Road, Surendranagar, Gujarat 363001",
    "phone": "Dr. Siddhesh vora General & Laproscopic surgeon",
    "hours": "Open· Closes 14:00",
    "image_url": "/th?id=OLC.jAbkh%2bhVZMtQbw480x360&w=92&h=134&c=8&rs=1&qlt=80&cdv=1&pid=Local"
  },
  {
    "name": "Dr.chirag vajariya/ Akshar clinic",
    "address": "Akshar Clinic, J.p.Street No.1, Surendranagar, Dudhrej, Gujarat 363001",
    "phone": "Dr.chirag vajariya/ Akshar clinic",
    "hours": null,
    "image_url": "/th?id=OLC.zurbqm6a84pkJg480x360&w=92&h=112&c=8&rs=1&qlt=80&cdv=1&pid=Local"
  },
  {
    "name": "C U Shah Children Hospital",
    "address": "Cj Hospital Road, Surendranagar, Gujarat 363001",
    "phone": "C U Shah Children Hospital",
    "hours": null,
    "image_url": "https://www.bing.com/maps/geoplat/REST/v1/Imagery/Map/RoadVibrant?ms=92,112&key=AnTcaqBi2ypp0xI-OZNi4W_ik2KhjgpqioTAtXLC8GzkMBQRMlyxvxyTnd5b73im&c=en-US&ur=in&da=n&logo=n&fmt=png&od=1&shading=hill&pp=22.728579,71.633614;dfp"
  },
  {
    "name": "Dr. Shyam Shah Internal Medicine Physician",
    "address": "Cu Shah Medical College, Surendranagar, Gujarat 363001",
    "phone": "Dr. Shyam Shah Internal Medicine Physician",
    "hours": "Open· Closes 14:00",
    "image_url": "/th?id=OLC.iEdsOKvRkio%2bPA480x360&w=92&h=134&c=8&rs=1&qlt=80&cdv=1&pid=Local"
  },
  {
    "name": "Shree Atharva clinic",
    "address": "B-1, Mangalmurti Complex, bus, Railway Station Rd, Godhra, Gujarat",
    "phone": "Shree Atharva clinic",
    "hours": null,
    "image_url": "https://www.bing.com/maps/geoplat/REST/v1/Imagery/Map/RoadVibrant?ms=92,112&key=AnTcaqBi2ypp0xI-OZNi4W_ik2KhjgpqioTAtXLC8GzkMBQRMlyxvxyTnd5b73im&c=en-US&ur=in&da=n&logo=n&fmt=png&od=1&shading=hill&pp=22.734091,71.63195;dfp"
  },
  {
    "name": "Dr Pankaj R Shah",
    "address": "Ambedkar Nagar Road, Hindu Society, Ambedkar Nagar, Surendranagar And Wadhwan, Gujarat 363002",
    "phone": "Dr Pankaj R Shah",
    "hours": null,
    "image_url": "https://www.bing.com/maps/geoplat/REST/v1/Imagery/Map/RoadVibrant?ms=92,112&key=AnTcaqBi2ypp0xI-OZNi4W_ik2KhjgpqioTAtXLC8GzkMBQRMlyxvxyTnd5b73im&c=en-US&ur=in&da=n&logo=n&fmt=png&od=1&shading=hill&pp=22.723726,71.640869;dfp"
  },
  {
    "name": "Dr. Rupen Dave | Family Physician(BAMS) | Shree Clinic",
    "address": "80 Feet Road Surendranagar Gujarat, Surendranagar, Gujarat, India, 363001, Surendranagar, Madhya Prades…",
    "phone": "Dr. Rupen Dave | Family Physician(BAMS) | Shree Clinic",
    "hours": "Open· Closes 13:00",
    "image_url": "https://www.bing.com/maps/geoplat/REST/v1/Imagery/Map/RoadVibrant?ms=92,134&key=AnTcaqBi2ypp0xI-OZNi4W_ik2KhjgpqioTAtXLC8GzkMBQRMlyxvxyTnd5b73im&c=en-US&ur=in&da=n&logo=n&fmt=png&od=1&shading=hill&pp=22.729107,71.648071;dfp"
  },
  {
    "name": "Dr. Shantanu Pauranik",
    "address": "M.G.S.General Hospital, Opp, Bus Stand, Surendranagar - 363001, Surendranagar, Gujarat",
    "phone": "Dr. Shantanu Pauranik",
    "hours": "Opens in 3 mins",
    "image_url": null
  },
  {
    "name": "Dr Shyama Prasad Mukerji Bhavan - Mehsana Nagarpalika",
    "address": "Bazar, Ranjanno Dhal, Opp. Palika, Gujarat",
    "phone": "Dr Shyama Prasad Mukerji Bhavan - Mehsana Nagarpalika",
    "hours": null,
    "image_url": "https://www.bing.com/maps/geoplat/REST/v1/Imagery/Map/RoadVibrant?ms=92,112&key=AnTcaqBi2ypp0xI-OZNi4W_ik2KhjgpqioTAtXLC8GzkMBQRMlyxvxyTnd5b73im&c=en-US&ur=in&da=n&logo=n&fmt=png&od=1&shading=hill&pp=22.692692,71.597038;dfp"
  },
  {
    "name": "Dr. Pooja Trivedi",
    "address": "5 Vishwakunj Soicety, Ratanpar, Surendranagar, Gujarat 363020",
    "phone": "Dr. Pooja Trivedi",
    "hours": "Open· Closes 20:00",
    "image_url": "https://www.bing.com/maps/geoplat/REST/v1/Imagery/Map/RoadVibrant?ms=92,134&key=AnTcaqBi2ypp0xI-OZNi4W_ik2KhjgpqioTAtXLC8GzkMBQRMlyxvxyTnd5b73im&c=en-US&ur=in&da=n&logo=n&fmt=png&od=1&shading=hill&pp=22.713001,71.632423;dfp"
  },
  {
    "name": "Madhuram Poly-Clinic - મધુરમ્ પોલીક્લિનિક",
    "address": "Subhash Road, Joravarnagar, Wadhwan, Gujarat 363020",
    "phone": "Madhuram Poly-Clinic - મધુરમ્ પોલીક્લિનિક",
    "hours": null,
    "image_url": null
  },
  {
    "name": "Dr Bhargav's Archnam E NT surgical Hospital, Laser & Endoscopy Center",
    "address": "Doctor House, Opp Mega Mall, Surendranagar District, Gujarat, Gujarat 363002",
    "phone": "Dr Bhargav's Archnam E NT surgical Hospital, Laser & Endoscopy Center",
    "hours": null,
    "image_url": "https://www.bing.com/maps/geoplat/REST/v1/Imagery/Map/RoadVibrant?ms=92,112&key=AnTcaqBi2ypp0xI-OZNi4W_ik2KhjgpqioTAtXLC8GzkMBQRMlyxvxyTnd5b73im&c=en-US&ur=in&da=n&logo=n&fmt=png&od=1&shading=hill&pp=22.732349,71.627907;dfp"
  },
  {
    "name": "Bada Business by Dr Vivek Bindra",
    "address": "Anant, 1st Floor, Manthan Chamber Nr.Navrang, 4, 80 Feet Rd, Hirabag Society, Navarang Society, Gujarat 3…",
    "phone": "Bada Business by Dr Vivek Bindra",
    "hours": null,
    "image_url": "https://www.bing.com/maps/geoplat/REST/v1/Imagery/Map/RoadVibrant?ms=92,112&key=AnTcaqBi2ypp0xI-OZNi4W_ik2KhjgpqioTAtXLC8GzkMBQRMlyxvxyTnd5b73im&c=en-US&ur=in&da=n&logo=n&fmt=png&od=1&shading=hill&pp=22.734392,71.629211;dfp"
  },
  {
    "name": "Archanam E.N.T. Hospital",
    "address": "Archnam ENT Surgical Hospital, Doctor House 1st Floor, Opposite Milan Cinema, Surender Nagar, Surendranag…",
    "phone": "Archanam E.N.T. Hospital",
    "hours": null,
    "image_url": "https://www.bing.com/maps/geoplat/REST/v1/Imagery/Map/RoadVibrant?ms=92,112&key=AnTcaqBi2ypp0xI-OZNi4W_ik2KhjgpqioTAtXLC8GzkMBQRMlyxvxyTnd5b73im&c=en-US&ur=in&da=n&logo=n&fmt=png&od=1&shading=hill&pp=22.723116,71.641396;clcp"
  },
  {
    "name": "Just Smile Multispeciality Dental And Ayurvedic Hospital",
    "address": "Megamall 2, Next To Megamall, Above Raj Bank, Near Milan Cinema Surendranagar, Dudhrej, Gujarat 363002",
    "phone": "Just Smile Multispeciality Dental And Ayurvedic Hospital",
    "hours": null,
    "image_url": "https://www.bing.com/maps/geoplat/REST/v1/Imagery/Map/RoadVibrant?ms=92,112&key=AnTcaqBi2ypp0xI-OZNi4W_ik2KhjgpqioTAtXLC8GzkMBQRMlyxvxyTnd5b73im&c=en-US&ur=in&da=n&logo=n&fmt=png&od=1&shading=hill&pp=22.723135,71.641991;dfp"
  },
  {
    "name": "Dr. Mohsin A Memon- General Physician",
    "address": "Mohsin A Memon Clinic, Moti Mahal Complex, Palanpur Patiya, Himatnagar, Gujarat 383001",
    "phone": "Dr. Mohsin A Memon- General Physician",
    "hours": "Closed· Opens 13:00",
    "image_url": "https://www.bing.com/maps/geoplat/REST/v1/Imagery/Map/RoadVibrant?ms=92,134&key=AnTcaqBi2ypp0xI-OZNi4W_ik2KhjgpqioTAtXLC8GzkMBQRMlyxvxyTnd5b73im&c=en-US&ur=in&da=n&logo=n&fmt=png&od=1&shading=hill&pp=22.422718,71.771797;dfp"
  },
  {
    "name": "Scientific Research Institute",
    "address": "Mahavir Hospital, Opposite District Library, Lati Plot, Near C J Hospital, Surendranagar District, Gujarat, Gujarat 3…",
    "phone": "Scientific Research Institute",
    "hours": null,
    "image_url": null
  }
]