[
  {
    "name": "Dr Anurangan Dubey Clinic",
    "address": "Banaras Road, Gari Near Chowk, Subhas Nagar, Ambikapur, Chhattisgarh 497001",
    "phone": "Dr Anurangan Dubey Clinic",
    "hours": null,
    "image_url": "https://www.bing.com/maps/geoplat/REST/v1/Imagery/Map/RoadVibrant?ms=92,112&key=AnTcaqBi2ypp0xI-OZNi4W_ik2KhjgpqioTAtXLC8GzkMBQRMlyxvxyTnd5b73im&c=en-US&ur=in&da=n&logo=n&fmt=png&od=1&shading=hill&pp=23.132751,83.181236;dfp"
  },
  {
    "name": "Dr. Firdousi Hospital",
    "address": "Banaras Road, Deviganj, Ambikapur, Chhattisgarh 497001",
    "phone": "Dr. Firdousi Hospital",
    "hours": null,
    "image_url": "/th?id=OLC.LvU4jRnFaZiOrQ480x360&w=92&h=112&c=8&rs=1&qlt=80&cdv=1&pid=Local"
  },
  {
    "name": "Dr. Amit Kumar Yadav",
    "address": "Near Bhatti Road, Church Road, Ambikapur, Chhattisgarh 497001",
    "phone": "Dr. Amit Kumar Yadav",
    "hours": "Closed· Opens 14:00",
    "image_url": "https://www.bing.com/maps/geoplat/REST/v1/Imagery/Map/RoadVibrant?ms=92,134&key=AnTcaqBi2ypp0xI-OZNi4W_ik2KhjgpqioTAtXLC8GzkMBQRMlyxvxyTnd5b73im&c=en-US&ur=in&da=n&logo=n&fmt=png&od=1&shading=hill&pp=23.128502,83.192032;dfp"
  },
  {
    "name": "Dr Mukharjee Clinic",
    "address": "Bharatpur Road Lakhanpur, Juna Lakhanpur, Ambikapur, Chhattisgarh 497116",
    "phone": "Dr Mukharjee Clinic",
    "hours": null,
    "image_url": "https://www.bing.com/maps/geoplat/REST/v1/Imagery/Map/RoadVibrant?ms=92,112&key=AnTcaqBi2ypp0xI-OZNi4W_ik2KhjgpqioTAtXLC8GzkMBQRMlyxvxyTnd5b73im&c=en-US&ur=in&da=n&logo=n&fmt=png&od=1&shading=hill&pp=22.985666,83.047585;dfp"
  },
  {
    "name": "Dr. Amin Firdosi",
    "address": "Firdosi Hospital, Ambikapur, Chhattisgarh",
    "phone": "Dr. Amin Firdosi",
    "hours": null,
    "image_url": "https://www.bing.com/maps/geoplat/REST/v1/Imagery/Map/RoadVibrant?ms=92,112&key=AnTcaqBi2ypp0xI-OZNi4W_ik2KhjgpqioTAtXLC8GzkMBQRMlyxvxyTnd5b73im&c=en-US&ur=in&da=n&logo=n&fmt=png&od=1&shading=hill&pp=23.127878,83.200806;dfp"
  },
  {
    "name": "Indu Hospital, Dr Vikash Kumar Ortho Surgeon",
    "address": "Hfwx+FH4, Ring Bandh Approach Road Laxmana Nagar, Near Sarasvati Vidya Mandir, Sitamarhi, Bihar",
    "phone": "Indu Hospital, Dr Vikash Kumar Ortho Surgeon",
    "hours": null,
    "image_url": "/th?id=OLC.g%2b%2bwlBwUUBJMFg480x360&w=92&h=112&c=8&rs=1&qlt=80&cdv=1&pid=Local"
  },
  {
    "name": "Dr.agrawal's Physiotherapy Clinic",
    "address": "Behind Vidhya Diagnosis, Darripara, Ambikapur, Chhattisgarh 497001, India, Ambikapur, Chhattisgarh, …",
    "phone": "Dr.agrawal's Physiotherapy Clinic",
    "hours": "Open· Closes 19:00",
    "image_url": "https://www.bing.com/maps/geoplat/REST/v1/Imagery/Map/RoadVibrant?ms=92,134&key=AnTcaqBi2ypp0xI-OZNi4W_ik2KhjgpqioTAtXLC8GzkMBQRMlyxvxyTnd5b73im&c=en-US&ur=in&da=n&logo=n&fmt=png&od=1&shading=hill&pp=23.135492,83.181786;dfp"
  },
  {
    "name": "Homoeo care clinic",
    "address": "Genhu Badi, Near Sansakriti Hospital, Ambikapur, Chhattisgarh",
    "phone": "Homoeo care clinic",
    "hours": null,
    "image_url": "https://www.bing.com/maps/geoplat/REST/v1/Imagery/Map/RoadVibrant?ms=92,112&key=AnTcaqBi2ypp0xI-OZNi4W_ik2KhjgpqioTAtXLC8GzkMBQRMlyxvxyTnd5b73im&c=en-US&ur=in&da=n&logo=n&fmt=png&od=1&shading=hill&pp=23.116238,83.195923;dfp"
  },
  {
    "name": "District Ayurveda Hospital",
    "address": "Harra Tika Road, Harra Tika, Ambikapur, Chhattisgarh 497001",
    "phone": "District Ayurveda Hospital",
    "hours": null,
    "image_url": "https://www.bing.com/maps/geoplat/REST/v1/Imagery/Map/RoadVibrant?ms=92,112&key=AnTcaqBi2ypp0xI-OZNi4W_ik2KhjgpqioTAtXLC8GzkMBQRMlyxvxyTnd5b73im&c=en-US&ur=in&da=n&logo=n&fmt=png&od=1&shading=hill&pp=23.117096,83.173706;dfp"
  },
  {
    "name": "Laser Super Speciality Surgical Hospital / Gaharwar Urology And",
    "address": "District Hospital, Road, Ambikapur, Chhattisgarh 497001, India, Ambikapur, Chhattisgarh 497001",
    "phone": "Laser Super Speciality Surgical Hospital / Gaharwar Urology And",
    "hours": null,
    "image_url": null
  },
  {
    "name": "Varenyam Homeopathic Clinic",
    "address": "Ambikapur, Shitla Ward, Surguja, Chhattisgarh 497001",
    "phone": "Varenyam Homeopathic Clinic",
    "hours": null,
    "image_url": "https://www.bing.com/maps/geoplat/REST/v1/Imagery/Map/RoadVibrant?ms=92,112&key=AnTcaqBi2ypp0xI-OZNi4W_ik2KhjgpqioTAtXLC8GzkMBQRMlyxvxyTnd5b73im&c=en-US&ur=in&da=n&logo=n&fmt=png&od=1&shading=hill&pp=23.116238,83.195923;dfp"
  },
  {
    "name": "Sai Nidan Homoeopathy Clinic",
    "address": "Banaras Rd, Near Sai Mandir, Gandhinagar, Ambikapur, Chhattisgarh",
    "phone": "Sai Nidan Homoeopathy Clinic",
    "hours": null,
    "image_url": "https://www.bing.com/maps/geoplat/REST/v1/Imagery/Map/RoadVibrant?ms=92,112&key=AnTcaqBi2ypp0xI-OZNi4W_ik2KhjgpqioTAtXLC8GzkMBQRMlyxvxyTnd5b73im&c=en-US&ur=in&da=n&logo=n&fmt=png&od=1&shading=hill&pp=23.145388,83.172768;dfp"
  },
  {
    "name": "Ent Doctor Sailendra Gupta Clinic",
    "address": "45jj+qqh, Banaras Chowk, Ambikapur, Chhattisgarh 497001, India, Ambikapur, Chhattisgarh 497001",
    "phone": "Ent Doctor Sailendra Gupta Clinic",
    "hours": null,
    "image_url": "https://www.bing.com/maps/geoplat/REST/v1/Imagery/Map/RoadVibrant?ms=92,112&key=AnTcaqBi2ypp0xI-OZNi4W_ik2KhjgpqioTAtXLC8GzkMBQRMlyxvxyTnd5b73im&c=en-US&ur=in&da=n&logo=n&fmt=png&od=1&shading=hill&pp=23.142925,83.173805;dfp"
  },
  {
    "name": "DR. Firdosi Homeopathy Clinic",
    "address": "Main Road Nawagarh, Near Mahamaya Mandir, Ambikapur, Chhattisgarh 497001",
    "phone": "DR. Firdosi Homeopathy Clinic",
    "hours": null,
    "image_url": "https://www.bing.com/maps/geoplat/REST/v1/Imagery/Map/RoadVibrant?ms=92,112&key=AnTcaqBi2ypp0xI-OZNi4W_ik2KhjgpqioTAtXLC8GzkMBQRMlyxvxyTnd5b73im&c=en-US&ur=in&da=n&logo=n&fmt=png&od=1&shading=hill&pp=23.116238,83.195923;dfp"
  },
  {
    "name": "Shri Shyam Diagnostic, Dr. Sujeet Agrawal",
    "address": "Ambikapur, Gehu Badi, Surguja, Chhattisgarh 497001",
    "phone": "Shri Shyam Diagnostic, Dr. Sujeet Agrawal",
    "hours": "Open· Closes 21:00",
    "image_url": null
  },
  {
    "name": "Dr Gupta Child Care Clinic",
    "address": "Jail Road, Babupara Near Jail Supretendent House, Ambikapur, Chhattisgarh, Chhattisgarh 497001",
    "phone": "Dr Gupta Child Care Clinic",
    "hours": null,
    "image_url": "https://www.bing.com/maps/geoplat/REST/v1/Imagery/Map/RoadVibrant?ms=92,112&key=AnTcaqBi2ypp0xI-OZNi4W_ik2KhjgpqioTAtXLC8GzkMBQRMlyxvxyTnd5b73im&c=en-US&ur=in&da=n&logo=n&fmt=png&od=1&shading=hill&pp=23.12921,83.185905;dfp"
  },
  {
    "name": "Dr. Ajit Mishra",
    "address": "Bramh Road, Surguja, Chhattisgarh",
    "phone": "Dr. Ajit Mishra",
    "hours": "Open· Closes 14:00",
    "image_url": "https://www.bing.com/maps/geoplat/REST/v1/Imagery/Map/RoadVibrant?ms=92,112&key=AnTcaqBi2ypp0xI-OZNi4W_ik2KhjgpqioTAtXLC8GzkMBQRMlyxvxyTnd5b73im&c=en-US&ur=in&da=n&logo=n&fmt=png&od=1&shading=hill&pp=23.121397,83.194016;dfp"
  },
  {
    "name": "Shri Ram Dental Clinic",
    "address": "Maharaja Gali Joda Peepal, Ambikapur, Chhattisgarh 497001",
    "phone": "Shri Ram Dental Clinic",
    "hours": null,
    "image_url": null
  }
]