[
  {
    "name": "Dr Tarsem Chopra Consultation Clinic",
    "address": "1, Gaurav Chopra, Bhikhiwind, Amritsar, Mandir Bazar, Patti Road, Tarn Taran 143303",
    "phone": "Dr Tarsem Chopra Consultation Clinic",
    "hours": null,
    "image_url": "https://www.bing.com/maps/geoplat/REST/v1/Imagery/Map/RoadVibrant?ms=92,112&key=AnTcaqBi2ypp0xI-OZNi4W_ik2KhjgpqioTAtXLC8GzkMBQRMlyxvxyTnd5b73im&c=en-US&ur=in&da=n&logo=n&fmt=png&od=1&shading=hill&pp=31.460941,74.93174;dfp"
  },
  {
    "name": "Holistic Homoeopathy-Homeopathy clinic / Homeopathic Doctor / Homeopathy in Tarn taran",
    "address": "Goindwal Road, Goindwal Sahib, Punjab 143401",
    "phone": "Holistic Homoeopathy-Homeopathy clinic / Homeopathic Doctor / Homeopathy in Tarn taran",
    "hours": "Open· Closes 17:30",
    "image_url": "/th?id=OLC.ocUl631SVVeaRg480x360&w=92&h=112&c=8&rs=1&qlt=80&cdv=1&pid=Local"
  },
  {
    "name": "Dr Mukesh Kumar's Neuro-Psychiatry And De-Addiction Clinic- Best psychiatrist/Psychiatrist Doctor",
    "address": "Sarhali Road Opposite SDM Court Complex Near Kwality Sweets, Tarn Taran, Punjab 143401",
    "phone": "Dr Mukesh Kumar's Neuro-Psychiatry And De-Addiction Clinic- Best psychiatrist/Psychiatrist Doctor",
    "hours": "Open· Closes 17:30",
    "image_url": "/th?id=OLC.dFtOGFaSMUroYA480x360&w=92&h=134&c=8&rs=1&qlt=80&cdv=1&pid=Local"
  },
  {
    "name": "Malhi Clinic",
    "address": "Kakka Kandiala, Amritsar, Punjab 143001",
    "phone": "Malhi Clinic",
    "hours": null,
    "image_url": "https://www.bing.com/maps/geoplat/REST/v1/Imagery/Map/RoadVibrant?ms=92,112&key=AnTcaqBi2ypp0xI-OZNi4W_ik2KhjgpqioTAtXLC8GzkMBQRMlyxvxyTnd5b73im&c=en-US&ur=in&da=n&logo=n&fmt=png&od=1&shading=hill&pp=31.455334,74.925407;dfp"
  },
  {
    "name": "Dr. Brahamdeep Liver & Gastroenterology Clinic",
    "address": "Amritsar Road, Near Idbi Bank, Tarn Taran Sahib, Punjab 143401",
    "phone": "Dr. Brahamdeep Liver & Gastroenterology Clinic",
    "hours": "Open· Closes 20:00",
    "image_url": "https://www.bing.com/maps/geoplat/REST/v1/Imagery/Map/RoadVibrant?ms=92,134&key=AnTcaqBi2ypp0xI-OZNi4W_ik2KhjgpqioTAtXLC8GzkMBQRMlyxvxyTnd5b73im&c=en-US&ur=in&da=n&logo=n&fmt=png&od=1&shading=hill&pp=31.461226,74.92057;dfp"
  },
  {
    "name": "DR.Lal Pathlabs",
    "address": "Sarhali Rd, opp. Navjeewan Hospital, Near Thana Sader, St. Marry Colony, Tarn Taran Sahib, Punjab",
    "phone": "DR.Lal Pathlabs",
    "hours": null,
    "image_url": "https://www.bing.com/maps/geoplat/REST/v1/Imagery/Map/RoadVibrant?ms=92,112&key=AnTcaqBi2ypp0xI-OZNi4W_ik2KhjgpqioTAtXLC8GzkMBQRMlyxvxyTnd5b73im&c=en-US&ur=in&da=n&logo=n&fmt=png&od=1&shading=hill&pp=31.453848,74.92672;dfp"
  },
  {
    "name": "Dr. Gurjant Singh | Sexologists | Shri guru amardas ji madical store",
    "address": "Karan Chok Shri Guru Amardas ji Madical Store, Shri Guru Amardas ji Madical Store Muradpura Kumb, Tarn …",
    "phone": "Dr. Gurjant Singh | Sexologists | Shri guru amardas ji madical store",
    "hours": null,
    "image_url": "https://www.bing.com/maps/geoplat/REST/v1/Imagery/Map/RoadVibrant?ms=92,112&key=AnTcaqBi2ypp0xI-OZNi4W_ik2KhjgpqioTAtXLC8GzkMBQRMlyxvxyTnd5b73im&c=en-US&ur=in&da=n&logo=n&fmt=png&od=1&shading=hill&pp=31.455744,74.92894;dfp"
  },
  {
    "name": "Dr. Atinder Physiotherapy Centre",
    "address": "Opposite Civil Hospital, Walia Wali Gali, Amritsar Road, Tarn Taran 143401",
    "phone": "Dr. Atinder Physiotherapy Centre",
    "hours": null,
    "image_url": null
  },
  {
    "name": "Guru Nanak Clinic",
    "address": "Ward NO. 10, Muradpura, Tarn Taran, Gali Khoohi Vehra, Tarn Taran, Punjab 143401",
    "phone": "Guru Nanak Clinic",
    "hours": null,
    "image_url": "https://www.bing.com/maps/geoplat/REST/v1/Imagery/Map/RoadVibrant?ms=92,112&key=AnTcaqBi2ypp0xI-OZNi4W_ik2KhjgpqioTAtXLC8GzkMBQRMlyxvxyTnd5b73im&c=en-US&ur=in&da=n&logo=n&fmt=png&od=1&shading=hill&pp=31.457586,74.929276;dfp"
  },
  {
    "name": "Anand Clinic",
    "address": "2, Mirgindpura Road, Dyalpura, Bikhiwind, Tarn Taran, Punjab 143304",
    "phone": "Anand Clinic",
    "hours": null,
    "image_url": "https://www.bing.com/maps/geoplat/REST/v1/Imagery/Map/RoadVibrant?ms=92,112&key=AnTcaqBi2ypp0xI-OZNi4W_ik2KhjgpqioTAtXLC8GzkMBQRMlyxvxyTnd5b73im&c=en-US&ur=in&da=n&logo=n&fmt=png&od=1&shading=hill&pp=31.466589,74.936234;dfp"
  },
  {
    "name": "Dr Surat Singh Hospital",
    "address": "Opp. Telephone Exchange Vpo Chabhal, Tarn Taran 143301",
    "phone": "Dr Surat Singh Hospital",
    "hours": null,
    "image_url": null
  },
  {
    "name": "DR. Khurana Dental Clinic(S.S.S Dental Clinic &Implant Centre)",
    "address": "B-5/108, Jandiala Road Near Cupid School, Opposite Kainth Hospital, Punjab",
    "phone": "DR. Khurana Dental Clinic(S.S.S Dental Clinic &Implant Centre)",
    "hours": null,
    "image_url": null
  },
  {
    "name": "Dr. Rajneesh Medicare Heart Centre-Best Hospital/Heart Center in Taran Taran",
    "address": "Sarhali Road, Near Sadar Thana, Tarn Taran Sahib, Punjab 143401",
    "phone": "Dr. Rajneesh Medicare Heart Centre-Best Hospital/Heart Center in Taran Taran",
    "hours": "Open· Closes 18:00",
    "image_url": null
  },
  {
    "name": "Santokh Singh and CO. B.K.O.",
    "address": "VPO Alandinpur, Tarn Taran, VPO Alandinpur Tarn, Tarn Taran, Punjab 143401",
    "phone": "Santokh Singh and CO. B.K.O.",
    "hours": null,
    "image_url": "https://www.bing.com/maps/geoplat/REST/v1/Imagery/Map/RoadVibrant?ms=92,112&key=AnTcaqBi2ypp0xI-OZNi4W_ik2KhjgpqioTAtXLC8GzkMBQRMlyxvxyTnd5b73im&c=en-US&ur=in&da=n&logo=n&fmt=png&od=1&shading=hill&pp=31.460476,74.931488;dfp"
  },
  {
    "name": "Classical Homeopathic Clinic",
    "address": "Jandiala Chowk, St. Marry Colony, Tarn Taran Sahib, Punjab",
    "phone": "Classical Homeopathic Clinic",
    "hours": null,
    "image_url": "https://www.bing.com/maps/geoplat/REST/v1/Imagery/Map/RoadVibrant?ms=92,112&key=AnTcaqBi2ypp0xI-OZNi4W_ik2KhjgpqioTAtXLC8GzkMBQRMlyxvxyTnd5b73im&c=en-US&ur=in&da=n&logo=n&fmt=png&od=1&shading=hill&pp=31.454399,74.927094;dfp"
  },
  {
    "name": "Dr. Khurana's Multispeciality Dental Clinic & Implant Centre",
    "address": "Dr Khurana Multispeciality Dental Clinic and Implant Centre, Near Cupid School, Jandiala Road, Tarn Taran …",
    "phone": "Dr. Khurana's Multispeciality Dental Clinic & Implant Centre",
    "hours": "Open· Closes 15:00",
    "image_url": "https://www.bing.com/maps/geoplat/REST/v1/Imagery/Map/RoadVibrant?ms=92,134&key=AnTcaqBi2ypp0xI-OZNi4W_ik2KhjgpqioTAtXLC8GzkMBQRMlyxvxyTnd5b73im&c=en-US&ur=in&da=n&logo=n&fmt=png&od=1&shading=hill&pp=31.453007,74.931259;dfp"
  },
  {
    "name": "DR.Randhawa Ent Clinic",
    "address": "M\\S Dr.Randhawa Ent Clinic, Opp.Civil Hospital, Amritsar Road, Tarn Taran, Punjab 143401",
    "phone": "DR.Randhawa Ent Clinic",
    "hours": null,
    "image_url": "https://www.bing.com/maps/geoplat/REST/v1/Imagery/Map/RoadVibrant?ms=92,112&key=AnTcaqBi2ypp0xI-OZNi4W_ik2KhjgpqioTAtXLC8GzkMBQRMlyxvxyTnd5b73im&c=en-US&ur=in&da=n&logo=n&fmt=png&od=1&shading=hill&pp=31.453699,74.956093;dfp"
  }
]