[
  {
    "name": "Dr. V. N. Joshi",
    "address": "Near Ganesh Chowk, Tehri",
    "phone": "Dr. V. N. Joshi",
    "hours": "Open· Closes 13:00",
    "image_url": "/th?id=OLC.bo6bhPuHy1%2f8ug480x360&w=92&h=112&c=8&rs=1&qlt=80&cdv=1&pid=Local"
  },
  {
    "name": "Dr. Maratha Clinic",
    "address": "Rajpur Road, Bhel Chowk, Meedo Plaza, Shop no C -15, Behind Crossroad Mall, Near - Sai Institute, Dehradun  …",
    "phone": "Dr. Maratha Clinic",
    "hours": null,
    "image_url": "https://www.bing.com/maps/geoplat/REST/v1/Imagery/Map/RoadVibrant?ms=92,112&key=AnTcaqBi2ypp0xI-OZNi4W_ik2KhjgpqioTAtXLC8GzkMBQRMlyxvxyTnd5b73im&c=en-US&ur=in&da=n&logo=n&fmt=png&od=1&shading=hill&pp=30.324608,78.017136;dfp"
  },
  {
    "name": "Dr Dhir Clinic",
    "address": "57 A, Araghar, Dalanwala, Dehradun, Uttarakhand",
    "phone": "Dr Dhir Clinic",
    "hours": null,
    "image_url": "https://www.bing.com/maps/geoplat/REST/v1/Imagery/Map/RoadVibrant?ms=92,112&key=AnTcaqBi2ypp0xI-OZNi4W_ik2KhjgpqioTAtXLC8GzkMBQRMlyxvxyTnd5b73im&c=en-US&ur=in&da=n&logo=n&fmt=png&od=1&shading=hill&pp=30.30773,78.053871;dfp"
  },
  {
    "name": "Shri Ram Clinic, Rishikesh",
    "address": "74, Pragati Vihar, Tehsil Road, Rishikesh, Uttarakhand 249201",
    "phone": "Shri Ram Clinic, Rishikesh",
    "hours": null,
    "image_url": "/th?id=OLC.0YnyzU73zQn7%2fQ480x360&w=92&h=112&c=8&rs=1&qlt=80&cdv=1&pid=Local"
  },
  {
    "name": "Dr Arjun Raj | Best Sexologist  | Ayurvedic Doctor",
    "address": "Galaxy Apartments, Near Hotel Regenta, Tapovan, Rishikesh, Uttarakhand 249192",
    "phone": "Dr Arjun Raj | Best Sexologist  | Ayurvedic Doctor",
    "hours": "Open· Closes 22:00",
    "image_url": "/th?id=OLC.CCumFNUUPlfEfQ480x360&w=92&h=134&c=8&rs=1&qlt=80&cdv=1&pid=Local"
  },
  {
    "name": "Dr. Rakesh Agarwal Clinic | Best Sexologist  | Ayurvedic Doctor",
    "address": "Barthwal Colony, Near Janki Nagar, Najibabad Road, Kotdwar, Uttarakhand",
    "phone": "Dr. Rakesh Agarwal Clinic | Best Sexologist  | Ayurvedic Doctor",
    "hours": null,
    "image_url": "https://www.bing.com/maps/geoplat/REST/v1/Imagery/Map/RoadVibrant?ms=92,112&key=AnTcaqBi2ypp0xI-OZNi4W_ik2KhjgpqioTAtXLC8GzkMBQRMlyxvxyTnd5b73im&c=en-US&ur=in&da=n&logo=n&fmt=png&od=1&shading=hill&pp=29.918165,78.138641;dfp"
  },
  {
    "name": "Arogyadham Clinic | Best Sexologist  for Male & Female | Ayurveda Doctor",
    "address": "Aamkhala, Badrinath Road, Tapovan, Rishikesh, Uttarakhand 249192",
    "phone": "Arogyadham Clinic | Best Sexologist  for Male & Female | Ayurveda Doctor",
    "hours": "Open· Closes 22:00",
    "image_url": null
  },
  {
    "name": "Dr.Bhandari's Homoeopathic & Skin Clinic",
    "address": "Ranjhwala Near Uco Bank, Dehra Dun, Uttarakhand, Uttarakhand 248014",
    "phone": "Dr.Bhandari's Homoeopathic & Skin Clinic",
    "hours": null,
    "image_url": null
  },
  {
    "name": "Piles Care and Ayurveda Clinic",
    "address": "Janki Vihar, Near Shiv Mandir Lower, Nehrugram, Dehradun, Uttarakhand",
    "phone": "Piles Care and Ayurveda Clinic",
    "hours": null,
    "image_url": null
  },
  {
    "name": "Dr. Rakesh Agarwal | Best Sexologist  | Ayurvedic Doctor",
    "address": "Barthwal Colony, Near Janki Nagar, Najibabad Road, Kotdwar, Uttarakhand 246149",
    "phone": "Dr. Rakesh Agarwal | Best Sexologist  | Ayurvedic Doctor",
    "hours": "Open· Closes 22:00",
    "image_url": null
  },
  {
    "name": "Vijay Clinic",
    "address": "Shop No. 12, Rawat Bhavan, Maroda Gad, Narendra Nagar, Tehri Road, Devprayag, Tehri Garhwal, Uttarak…",
    "phone": "Vijay Clinic",
    "hours": null,
    "image_url": "https://www.bing.com/maps/geoplat/REST/v1/Imagery/Map/RoadVibrant?ms=92,112&key=AnTcaqBi2ypp0xI-OZNi4W_ik2KhjgpqioTAtXLC8GzkMBQRMlyxvxyTnd5b73im&c=en-US&ur=in&da=n&logo=n&fmt=png&od=1&shading=hill&pp=30.318741,78.028557;dfp"
  },
  {
    "name": "Gayatri Relief and Relax physiohealing clinic",
    "address": "Near Shyampur Fatak, Jethuri Complex, Reshikesh, Rishikesh, Uttarakhand 249201",
    "phone": "Gayatri Relief and Relax physiohealing clinic",
    "hours": "Open· Closes 13:00",
    "image_url": null
  },
  {
    "name": "Nageswati Homeopathic Clinic - Best Homeopathy Doctor || Best Homeopathic Clinic",
    "address": "Donali Chauk, Nathuawala, Dehradun, Uttarakhand 248001",
    "phone": "Nageswati Homeopathic Clinic - Best Homeopathy Doctor || Best Homeopathic Clinic",
    "hours": "Closed· Opens 16:00",
    "image_url": null
  },
  {
    "name": "Dr. Harshita Tripathi",
    "address": "Malsi, Mussoorie Diversion Road, Dehradun, Uttarakhand",
    "phone": "Dr. Harshita Tripathi",
    "hours": "Open· Closes 13:00",
    "image_url": null
  },
  {
    "name": "Dr Lal PathLabs",
    "address": "Collage, Road, Chamba, Post Office, Chamba, Uttarakhand",
    "phone": "Dr Lal PathLabs",
    "hours": "Open· Closes 20:00",
    "image_url": "https://www.bing.com/maps/geoplat/REST/v1/Imagery/Map/RoadVibrant?ms=92,112&key=AnTcaqBi2ypp0xI-OZNi4W_ik2KhjgpqioTAtXLC8GzkMBQRMlyxvxyTnd5b73im&c=en-US&ur=in&da=n&logo=n&fmt=png&od=1&shading=hill&pp=30.346699,78.394104;dfp"
  },
  {
    "name": "Panchamrit Ayurveda & Wellness Center",
    "address": "Gayatri Resort Street, Near Kriya Yog Ashram, Tapowan, Laxman Jhula, Tehri Garhwal, Uttrakhand, Rishikesh, U…",
    "phone": "Panchamrit Ayurveda & Wellness Center",
    "hours": null,
    "image_url": null
  },
  {
    "name": "Disha Ayurvedic Panchkarma Center",
    "address": "House NO.62 Tapowan Fakot Laxman Jhula Road, Tehri Garhwal, Uttarakhand 249192",
    "phone": "Disha Ayurvedic Panchkarma Center",
    "hours": null,
    "image_url": null
  },
  {
    "name": "Dr. Preeti Rai",
    "address": "GMS Road, Dehradun, Uttarakhand",
    "phone": "Dr. Preeti Rai",
    "hours": "Closed· Opens 19:00",
    "image_url": null
  }
]