[
  {
    "name": "Sree Uthram Thirunal Royal Hospital",
    "address": "Ulloor, Medical College PO, Trivandrum, Kerala 695011",
    "phone": "Sree Uthram Thirunal Royal Hospital",
    "hours": null,
    "image_url": "/th?id=OLC.0JlpV%2b3ucJJocA480x360&w=92&h=112&c=8&rs=1&qlt=80&cdv=1&pid=Local"
  },
  {
    "name": "Dr. Ranjit Hari V",
    "address": "T C 1/2138, Near G G Hospital, Murinjapalam, Thiruvananthapuram, Kerala",
    "phone": "Dr. Ranjit Hari V",
    "hours": null,
    "image_url": "/th?id=OLC.YM2ghMM8hTBEww480x360&w=92&h=112&c=8&rs=1&qlt=80&cdv=1&pid=Local"
  },
  {
    "name": "Dr. Ashok Gopinathan Nair",
    "address": "Koluthara Towers, Near Marappalam, Pattom, Thiruvananthapuram, Kerala 695004, Thiruvananthapur…",
    "phone": "Dr. Ashok Gopinathan Nair",
    "hours": "Closed· Opens 17:00",
    "image_url": "https://www.bing.com/maps/geoplat/REST/v1/Imagery/Map/RoadVibrant?ms=92,112&key=AnTcaqBi2ypp0xI-OZNi4W_ik2KhjgpqioTAtXLC8GzkMBQRMlyxvxyTnd5b73im&c=en-US&ur=in&da=n&logo=n&fmt=png&od=1&shading=hill&pp=8.520049,76.944046;dfp"
  },
  {
    "name": "Dr. Vinu Jacob",
    "address": "63 Nathencodu, Kaudiar, Landmark: Bains Compound, Thiruvananthapuram, Thiruvananthapuram 123654",
    "phone": "Dr. Vinu Jacob",
    "hours": "Closed· Opens 17:00",
    "image_url": "/th?id=OLC.z4xTOoVIShwX0g480x360&w=92&h=112&c=8&rs=1&qlt=80&cdv=1&pid=Local"
  },
  {
    "name": "IRIS Centre - Institute for Rheumatology and Immunology Sciences",
    "address": "Malayil Centre, Chenthiyil, Pongumoodu, Thiruvananthapuram, Kerala, Kerala 695011",
    "phone": "IRIS Centre - Institute for Rheumatology and Immunology Sciences",
    "hours": "Closed· Opens tomorrow 14:00",
    "image_url": "/th?id=OLC.rnYAkwSMFrHk2A480x360&w=92&h=134&c=8&rs=1&qlt=80&cdv=1&pid=Local"
  },
  {
    "name": "Dr. Indra Jyoti | Ortho Smile Craft Clinic",
    "address": "Ortho Smiel Craft Sree Kousthubham, Thiruvananthapuram, Madhya Pradesh 695011",
    "phone": "Dr. Indra Jyoti | Ortho Smile Craft Clinic",
    "hours": "Open· Closes 13:00",
    "image_url": "/th?id=OLC.v3fYeTP3TQj9VA480x360&w=92&h=134&c=8&rs=1&qlt=80&cdv=1&pid=Local"
  },
  {
    "name": "Ayush Clinic",
    "address": "1/33, Thirupuram, Neyyattinkara, Thiruvanthapuram Main Road, Thiruvanathapuram, Thiruvananthapuram, Keral…",
    "phone": "Ayush Clinic",
    "hours": null,
    "image_url": "https://www.bing.com/maps/geoplat/REST/v1/Imagery/Map/RoadVibrant?ms=92,112&key=AnTcaqBi2ypp0xI-OZNi4W_ik2KhjgpqioTAtXLC8GzkMBQRMlyxvxyTnd5b73im&c=en-US&ur=in&da=n&logo=n&fmt=png&od=1&shading=hill&pp=8.48494,76.962349;dfp"
  },
  {
    "name": "Dr. Prema J Kumar | Child Care Clinic",
    "address": "Prem Jyoti, BN 5, Sree Krishna Nagar Road, opp. Mary Nilayam Convent, Bapuji Nagar, Pongumoodu, Thiruva…",
    "phone": "Dr. Prema J Kumar | Child Care Clinic",
    "hours": "Closed· Opens 17:30",
    "image_url": null
  },
  {
    "name": "Dr. Antoney Unni Xavier",
    "address": "Palayam Airport Road, Valiathura, Landmark: Near Domestic Terminal, Thiruvananthapuram, Kerala",
    "phone": "Dr. Antoney Unni Xavier",
    "hours": "Open· Closes 13:00",
    "image_url": "https://www.bing.com/maps/geoplat/REST/v1/Imagery/Map/RoadVibrant?ms=92,112&key=AnTcaqBi2ypp0xI-OZNi4W_ik2KhjgpqioTAtXLC8GzkMBQRMlyxvxyTnd5b73im&c=en-US&ur=in&da=n&logo=n&fmt=png&od=1&shading=hill&pp=8.47407,76.920547;dfp"
  },
  {
    "name": "Dr Abhilash H",
    "address": "GG Hospital, Murinjapalam Pottakuzhi Rd, Pottakkuzhi, Thiruvananthapuram, Kerala",
    "phone": "Dr Abhilash H",
    "hours": "Closed· Opens Sep 28 at 09:00",
    "image_url": null
  },
  {
    "name": "Dr.Krishnakumar.B",
    "address": "Uthrattathi; House, no2, Kailas Gardens Rd, Sreekariyam, Thiruvananthapuram, Kerala",
    "phone": "Dr.Krishnakumar.B",
    "hours": null,
    "image_url": "https://www.bing.com/maps/geoplat/REST/v1/Imagery/Map/RoadVibrant?ms=92,112&key=AnTcaqBi2ypp0xI-OZNi4W_ik2KhjgpqioTAtXLC8GzkMBQRMlyxvxyTnd5b73im&c=en-US&ur=in&da=n&logo=n&fmt=png&od=1&shading=hill&pp=8.542388,76.915474;dfp"
  },
  {
    "name": "Dr. Yogiraj",
    "address": "Kumarapuram Road, Thiruvananthapuram, Kerala",
    "phone": "Dr. Yogiraj",
    "hours": "Open· Closes 12:30",
    "image_url": null
  },
  {
    "name": "Ayurmayi Ayurveda Clinic",
    "address": "Sreekariyam, Thiruvananthapuram, Kerala 695017",
    "phone": "Ayurmayi Ayurveda Clinic",
    "hours": null,
    "image_url": null
  },
  {
    "name": "Dr. Kannan R",
    "address": "Rajahamsam R.G. 294, Temple Rd, Ulloor, Thiruvananthapuram, Kerala",
    "phone": "Dr. Kannan R",
    "hours": null,
    "image_url": "https://www.bing.com/maps/geoplat/REST/v1/Imagery/Map/RoadVibrant?ms=92,112&key=AnTcaqBi2ypp0xI-OZNi4W_ik2KhjgpqioTAtXLC8GzkMBQRMlyxvxyTnd5b73im&c=en-US&ur=in&da=n&logo=n&fmt=png&od=1&shading=hill&pp=8.535202,76.928299;dfp"
  },
  {
    "name": "Dr. Prasannakumar Piles Clinic",
    "address": "Medical College Ulloor Road, Thiruvananthapuram, Kerala 695033",
    "phone": "Dr. Prasannakumar Piles Clinic",
    "hours": null,
    "image_url": "https://www.bing.com/maps/geoplat/REST/v1/Imagery/Map/RoadVibrant?ms=92,112&key=AnTcaqBi2ypp0xI-OZNi4W_ik2KhjgpqioTAtXLC8GzkMBQRMlyxvxyTnd5b73im&c=en-US&ur=in&da=n&logo=n&fmt=png&od=1&shading=hill&pp=8.529303,76.927574;dfp"
  },
  {
    "name": "Dr. Madhu K",
    "address": "Gw8j+fqj, Broken Bridge, Kumarapuram Road, Murinjapalam, Thiruvananthapuram 695004",
    "phone": "Dr. Madhu K",
    "hours": null,
    "image_url": "https://www.bing.com/maps/geoplat/REST/v1/Imagery/Map/RoadVibrant?ms=92,112&key=AnTcaqBi2ypp0xI-OZNi4W_ik2KhjgpqioTAtXLC8GzkMBQRMlyxvxyTnd5b73im&c=en-US&ur=in&da=n&logo=n&fmt=png&od=1&shading=hill&pp=8.530244,76.92054;dfp"
  },
  {
    "name": "Dr Vishnu R S - Nephrologist SUT Hospital Pattom Trivandrum",
    "address": "Dr. Vishnu, Block B, Sreedhanya Planet X, Gowri Nagar Kallampally, Medical College P.O, Thiruvananthapuram…",
    "phone": "Dr Vishnu R S - Nephrologist SUT Hospital Pattom Trivandrum",
    "hours": null,
    "image_url": "https://www.bing.com/maps/geoplat/REST/v1/Imagery/Map/RoadVibrant?ms=92,112&key=AnTcaqBi2ypp0xI-OZNi4W_ik2KhjgpqioTAtXLC8GzkMBQRMlyxvxyTnd5b73im&c=en-US&ur=in&da=n&logo=n&fmt=png&od=1&shading=hill&pp=8.526695,76.924187;dfp"
  },
  {
    "name": "Dr. Divya's Homoeopathic Speciality Clinic",
    "address": "PMG - TTC Road, Devaswom Board Jct, Opposite Imperial Kitchen, TTC Jn, Kowdiar, Thiruvananthapura…",
    "phone": "Dr. Divya's Homoeopathic Speciality Clinic",
    "hours": "Open· Closes 19:30",
    "image_url": null
  }
]