[
  {
    "name": "Sai Clinic",
    "address": "Nh39, Thoubal, Manipur 795138",
    "phone": "Sai Clinic",
    "hours": null,
    "image_url": "https://www.bing.com/maps/geoplat/REST/v1/Imagery/Map/RoadVibrant?ms=92,112&key=AnTcaqBi2ypp0xI-OZNi4W_ik2KhjgpqioTAtXLC8GzkMBQRMlyxvxyTnd5b73im&c=en-US&ur=in&da=n&logo=n&fmt=png&od=1&shading=hill&pp=24.644791,93.996117;dfp"
  },
  {
    "name": "Primary Health Centre",
    "address": "Indo Myanmar Road, Makakmayum Khulakpam Masjid, Lilong, Imphal, Manipur 795009",
    "phone": "Primary Health Centre",
    "hours": null,
    "image_url": "https://www.bing.com/maps/geoplat/REST/v1/Imagery/Map/RoadVibrant?ms=92,112&key=AnTcaqBi2ypp0xI-OZNi4W_ik2KhjgpqioTAtXLC8GzkMBQRMlyxvxyTnd5b73im&c=en-US&ur=in&da=n&logo=n&fmt=png&od=1&shading=hill&pp=24.700914,93.902832;dfp"
  },
  {
    "name": "Dr. Supriya Naturopathy and Yoga wellness centre ( health clinic)",
    "address": "Dr.Supriya Naturopathy And Yoga Wellness, Opposite to Rohini North Eastern School, Imphal, Manipur 795001",
    "phone": "Dr. Supriya Naturopathy and Yoga wellness centre ( health clinic)",
    "hours": "Open· Closes 16:30",
    "image_url": "/th?id=OLC.mGbeLSfraL3yHA480x360&w=92&h=134&c=8&rs=1&qlt=80&cdv=1&pid=Local"
  },
  {
    "name": "Langol View Laboratory Clinic",
    "address": "Rims Rd, Uripok, Imphal, Manipur 795004, India, Imphal, Manipur 795004",
    "phone": "Langol View Laboratory Clinic",
    "hours": null,
    "image_url": "/th?id=OLC.2wzNLspJ2Tjw0g480x360&w=92&h=112&c=8&rs=1&qlt=80&cdv=1&pid=Local"
  },
  {
    "name": "Vision Care Thoubal Bazar",
    "address": "Meira Paibi, Thoubal, Manipur 795138, India, Thoubal, Manipur 795138",
    "phone": "Vision Care Thoubal Bazar",
    "hours": null,
    "image_url": "/th?id=OLC.ja5ZBHVojGNc1Q480x360&w=92&h=112&c=8&rs=1&qlt=80&cdv=1&pid=Local"
  },
  {
    "name": "Dr Sachindra Laishram",
    "address": "Qwpc+wxx, Kwakeithel Makha, Akham Leikai, Manipur 795004",
    "phone": "Dr Sachindra Laishram",
    "hours": null,
    "image_url": "/th?id=OLC.UUEgo%2b%2bDn3G6WQ480x360&w=92&h=112&c=8&rs=1&qlt=80&cdv=1&pid=Local"
  },
  {
    "name": "Classical Homeopathic Clinic, Imphal",
    "address": "3rd Street, New Checkon Rd, New Lambulane, Bazar, Manipur",
    "phone": "Classical Homeopathic Clinic, Imphal",
    "hours": null,
    "image_url": "https://www.bing.com/maps/geoplat/REST/v1/Imagery/Map/RoadVibrant?ms=92,112&key=AnTcaqBi2ypp0xI-OZNi4W_ik2KhjgpqioTAtXLC8GzkMBQRMlyxvxyTnd5b73im&c=en-US&ur=in&da=n&logo=n&fmt=png&od=1&shading=hill&pp=24.734636,93.879875;dfp"
  },
  {
    "name": "Dr C M Dutta Clinic",
    "address": "Indo Myanmar Road, Sika Higher Secondary School, Babupara, Imphal, Manipur 795001",
    "phone": "Dr C M Dutta Clinic",
    "hours": null,
    "image_url": "https://www.bing.com/maps/geoplat/REST/v1/Imagery/Map/RoadVibrant?ms=92,112&key=AnTcaqBi2ypp0xI-OZNi4W_ik2KhjgpqioTAtXLC8GzkMBQRMlyxvxyTnd5b73im&c=en-US&ur=in&da=n&logo=n&fmt=png&od=1&shading=hill&pp=24.790779,93.941841;dfp"
  },
  {
    "name": "Virgo Physicotherapy Clinic",
    "address": "Ah1, Lairembi Lampak, Imphal, Manipur 795008",
    "phone": "Virgo Physicotherapy Clinic",
    "hours": null,
    "image_url": "https://www.bing.com/maps/geoplat/REST/v1/Imagery/Map/RoadVibrant?ms=92,112&key=AnTcaqBi2ypp0xI-OZNi4W_ik2KhjgpqioTAtXLC8GzkMBQRMlyxvxyTnd5b73im&c=en-US&ur=in&da=n&logo=n&fmt=png&od=1&shading=hill&pp=24.776987,93.939117;dfp"
  },
  {
    "name": "Lifespan Diabetes Clinic, Imphal.",
    "address": "New Checkon Rd, Angom Colony, Imphal, Manipur 795005, India, Imphal, Manipur 795005",
    "phone": "Lifespan Diabetes Clinic, Imphal.",
    "hours": null,
    "image_url": null
  },
  {
    "name": "Dr Lal PathLabs – Patient Service Centre",
    "address": "RW6M88, Kasturi Thong, Boragali Thangal Bazar Imphal West Thangal Bazar, Kasturi Bridge, Imphal, Manipur",
    "phone": "Dr Lal PathLabs – Patient Service Centre",
    "hours": null,
    "image_url": "https://www.bing.com/maps/geoplat/REST/v1/Imagery/Map/RoadVibrant?ms=92,112&key=AnTcaqBi2ypp0xI-OZNi4W_ik2KhjgpqioTAtXLC8GzkMBQRMlyxvxyTnd5b73im&c=en-US&ur=in&da=n&logo=n&fmt=png&od=1&shading=hill&pp=24.788639,93.959862;dfp"
  },
  {
    "name": "Ajit Agro & Clinic",
    "address": "Ward NO. 10, Charangpat Maning Leikai, Charangpat Maklang, Near DUC Club, Thoubal, Manipur 795138",
    "phone": "Ajit Agro & Clinic",
    "hours": null,
    "image_url": "https://www.bing.com/maps/geoplat/REST/v1/Imagery/Map/RoadVibrant?ms=92,112&key=AnTcaqBi2ypp0xI-OZNi4W_ik2KhjgpqioTAtXLC8GzkMBQRMlyxvxyTnd5b73im&c=en-US&ur=in&da=n&logo=n&fmt=png&od=1&shading=hill&pp=24.787649,93.959984;dfp"
  },
  {
    "name": "Dr.r.n.gupta",
    "address": "Rw7q+w39, Khoyathong, Thangal Bazar, Manipur 795001",
    "phone": "Dr.r.n.gupta",
    "hours": null,
    "image_url": "https://www.bing.com/maps/geoplat/REST/v1/Imagery/Map/RoadVibrant?ms=92,112&key=AnTcaqBi2ypp0xI-OZNi4W_ik2KhjgpqioTAtXLC8GzkMBQRMlyxvxyTnd5b73im&c=en-US&ur=in&da=n&logo=n&fmt=png&od=1&shading=hill&pp=24.809361,93.935654;dfp"
  },
  {
    "name": "Dr. Yanglemcha Pets Clinic",
    "address": "Moirangkhom Bazar, Imphal-West, Manipur. 795001, Imphal, Manipur 795001",
    "phone": "Dr. Yanglemcha Pets Clinic",
    "hours": "Open· Closes 13:00",
    "image_url": null
  }
]