[
  {
    "name": "Dr Amit Jain",
    "address": "Hardaul Park, Mdr 30B, Katra Bazar, Tikamgarh, Madhya Pradesh 472001",
    "phone": "Dr Amit Jain",
    "hours": null,
    "image_url": "https://www.bing.com/maps/geoplat/REST/v1/Imagery/Map/RoadVibrant?ms=92,112&key=AnTcaqBi2ypp0xI-OZNi4W_ik2KhjgpqioTAtXLC8GzkMBQRMlyxvxyTnd5b73im&c=en-US&ur=in&da=n&logo=n&fmt=png&od=1&shading=hill&pp=24.736385,78.829231;dfp"
  },
  {
    "name": "Dr S K Jain Arogyamandir",
    "address": "Katra Bazar, Tikamgarh, Madhya Pradesh 472001, India, Tikamgarh, Madhya Pradesh 472001",
    "phone": "Dr S K Jain Arogyamandir",
    "hours": null,
    "image_url": "https://www.bing.com/maps/geoplat/REST/v1/Imagery/Map/RoadVibrant?ms=92,112&key=AnTcaqBi2ypp0xI-OZNi4W_ik2KhjgpqioTAtXLC8GzkMBQRMlyxvxyTnd5b73im&c=en-US&ur=in&da=n&logo=n&fmt=png&od=1&shading=hill&pp=24.74432,78.833076;dfp"
  },
  {
    "name": "Dr. Kailash Jain | Dr. Siddhant Jain | Kumar Clinic",
    "address": "Kumar Clinic, Lalitpur Tikamgarh Road, Katra Bazar, Tikamgarh, Madhya Pradesh 472001",
    "phone": "Dr. Kailash Jain | Dr. Siddhant Jain | Kumar Clinic",
    "hours": null,
    "image_url": "https://www.bing.com/maps/geoplat/REST/v1/Imagery/Map/RoadVibrant?ms=92,112&key=AnTcaqBi2ypp0xI-OZNi4W_ik2KhjgpqioTAtXLC8GzkMBQRMlyxvxyTnd5b73im&c=en-US&ur=in&da=n&logo=n&fmt=png&od=1&shading=hill&pp=24.741966,78.831902;dfp"
  },
  {
    "name": "Chirayu Health Clinic",
    "address": "Tikamgarh Jhansi Road, Canara Bank, Brahmin Colony Takha, Tikamgarh, Madhya Pradesh 472001",
    "phone": "Chirayu Health Clinic",
    "hours": null,
    "image_url": "https://www.bing.com/maps/geoplat/REST/v1/Imagery/Map/RoadVibrant?ms=92,112&key=AnTcaqBi2ypp0xI-OZNi4W_ik2KhjgpqioTAtXLC8GzkMBQRMlyxvxyTnd5b73im&c=en-US&ur=in&da=n&logo=n&fmt=png&od=1&shading=hill&pp=24.763119,78.833641;dfp"
  },
  {
    "name": "Kilkari Hospital",
    "address": "State Bank, Lalitpur Tikamgarh Road, Katra Bazar, Tikamgarh, Madhya Pradesh 472001",
    "phone": "Kilkari Hospital",
    "hours": null,
    "image_url": "https://www.bing.com/maps/geoplat/REST/v1/Imagery/Map/RoadVibrant?ms=92,112&key=AnTcaqBi2ypp0xI-OZNi4W_ik2KhjgpqioTAtXLC8GzkMBQRMlyxvxyTnd5b73im&c=en-US&ur=in&da=n&logo=n&fmt=png&od=1&shading=hill&pp=24.742981,78.83181;dfp"
  },
  {
    "name": "Vikas Jain Clinic",
    "address": "Jhansi Road, District Hospital, Civil Line, Tikamgarh, Madhya Pradesh 472001",
    "phone": "Vikas Jain Clinic",
    "hours": null,
    "image_url": "https://www.bing.com/maps/geoplat/REST/v1/Imagery/Map/RoadVibrant?ms=92,112&key=AnTcaqBi2ypp0xI-OZNi4W_ik2KhjgpqioTAtXLC8GzkMBQRMlyxvxyTnd5b73im&c=en-US&ur=in&da=n&logo=n&fmt=png&od=1&shading=hill&pp=24.75975,78.834061;dfp"
  },
  {
    "name": "Dr.Sakera Dental Clinic",
    "address": "Near Sakera Medical Store Katra Bazar Tikamgarh m.p., Tikamgarh, Madhya Pradesh",
    "phone": "Dr.Sakera Dental Clinic",
    "hours": null,
    "image_url": null
  },
  {
    "name": "Arihant CT scan and sonography/Diagnostic Center",
    "address": "Behind Johri Nursing Home, Johri ki Gali, Civil Lines, Tikamgarh, Madhya Pradesh 472001",
    "phone": "Arihant CT scan and sonography/Diagnostic Center",
    "hours": null,
    "image_url": null
  },
  {
    "name": "Dr Divya Pipariya - Pediatric Gastroenterologist",
    "address": "Jhansi Mauranipur Highway, Near Orchha Tigaila Orchha, Dist, Pratap Pura, Madhya Pradesh",
    "phone": "Dr Divya Pipariya - Pediatric Gastroenterologist",
    "hours": null,
    "image_url": "https://www.bing.com/maps/geoplat/REST/v1/Imagery/Map/RoadVibrant?ms=92,112&key=AnTcaqBi2ypp0xI-OZNi4W_ik2KhjgpqioTAtXLC8GzkMBQRMlyxvxyTnd5b73im&c=en-US&ur=in&da=n&logo=n&fmt=png&od=1&shading=hill&pp=25.416965,78.65126;dfp"
  },
  {
    "name": "Dr Shyam Prasad Mukharji Bus Station",
    "address": "Prachi Studio, Nh12a Mau Road, Dumrau Bhata, Tikamgarh, Madhya Pradesh 472001",
    "phone": "Dr Shyam Prasad Mukharji Bus Station",
    "hours": null,
    "image_url": "https://www.bing.com/maps/geoplat/REST/v1/Imagery/Map/RoadVibrant?ms=92,112&key=AnTcaqBi2ypp0xI-OZNi4W_ik2KhjgpqioTAtXLC8GzkMBQRMlyxvxyTnd5b73im&c=en-US&ur=in&da=n&logo=n&fmt=png&od=1&shading=hill&pp=24.749693,78.853806;dfp"
  },
  {
    "name": "Dr Lal PathLabs - Patient Service Centre",
    "address": "Shop No 14, Jhanshi Road, Kari, Tikamgarh, Madhya Pradesh 472001",
    "phone": "Dr Lal PathLabs - Patient Service Centre",
    "hours": "Open· Closes 19:30",
    "image_url": "https://www.bing.com/maps/geoplat/REST/v1/Imagery/Map/RoadVibrant?ms=92,134&key=AnTcaqBi2ypp0xI-OZNi4W_ik2KhjgpqioTAtXLC8GzkMBQRMlyxvxyTnd5b73im&c=en-US&ur=in&da=n&logo=n&fmt=png&od=1&shading=hill&pp=24.745615,78.832153;dfp"
  },
  {
    "name": "Ocular Clinic Enhancing Vision",
    "address": "Tikamgarh Jhansi Road, Idgah Market, Civil Line, Tikamgarh, Madhya Pradesh 472001",
    "phone": "Ocular Clinic Enhancing Vision",
    "hours": null,
    "image_url": "https://www.bing.com/maps/geoplat/REST/v1/Imagery/Map/RoadVibrant?ms=92,112&key=AnTcaqBi2ypp0xI-OZNi4W_ik2KhjgpqioTAtXLC8GzkMBQRMlyxvxyTnd5b73im&c=en-US&ur=in&da=n&logo=n&fmt=png&od=1&shading=hill&pp=24.751192,78.833008;dfp"
  },
  {
    "name": "Bundelkhand Agri Clinic",
    "address": "House NO 17251, M\\S Bundelkhand Agri Clinic, Vinod Kunj, Chakra Tigela, Tikamgarh, Madhya Pradesh 4720…",
    "phone": "Bundelkhand Agri Clinic",
    "hours": null,
    "image_url": "https://www.bing.com/maps/geoplat/REST/v1/Imagery/Map/RoadVibrant?ms=92,112&key=AnTcaqBi2ypp0xI-OZNi4W_ik2KhjgpqioTAtXLC8GzkMBQRMlyxvxyTnd5b73im&c=en-US&ur=in&da=n&logo=n&fmt=png&od=1&shading=hill&pp=24.74614,78.836472;dfp"
  },
  {
    "name": "Dr Lohiya Computer Laptop Clinic",
    "address": "Lalitpur Naka, Tikamgarh, Madhya Pradesh 472001",
    "phone": "Dr Lohiya Computer Laptop Clinic",
    "hours": null,
    "image_url": "https://www.bing.com/maps/geoplat/REST/v1/Imagery/Map/RoadVibrant?ms=92,112&key=AnTcaqBi2ypp0xI-OZNi4W_ik2KhjgpqioTAtXLC8GzkMBQRMlyxvxyTnd5b73im&c=en-US&ur=in&da=n&logo=n&fmt=png&od=1&shading=hill&pp=24.740967,78.831093;dfp"
  },
  {
    "name": "Kilkari Child Care Clinic",
    "address": "Mp Sh 10, Kundeshwar, Tikamgarh, Madhya Pradesh 472001, India, Tikamgarh, Madhya Pradesh 472001",
    "phone": "Kilkari Child Care Clinic",
    "hours": null,
    "image_url": "https://www.bing.com/maps/geoplat/REST/v1/Imagery/Map/RoadVibrant?ms=92,112&key=AnTcaqBi2ypp0xI-OZNi4W_ik2KhjgpqioTAtXLC8GzkMBQRMlyxvxyTnd5b73im&c=en-US&ur=in&da=n&logo=n&fmt=png&od=1&shading=hill&pp=24.74721,78.846161;dfp"
  },
  {
    "name": "Honey Pathology Lab",
    "address": "Nandishwar Colony, Civil Line, Tikamgarh, Madhya Pradesh",
    "phone": "Honey Pathology Lab",
    "hours": null,
    "image_url": "https://www.bing.com/maps/geoplat/REST/v1/Imagery/Map/RoadVibrant?ms=92,112&key=AnTcaqBi2ypp0xI-OZNi4W_ik2KhjgpqioTAtXLC8GzkMBQRMlyxvxyTnd5b73im&c=en-US&ur=in&da=n&logo=n&fmt=png&od=1&shading=hill&pp=24.758532,78.833733;dfp"
  }
]