[
  {
    "name": "Apollo Clinic , Tinsukia",
    "address": "Nilima Apartment, Rangagora Road, Tinsukia, Assam 786125",
    "phone": "Apollo Clinic , Tinsukia",
    "hours": "Open· Closes 19:30",
    "image_url": "https://www.bing.com/maps/geoplat/REST/v1/Imagery/Map/RoadVibrant?ms=92,134&key=AnTcaqBi2ypp0xI-OZNi4W_ik2KhjgpqioTAtXLC8GzkMBQRMlyxvxyTnd5b73im&c=en-US&ur=in&da=n&logo=n&fmt=png&od=1&shading=hill&pp=27.493401,95.349289;dfp"
  },
  {
    "name": "Dr. Afzal Mohammad Qureshi- General Physician",
    "address": "Patanjali Chikitsalaya, Tulsiram Jalam Road, Tinsukia, Assam 786125",
    "phone": "Dr. Afzal Mohammad Qureshi- General Physician",
    "hours": "Open· Closes 14:00",
    "image_url": "/th?id=OLC.QXiiTsLl%2bzjTzw480x360&w=92&h=134&c=8&rs=1&qlt=80&cdv=1&pid=Local"
  },
  {
    "name": "Dr Rasmita Upadhyaya, MD (Medicine)",
    "address": "Primax, Rangagora Road, Opposite Hotel Jyoti, Tinsukia, Assam 786125",
    "phone": "Dr Rasmita Upadhyaya, MD (Medicine)",
    "hours": "Open· Closes 18:00",
    "image_url": "/th?id=OLC.6w3fDwRLda5IQw480x360&w=92&h=134&c=8&rs=1&qlt=80&cdv=1&pid=Local"
  },
  {
    "name": "Dr. Rahul bagaria | Swastik Hospital",
    "address": "Swastik Hospital Near Naupukhuri, Tinsukia, Assam, India, 786125, Tinsukia, Madhya Pradesh 786125",
    "phone": "Dr. Rahul bagaria | Swastik Hospital",
    "hours": "Closed· Opens 11:00",
    "image_url": "/th?id=OLC.HreRWCswB2Q77A480x360&w=92&h=134&c=8&rs=1&qlt=80&cdv=1&pid=Local"
  },
  {
    "name": "Dr. Rahul Bagaria- Internal Medicine",
    "address": "Nidaan Clinic, Near Ultralab Rangagora Road, Tinsukia, Assam 786125",
    "phone": "Dr. Rahul Bagaria- Internal Medicine",
    "hours": "Closed· Opens 11:00",
    "image_url": "https://www.bing.com/maps/geoplat/REST/v1/Imagery/Map/RoadVibrant?ms=92,134&key=AnTcaqBi2ypp0xI-OZNi4W_ik2KhjgpqioTAtXLC8GzkMBQRMlyxvxyTnd5b73im&c=en-US&ur=in&da=n&logo=n&fmt=png&od=1&shading=hill&pp=27.491949,95.350662;dfp"
  },
  {
    "name": "City Hospital & Research Centre",
    "address": "GNB Road, Tinsukia, Assam 786125",
    "phone": "City Hospital & Research Centre",
    "hours": "Open 24 hours",
    "image_url": "/th?id=OLC.93Sue7cPMYfyyw480x360&w=92&h=134&c=8&rs=1&qlt=80&cdv=1&pid=Local"
  },
  {
    "name": "Dr Ronjon Bhattacharyya Skin and Laser Clinic",
    "address": "Ss Market, Thana Chariali, Rangagora Road, Near Usha Jewellery, Tinsukia, Assam, Assam 786125",
    "phone": "Dr Ronjon Bhattacharyya Skin and Laser Clinic",
    "hours": null,
    "image_url": null
  },
  {
    "name": "Dr. Rupam Paul",
    "address": "R. G. Road, Tinsukia, Assam",
    "phone": "Dr. Rupam Paul",
    "hours": "Open· Closes 13:30",
    "image_url": "https://www.bing.com/maps/geoplat/REST/v1/Imagery/Map/RoadVibrant?ms=92,134&key=AnTcaqBi2ypp0xI-OZNi4W_ik2KhjgpqioTAtXLC8GzkMBQRMlyxvxyTnd5b73im&c=en-US&ur=in&da=n&logo=n&fmt=png&od=1&shading=hill&pp=27.500172,95.342873;dfp"
  },
  {
    "name": "Dr. ARNAB PAUL | Best Cardiologist near me Udyog Nagar Tinsukia",
    "address": "R.C Agarwal Memorial Hospital & Research Centre, Makum Road, Near Thermal Gate, Udyog Nagar, Tinsu…",
    "phone": "Dr. ARNAB PAUL | Best Cardiologist near me Udyog Nagar Tinsukia",
    "hours": null,
    "image_url": "https://www.bing.com/maps/geoplat/REST/v1/Imagery/Map/RoadVibrant?ms=92,112&key=AnTcaqBi2ypp0xI-OZNi4W_ik2KhjgpqioTAtXLC8GzkMBQRMlyxvxyTnd5b73im&c=en-US&ur=in&da=n&logo=n&fmt=png&od=1&shading=hill&pp=27.487509,95.3592;dfp"
  },
  {
    "name": "Dr Vikash Sharma Eye Clinic",
    "address": "Dr Vikash Sharma Eye Clinic Near Ultralab, Rangagora Road, Tinsukia, Assam, Assam 786125",
    "phone": "Dr Vikash Sharma Eye Clinic",
    "hours": "Closed· Opens 13:30",
    "image_url": null
  },
  {
    "name": "Patanjali Chikitsalaya",
    "address": "C/o Dibrugarh Gas Supply, Gurudwara Complex, AT Rd, Dibrugarh, Assam",
    "phone": "Patanjali Chikitsalaya",
    "hours": null,
    "image_url": "https://www.bing.com/maps/geoplat/REST/v1/Imagery/Map/RoadVibrant?ms=92,112&key=AnTcaqBi2ypp0xI-OZNi4W_ik2KhjgpqioTAtXLC8GzkMBQRMlyxvxyTnd5b73im&c=en-US&ur=in&da=n&logo=n&fmt=png&od=1&shading=hill&pp=27.488689,95.364655;dfp"
  },
  {
    "name": "Dr Konwars Homeopathic Clinic",
    "address": "Parbatia Road, Tinsukia, Assam 786154",
    "phone": "Dr Konwars Homeopathic Clinic",
    "hours": null,
    "image_url": "https://www.bing.com/maps/geoplat/REST/v1/Imagery/Map/RoadVibrant?ms=92,112&key=AnTcaqBi2ypp0xI-OZNi4W_ik2KhjgpqioTAtXLC8GzkMBQRMlyxvxyTnd5b73im&c=en-US&ur=in&da=n&logo=n&fmt=png&od=1&shading=hill&pp=27.493851,95.368797;dfp"
  },
  {
    "name": "Dr. Neelutpal Bora",
    "address": "Rani Market. Landmark: Near Atc Mall, Tinsukia, Assam",
    "phone": "Dr. Neelutpal Bora",
    "hours": null,
    "image_url": null
  },
  {
    "name": "Apollo Dialysis Clinics",
    "address": "Tinsukia Civil Hospital, Tinsukia, Assam 786125",
    "phone": "Apollo Dialysis Clinics",
    "hours": "Open· Closes 21:00",
    "image_url": "https://www.bing.com/maps/geoplat/REST/v1/Imagery/Map/RoadVibrant?ms=92,134&key=AnTcaqBi2ypp0xI-OZNi4W_ik2KhjgpqioTAtXLC8GzkMBQRMlyxvxyTnd5b73im&c=en-US&ur=in&da=n&logo=n&fmt=png&od=1&shading=hill&pp=27.498894,95.358742;dfp"
  },
  {
    "name": "H&s Dental And Skin Clinic And Implant Centre",
    "address": "Shashi Complex, Rangagora Rd, Opposite Ultra Lab, Tinsukia, Assam 786125",
    "phone": "H&s Dental And Skin Clinic And Implant Centre",
    "hours": null,
    "image_url": null
  },
  {
    "name": "Dr Lal Pathlabs",
    "address": "Jeevan Jyoti Nursing Home, Parbatia, Tinsukia:786125, Tinsukia, Assam 786125",
    "phone": "Dr Lal Pathlabs",
    "hours": "Open· Closes 19:30",
    "image_url": "https://www.bing.com/maps/geoplat/REST/v1/Imagery/Map/RoadVibrant?ms=92,134&key=AnTcaqBi2ypp0xI-OZNi4W_ik2KhjgpqioTAtXLC8GzkMBQRMlyxvxyTnd5b73im&c=en-US&ur=in&da=n&logo=n&fmt=png&od=1&shading=hill&pp=27.49472,95.369049;dfp"
  },
  {
    "name": "Child Care Clinic",
    "address": "Rangagora Rd, Borguri, Tinsukia, Assam",
    "phone": "Child Care Clinic",
    "hours": null,
    "image_url": "https://www.bing.com/maps/geoplat/REST/v1/Imagery/Map/RoadVibrant?ms=92,112&key=AnTcaqBi2ypp0xI-OZNi4W_ik2KhjgpqioTAtXLC8GzkMBQRMlyxvxyTnd5b73im&c=en-US&ur=in&da=n&logo=n&fmt=png&od=1&shading=hill&pp=27.49058,95.352234;dfp"
  }
]