[
  {
    "name": "Dr S Sravanan Clinic",
    "address": "1/47, Mothilal Street, Tiruvallur, Tamil Nadu 602001",
    "phone": "Dr S Sravanan Clinic",
    "hours": null,
    "image_url": "/th?id=OLC.%2b2P8ttHYBE5Q0Q480x360&w=92&h=112&c=8&rs=1&qlt=80&cdv=1&pid=Local"
  },
  {
    "name": "Dr S Sidha Clinic",
    "address": "Gandhi Road, Tiruvallur, Tamil Nadu 602001",
    "phone": "Dr S Sidha Clinic",
    "hours": null,
    "image_url": "https://www.bing.com/maps/geoplat/REST/v1/Imagery/Map/RoadVibrant?ms=92,112&key=AnTcaqBi2ypp0xI-OZNi4W_ik2KhjgpqioTAtXLC8GzkMBQRMlyxvxyTnd5b73im&c=en-US&ur=in&da=n&logo=n&fmt=png&od=1&shading=hill&pp=13.144494,79.903687;dfp"
  },
  {
    "name": "Dr Gowthaman's Ayurveda Therapy Centre, Thiruvallur Branch",
    "address": "32, Bharadhidasan Street, Thiruvallur, Near Drbccc School, Tiruvallur, Tamil Nadu, Tamil Nadu 602001",
    "phone": "Dr Gowthaman's Ayurveda Therapy Centre, Thiruvallur Branch",
    "hours": null,
    "image_url": "https://www.bing.com/maps/geoplat/REST/v1/Imagery/Map/RoadVibrant?ms=92,112&key=AnTcaqBi2ypp0xI-OZNi4W_ik2KhjgpqioTAtXLC8GzkMBQRMlyxvxyTnd5b73im&c=en-US&ur=in&da=n&logo=n&fmt=png&od=1&shading=hill&pp=13.13581,79.911011;dfp"
  },
  {
    "name": "Dr Anna Durai Clinic",
    "address": "North Raja Street, Tiruvallur, Tamil Nadu 602001",
    "phone": "Dr Anna Durai Clinic",
    "hours": null,
    "image_url": "https://www.bing.com/maps/geoplat/REST/v1/Imagery/Map/RoadVibrant?ms=92,112&key=AnTcaqBi2ypp0xI-OZNi4W_ik2KhjgpqioTAtXLC8GzkMBQRMlyxvxyTnd5b73im&c=en-US&ur=in&da=n&logo=n&fmt=png&od=1&shading=hill&pp=13.145391,79.907372;dfp"
  },
  {
    "name": "Sr Clinic",
    "address": "Kakkalur Tiruvallur Road, Bharathi School, Kakkalur, Tiruvallur, Tamil Nadu 602003",
    "phone": "Sr Clinic",
    "hours": null,
    "image_url": "https://www.bing.com/maps/geoplat/REST/v1/Imagery/Map/RoadVibrant?ms=92,112&key=AnTcaqBi2ypp0xI-OZNi4W_ik2KhjgpqioTAtXLC8GzkMBQRMlyxvxyTnd5b73im&c=en-US&ur=in&da=n&logo=n&fmt=png&od=1&shading=hill&pp=13.124034,79.918289;dfp"
  },
  {
    "name": "Raju Clinic",
    "address": "60 Feet Road, Sbi Bank, V M Nagar, Tiruvallur, Tamil Nadu 602001",
    "phone": "Raju Clinic",
    "hours": null,
    "image_url": "/th?id=OLC.2t3zO4jDC%2fzm0g480x360&w=92&h=112&c=8&rs=1&qlt=80&cdv=1&pid=Local"
  },
  {
    "name": "Bogar Maruthuva Maiyam",
    "address": "Pl.no.66 New M.g.m Nagar Thiruvallur, Tiruvallur, Tamil Nadu, Tamil Nadu 602001",
    "phone": "Bogar Maruthuva Maiyam",
    "hours": null,
    "image_url": null
  },
  {
    "name": "Sunshine Multispeciality Hospital - Neurology and Orthopedic Hospital in Thiruvallur",
    "address": "Plot no 1190, Byepass Road, Ma. Po. Si. Nagar, Kakkalur, Tamil Nadu",
    "phone": "Sunshine Multispeciality Hospital - Neurology and Orthopedic Hospital in Thiruvallur",
    "hours": null,
    "image_url": "https://www.bing.com/maps/geoplat/REST/v1/Imagery/Map/RoadVibrant?ms=92,112&key=AnTcaqBi2ypp0xI-OZNi4W_ik2KhjgpqioTAtXLC8GzkMBQRMlyxvxyTnd5b73im&c=en-US&ur=in&da=n&logo=n&fmt=png&od=1&shading=hill&pp=13.137219,79.913551;dfp"
  },
  {
    "name": "Pooja Clinic",
    "address": "Kakkalur Putlur Road, Sbi Bank, Kakkalur Industrial Estate, Tiruvallur, Tamil Nadu 602003",
    "phone": "Pooja Clinic",
    "hours": null,
    "image_url": "https://www.bing.com/maps/geoplat/REST/v1/Imagery/Map/RoadVibrant?ms=92,112&key=AnTcaqBi2ypp0xI-OZNi4W_ik2KhjgpqioTAtXLC8GzkMBQRMlyxvxyTnd5b73im&c=en-US&ur=in&da=n&logo=n&fmt=png&od=1&shading=hill&pp=13.134173,79.928047;dfp"
  },
  {
    "name": "Vignesh Clinic",
    "address": "Aasari Street, Tiruvallur, Tamil Nadu 602001",
    "phone": "Vignesh Clinic",
    "hours": null,
    "image_url": "https://www.bing.com/maps/geoplat/REST/v1/Imagery/Map/RoadVibrant?ms=92,112&key=AnTcaqBi2ypp0xI-OZNi4W_ik2KhjgpqioTAtXLC8GzkMBQRMlyxvxyTnd5b73im&c=en-US&ur=in&da=n&logo=n&fmt=png&od=1&shading=hill&pp=13.145063,79.908112;dfp"
  },
  {
    "name": "Dr. N. Priyanka (pt)",
    "address": "No:54, S.P.H Road, Manavalanager, Thirvallur, Tiruvallur, Tamil Nadu",
    "phone": "Dr. N. Priyanka (pt)",
    "hours": "Open· Closes 13:00",
    "image_url": null
  },
  {
    "name": "Dr Agarwals Eye Hospital",
    "address": "No 157/14, JN Road, Opposite St Annes Mat Hr Sec School, Tiruvallur, Tamil Nadu 602001",
    "phone": "Dr Agarwals Eye Hospital",
    "hours": "Open· Closes 20:00",
    "image_url": null
  },
  {
    "name": "Dr Lal PathLabs - Patient Service Centre",
    "address": "No 3582, Ward No 11, Mahamayee Bazar, Kavisuryanagar 761104",
    "phone": "Dr Lal PathLabs - Patient Service Centre",
    "hours": null,
    "image_url": "https://www.bing.com/maps/geoplat/REST/v1/Imagery/Map/RoadVibrant?ms=92,112&key=AnTcaqBi2ypp0xI-OZNi4W_ik2KhjgpqioTAtXLC8GzkMBQRMlyxvxyTnd5b73im&c=en-US&ur=in&da=n&logo=n&fmt=png&od=1&shading=hill&pp=13.144765,79.906189;dfp"
  },
  {
    "name": "Janani Agri Clinic",
    "address": "16, Poomalai Vaniga Vallagam, Jn Road, Chennai, Tiruvallur, Tamil Nadu 602001",
    "phone": "Janani Agri Clinic",
    "hours": null,
    "image_url": "https://www.bing.com/maps/geoplat/REST/v1/Imagery/Map/RoadVibrant?ms=92,112&key=AnTcaqBi2ypp0xI-OZNi4W_ik2KhjgpqioTAtXLC8GzkMBQRMlyxvxyTnd5b73im&c=en-US&ur=in&da=n&logo=n&fmt=png&od=1&shading=hill&pp=13.143666,79.893883;dfp"
  },
  {
    "name": "Dr.prabhu Shankar Child Care",
    "address": "Mgm Nagar, Tamil Nadu 602001, India, Tiruvallur, Tamil Nadu 602001",
    "phone": "Dr.prabhu Shankar Child Care",
    "hours": null,
    "image_url": "https://www.bing.com/maps/geoplat/REST/v1/Imagery/Map/RoadVibrant?ms=92,112&key=AnTcaqBi2ypp0xI-OZNi4W_ik2KhjgpqioTAtXLC8GzkMBQRMlyxvxyTnd5b73im&c=en-US&ur=in&da=n&logo=n&fmt=png&od=1&shading=hill&pp=13.145363,79.90387;dfp"
  },
  {
    "name": "Dr. Dilip Kumar C K",
    "address": "1A/12, Cth Road, 89 Vepampet, Chennai - Thiruttani - Renigunta Highway, Tiruvallur, Tamil Nadu",
    "phone": "Dr. Dilip Kumar C K",
    "hours": "Open· Closes 13:00",
    "image_url": "https://www.bing.com/maps/geoplat/REST/v1/Imagery/Map/RoadVibrant?ms=92,112&key=AnTcaqBi2ypp0xI-OZNi4W_ik2KhjgpqioTAtXLC8GzkMBQRMlyxvxyTnd5b73im&c=en-US&ur=in&da=n&logo=n&fmt=png&od=1&shading=hill&pp=13.12509,79.998116;dfp"
  },
  {
    "name": "Dr Lal PathLabs - Patient Service Centre",
    "address": "No 5a, Thiruvalluvar St, Vengathur, Manavalanagar, Tiruvallur, Tamil Nadu 602002",
    "phone": "Dr Lal PathLabs - Patient Service Centre",
    "hours": "Open· Closes 20:00",
    "image_url": "https://www.bing.com/maps/geoplat/REST/v1/Imagery/Map/RoadVibrant?ms=92,134&key=AnTcaqBi2ypp0xI-OZNi4W_ik2KhjgpqioTAtXLC8GzkMBQRMlyxvxyTnd5b73im&c=en-US&ur=in&da=n&logo=n&fmt=png&od=1&shading=hill&pp=13.111148,79.911201;dfp"
  },
  {
    "name": "Dr. Mohanavel.K",
    "address": "48/72b, Poonamalee High Road, Manavalanagar, Thiruvallur, Tiruvallur",
    "phone": "Dr. Mohanavel.K",
    "hours": "Open· Closes 19:00",
    "image_url": "https://www.bing.com/maps/geoplat/REST/v1/Imagery/Map/RoadVibrant?ms=92,112&key=AnTcaqBi2ypp0xI-OZNi4W_ik2KhjgpqioTAtXLC8GzkMBQRMlyxvxyTnd5b73im&c=en-US&ur=in&da=n&logo=n&fmt=png&od=1&shading=hill&pp=13.10947,79.920982;dfp"
  }
]