[
  {
    "name": "Dr. Seetharaman Palpandian- Critical Care In Tirupur",
    "address": "Amc Super Speciality Hospital, 141, Kamaraj Road, Near Palladam Main Road, Old Bus Stand Area, Tirupur, Ta…",
    "phone": "Dr. Seetharaman Palpandian- Critical Care In Tirupur",
    "hours": "Open· Closes 21:00",
    "image_url": "https://www.bing.com/maps/geoplat/REST/v1/Imagery/Map/RoadVibrant?ms=92,134&key=AnTcaqBi2ypp0xI-OZNi4W_ik2KhjgpqioTAtXLC8GzkMBQRMlyxvxyTnd5b73im&c=en-US&ur=in&da=n&logo=n&fmt=png&od=1&shading=hill&pp=11.096316,77.346848;dfp"
  },
  {
    "name": "Chendure clinic",
    "address": "21a, Karanampet Road, Tirupur, Tamil Nadu",
    "phone": "Chendure clinic",
    "hours": null,
    "image_url": "/th?id=OLC.opcK5QbunfmxSA480x360&w=92&h=112&c=8&rs=1&qlt=80&cdv=1&pid=Local"
  },
  {
    "name": "Yazh clinic",
    "address": "bus Stop, 296, Old IOB Building Padhirivedu, Madaharpakkam, Tamil Nadu",
    "phone": "Yazh clinic",
    "hours": null,
    "image_url": "https://www.bing.com/maps/geoplat/REST/v1/Imagery/Map/RoadVibrant?ms=92,112&key=AnTcaqBi2ypp0xI-OZNi4W_ik2KhjgpqioTAtXLC8GzkMBQRMlyxvxyTnd5b73im&c=en-US&ur=in&da=n&logo=n&fmt=png&od=1&shading=hill&pp=11.101675,77.34832;dfp"
  },
  {
    "name": "Almaa Siddha Care Clinic",
    "address": "Sri Kalaivani Agencies, B-9 KM Towers, Kangayam Cross Road, Kottai Mariamman Kovil Arch, Tiruppur, Tamil Na…",
    "phone": "Almaa Siddha Care Clinic",
    "hours": "Open· Closes 19:00",
    "image_url": "/th?id=OLC.NUI5wF8siIqK8Q480x360&w=92&h=134&c=8&rs=1&qlt=80&cdv=1&pid=Local"
  },
  {
    "name": "Sri Prabu Clinic",
    "address": "Pandiyan Nagar 2Nd Street, Kamachiamman Temple, Pandiyan Nagar, Tiruppur, Tamil Nadu 641602",
    "phone": "Sri Prabu Clinic",
    "hours": null,
    "image_url": "/th?id=OLC.MlMOCQDivU%2bjsA480x360&w=92&h=112&c=8&rs=1&qlt=80&cdv=1&pid=Local"
  },
  {
    "name": "Dr. S.Vijay Anand",
    "address": "248, Avinashi Road, Bangalow Stop, Tiruppur, Tamil Nadu",
    "phone": "Dr. S.Vijay Anand",
    "hours": "Open· Closes 14:00",
    "image_url": "https://www.bing.com/maps/geoplat/REST/v1/Imagery/Map/RoadVibrant?ms=92,112&key=AnTcaqBi2ypp0xI-OZNi4W_ik2KhjgpqioTAtXLC8GzkMBQRMlyxvxyTnd5b73im&c=en-US&ur=in&da=n&logo=n&fmt=png&od=1&shading=hill&pp=11.115221,77.33503;dfp"
  },
  {
    "name": "Sri Dhanvanthri Clinic",
    "address": "P N Road Mumoothi Nagar, Tiruppur, Tamil Nadu 641602",
    "phone": "Sri Dhanvanthri Clinic",
    "hours": null,
    "image_url": "https://www.bing.com/maps/geoplat/REST/v1/Imagery/Map/RoadVibrant?ms=92,112&key=AnTcaqBi2ypp0xI-OZNi4W_ik2KhjgpqioTAtXLC8GzkMBQRMlyxvxyTnd5b73im&c=en-US&ur=in&da=n&logo=n&fmt=png&od=1&shading=hill&pp=11.160554,77.349197;dfp"
  },
  {
    "name": "Dr T Bashkar Clinic",
    "address": "Ksc School Road, Old Market Tirupur, Tirupur, Tiruppur, Tamil Nadu 641604",
    "phone": "Dr T Bashkar Clinic",
    "hours": null,
    "image_url": "https://www.bing.com/maps/geoplat/REST/v1/Imagery/Map/RoadVibrant?ms=92,112&key=AnTcaqBi2ypp0xI-OZNi4W_ik2KhjgpqioTAtXLC8GzkMBQRMlyxvxyTnd5b73im&c=en-US&ur=in&da=n&logo=n&fmt=png&od=1&shading=hill&pp=11.097798,77.351685;dfp"
  },
  {
    "name": "Dr. R Arun Kumar | cosmetic surgeon, | Dr. R Arun Kumar's clinic",
    "address": "Dr. R Arun Kumar's Clinic, Tiruppur, Tamil Nadu, India, 641607, Tiruppur, Madhya Pradesh 641607",
    "phone": "Dr. R Arun Kumar | cosmetic surgeon, | Dr. R Arun Kumar's clinic",
    "hours": "Open· Closes 18:00",
    "image_url": null
  },
  {
    "name": "Kumaran Clinic",
    "address": "Kangayam Road, Tamilnadu Municipality Office, Nallur, S Nallur, Tamil Nadu 641606",
    "phone": "Kumaran Clinic",
    "hours": null,
    "image_url": "https://www.bing.com/maps/geoplat/REST/v1/Imagery/Map/RoadVibrant?ms=92,112&key=AnTcaqBi2ypp0xI-OZNi4W_ik2KhjgpqioTAtXLC8GzkMBQRMlyxvxyTnd5b73im&c=en-US&ur=in&da=n&logo=n&fmt=png&od=1&shading=hill&pp=11.097932,77.398514;dfp"
  },
  {
    "name": "Dr A Nagarajan Clinic",
    "address": "Rayapuram Main Road, Rayapuram Bus Stop, Rayapuram, Tiruppur, Tamil Nadu 641601",
    "phone": "Dr A Nagarajan Clinic",
    "hours": null,
    "image_url": "https://www.bing.com/maps/geoplat/REST/v1/Imagery/Map/RoadVibrant?ms=92,112&key=AnTcaqBi2ypp0xI-OZNi4W_ik2KhjgpqioTAtXLC8GzkMBQRMlyxvxyTnd5b73im&c=en-US&ur=in&da=n&logo=n&fmt=png&od=1&shading=hill&pp=11.104751,77.334862;dfp"
  },
  {
    "name": "Dr. Ma Sathya Priya",
    "address": "248, Avinashi Road, Bangalow Stop, Tiruppur, Tamil Nadu",
    "phone": "Dr. Ma Sathya Priya",
    "hours": "Closed· Opens 11:00",
    "image_url": "https://www.bing.com/maps/geoplat/REST/v1/Imagery/Map/RoadVibrant?ms=92,112&key=AnTcaqBi2ypp0xI-OZNi4W_ik2KhjgpqioTAtXLC8GzkMBQRMlyxvxyTnd5b73im&c=en-US&ur=in&da=n&logo=n&fmt=png&od=1&shading=hill&pp=11.115221,77.33503;dfp"
  },
  {
    "name": "Dr. A.Vasanthi",
    "address": "Vazhikatti Mental Health Center and Research Institute, Boyampalayam Pirivu Road, (Near Abhirami Theatre)), …",
    "phone": "Dr. A.Vasanthi",
    "hours": "Closed· Opens tomorrow 10:00",
    "image_url": null
  },
  {
    "name": "Anjenaya Siddha Clinic",
    "address": "43, Aranmanai Pudur Street, Tiruppur, Tamil Nadu 641004",
    "phone": "Anjenaya Siddha Clinic",
    "hours": null,
    "image_url": null
  },
  {
    "name": "Darshan Clinic",
    "address": "Muncipal Office Road, Tiruppur, Tamil Nadu 641604",
    "phone": "Darshan Clinic",
    "hours": null,
    "image_url": "https://www.bing.com/maps/geoplat/REST/v1/Imagery/Map/RoadVibrant?ms=92,112&key=AnTcaqBi2ypp0xI-OZNi4W_ik2KhjgpqioTAtXLC8GzkMBQRMlyxvxyTnd5b73im&c=en-US&ur=in&da=n&logo=n&fmt=png&od=1&shading=hill&pp=11.099385,77.343605;dfp"
  },
  {
    "name": "Care Ortho Hospital",
    "address": "Stanes 4th Cross Road, Tiruppur, Tamil Nadu 641604",
    "phone": "Care Ortho Hospital",
    "hours": null,
    "image_url": null
  },
  {
    "name": "Dr. Mohan's Diabetes Specialities Centre - Tirupur",
    "address": "No. 311/4, First Floor, Avinashi Road Park Avenue, Near Tony & Guy and Keerthilal Jewellers, Kumar Nagar, Tir…",
    "phone": "Dr. Mohan's Diabetes Specialities Centre - Tirupur",
    "hours": "Open· Closes 16:30",
    "image_url": null
  },
  {
    "name": "Dr. Venkatesh Kumar",
    "address": "12 (2), 80 Feet Road, Landmark: Opp. Essar Petrol Bunk, Tiruppur, Tamil Nadu",
    "phone": "Dr. Venkatesh Kumar",
    "hours": "Closed· Opens 16:00",
    "image_url": null
  }
]