[
  {
    "name": "Staar Multi Speciality Hospital",
    "address": "No: 34, 64, Durgai Amman Koil St, Mathalangulam, Tiruvannamalai, Tamil Nadu",
    "phone": "Staar Multi Speciality Hospital",
    "hours": "Open 24 hours",
    "image_url": "/th?id=OLC.pWgBLEBxZgVZUg480x360&w=92&h=134&c=8&rs=1&qlt=80&cdv=1&pid=Local"
  },
  {
    "name": "Dr.Vasool Raja.M.B.B.S",
    "address": "84/96a, Big Street, Tiruvannamalai, Tamil Nadu, Tamil Nadu 606601",
    "phone": "Dr.Vasool Raja.M.B.B.S",
    "hours": null,
    "image_url": "/th?id=OLC.Vvj52p%2fKbSKl7g480x360&w=92&h=112&c=8&rs=1&qlt=80&cdv=1&pid=Local"
  },
  {
    "name": "Bakshi clinic & Drishti Ayur Care",
    "address": "PKN Road(bye Pass Road, 3rd Street, Near Vellai Pillayar Kovil, Bharathi Nagar, Sivakasi, Tamil Nadu",
    "phone": "Bakshi clinic & Drishti Ayur Care",
    "hours": null,
    "image_url": "https://www.bing.com/maps/geoplat/REST/v1/Imagery/Map/RoadVibrant?ms=92,112&key=AnTcaqBi2ypp0xI-OZNi4W_ik2KhjgpqioTAtXLC8GzkMBQRMlyxvxyTnd5b73im&c=en-US&ur=in&da=n&logo=n&fmt=png&od=1&shading=hill&pp=12.232133,79.079384;dfp"
  },
  {
    "name": "Sugam Clinic DR.D.KANAGARAJ. M.D",
    "address": "Vettavalam Rd, Opposite Vijaya Mall, Tiruvennanallur, Tiruvannamalai, Tamil Nadu",
    "phone": "Sugam Clinic DR.D.KANAGARAJ. M.D",
    "hours": null,
    "image_url": "https://www.bing.com/maps/geoplat/REST/v1/Imagery/Map/RoadVibrant?ms=92,112&key=AnTcaqBi2ypp0xI-OZNi4W_ik2KhjgpqioTAtXLC8GzkMBQRMlyxvxyTnd5b73im&c=en-US&ur=in&da=n&logo=n&fmt=png&od=1&shading=hill&pp=12.224666,79.078644;dfp"
  },
  {
    "name": "Ramamoorthy Dr Clinic",
    "address": "45/53, Anna Salai, Tiruvannamalai, Tamil Nadu 606601",
    "phone": "Ramamoorthy Dr Clinic",
    "hours": null,
    "image_url": "https://www.bing.com/maps/geoplat/REST/v1/Imagery/Map/RoadVibrant?ms=92,112&key=AnTcaqBi2ypp0xI-OZNi4W_ik2KhjgpqioTAtXLC8GzkMBQRMlyxvxyTnd5b73im&c=en-US&ur=in&da=n&logo=n&fmt=png&od=1&shading=hill&pp=12.234675,79.075981;dfp"
  },
  {
    "name": "Sriragha Clinic (Dr Srivatsan & Dr Raghapreetha)",
    "address": "1588/257, Thendral Nagar, Vellore, Main Rd, Tiruvannamalai, Tamil Nadu",
    "phone": "Sriragha Clinic (Dr Srivatsan & Dr Raghapreetha)",
    "hours": null,
    "image_url": "https://www.bing.com/maps/geoplat/REST/v1/Imagery/Map/RoadVibrant?ms=92,112&key=AnTcaqBi2ypp0xI-OZNi4W_ik2KhjgpqioTAtXLC8GzkMBQRMlyxvxyTnd5b73im&c=en-US&ur=in&da=n&logo=n&fmt=png&od=1&shading=hill&pp=12.249145,79.071793;dfp"
  },
  {
    "name": "Dr Nagarajan",
    "address": "Periya Street, Tiruvannamalai, Tamil Nadu 606601",
    "phone": "Dr Nagarajan",
    "hours": null,
    "image_url": "https://www.bing.com/maps/geoplat/REST/v1/Imagery/Map/RoadVibrant?ms=92,112&key=AnTcaqBi2ypp0xI-OZNi4W_ik2KhjgpqioTAtXLC8GzkMBQRMlyxvxyTnd5b73im&c=en-US&ur=in&da=n&logo=n&fmt=png&od=1&shading=hill&pp=12.233732,79.069626;dfp"
  },
  {
    "name": "Dr a Karunanithi",
    "address": "136, Tiruvoodal St, Tiruvannamalai, Tamil Nadu 606601",
    "phone": "Dr a Karunanithi",
    "hours": null,
    "image_url": "https://www.bing.com/maps/geoplat/REST/v1/Imagery/Map/RoadVibrant?ms=92,112&key=AnTcaqBi2ypp0xI-OZNi4W_ik2KhjgpqioTAtXLC8GzkMBQRMlyxvxyTnd5b73im&c=en-US&ur=in&da=n&logo=n&fmt=png&od=1&shading=hill&pp=12.230428,79.070694;dfp"
  },
  {
    "name": "Deepam Clinic",
    "address": "Thandrampat Main Road Opposite To Tamari Kulam, Tiruvannamalai, Tamil Nadu, Tamil Nadu 606601",
    "phone": "Deepam Clinic",
    "hours": null,
    "image_url": "https://www.bing.com/maps/geoplat/REST/v1/Imagery/Map/RoadVibrant?ms=92,112&key=AnTcaqBi2ypp0xI-OZNi4W_ik2KhjgpqioTAtXLC8GzkMBQRMlyxvxyTnd5b73im&c=en-US&ur=in&da=n&logo=n&fmt=png&od=1&shading=hill&pp=12.23065,79.072868;dfp"
  },
  {
    "name": "Dr P Tamilmani",
    "address": "Peters Road, Arunachalam Temple, Tiruvannamalai, Tamil Nadu 606601",
    "phone": "Dr P Tamilmani",
    "hours": null,
    "image_url": "https://www.bing.com/maps/geoplat/REST/v1/Imagery/Map/RoadVibrant?ms=92,112&key=AnTcaqBi2ypp0xI-OZNi4W_ik2KhjgpqioTAtXLC8GzkMBQRMlyxvxyTnd5b73im&c=en-US&ur=in&da=n&logo=n&fmt=png&od=1&shading=hill&pp=12.236281,79.07402;dfp"
  },
  {
    "name": "Dr Ramalingam Clinic",
    "address": "Periya Street, Gandhi Nagar, Tiruvannamalai, Tamil Nadu 606601",
    "phone": "Dr Ramalingam Clinic",
    "hours": null,
    "image_url": "https://www.bing.com/maps/geoplat/REST/v1/Imagery/Map/RoadVibrant?ms=92,112&key=AnTcaqBi2ypp0xI-OZNi4W_ik2KhjgpqioTAtXLC8GzkMBQRMlyxvxyTnd5b73im&c=en-US&ur=in&da=n&logo=n&fmt=png&od=1&shading=hill&pp=12.233001,79.065704;dfp"
  },
  {
    "name": "Graceful clinic",
    "address": "212, Sundaram Nagar, Ganesapuram, Tiruvannamalai, Tamil Nadu",
    "phone": "Graceful clinic",
    "hours": null,
    "image_url": "https://www.bing.com/maps/geoplat/REST/v1/Imagery/Map/RoadVibrant?ms=92,112&key=AnTcaqBi2ypp0xI-OZNi4W_ik2KhjgpqioTAtXLC8GzkMBQRMlyxvxyTnd5b73im&c=en-US&ur=in&da=n&logo=n&fmt=png&od=1&shading=hill&pp=12.220781,79.071716;dfp"
  },
  {
    "name": "Tamilmani Doctor P (doctors- Paediatrics )",
    "address": "Mathalankula St, Tiruvannamalai, Tamil Nadu 606601",
    "phone": "Tamilmani Doctor P (doctors- Paediatrics )",
    "hours": null,
    "image_url": "https://www.bing.com/maps/geoplat/REST/v1/Imagery/Map/RoadVibrant?ms=92,112&key=AnTcaqBi2ypp0xI-OZNi4W_ik2KhjgpqioTAtXLC8GzkMBQRMlyxvxyTnd5b73im&c=en-US&ur=in&da=n&logo=n&fmt=png&od=1&shading=hill&pp=12.234867,79.075035;dfp"
  },
  {
    "name": "Dr. Nagarajan- Paediatrics",
    "address": "Dr. Nagarajan G, No. 21, Big Street, Near Boothanarayana Temple, Tiruvannamalai, Tamil Nadu …",
    "phone": "Dr. Nagarajan- Paediatrics",
    "hours": "Open· Closes 16:00",
    "image_url": "https://www.bing.com/maps/geoplat/REST/v1/Imagery/Map/RoadVibrant?ms=92,134&key=AnTcaqBi2ypp0xI-OZNi4W_ik2KhjgpqioTAtXLC8GzkMBQRMlyxvxyTnd5b73im&c=en-US&ur=in&da=n&logo=n&fmt=png&od=1&shading=hill&pp=12.232693,79.066223;dfp"
  },
  {
    "name": "Dr. Inbanesan",
    "address": "Number 22 Big Street, Tiruvannamalai, Tamil Nadu",
    "phone": "Dr. Inbanesan",
    "hours": "Open· Closes 21:00",
    "image_url": null
  },
  {
    "name": "Tamilnadu Neuro & Mind Care",
    "address": "71, Tiruvoodal Street, Tiruvannamalai, Tamil Nadu 606601",
    "phone": "Tamilnadu Neuro & Mind Care",
    "hours": null,
    "image_url": null
  },
  {
    "name": "Usharani Diabetic and General Clinic",
    "address": "91, Tiruvoodal Street, Near Karpaga Vinayagar Temple, Tiruvannamalai, Tamil Nadu 606601",
    "phone": "Usharani Diabetic and General Clinic",
    "hours": null,
    "image_url": null
  },
  {
    "name": "Kottakkal Arya Vaidya Sala",
    "address": "62/39, Abhimukeshwar East, Sami Sannathi St, Kumbakonam",
    "phone": "Kottakkal Arya Vaidya Sala",
    "hours": null,
    "image_url": "https://www.bing.com/maps/geoplat/REST/v1/Imagery/Map/RoadVibrant?ms=92,112&key=AnTcaqBi2ypp0xI-OZNi4W_ik2KhjgpqioTAtXLC8GzkMBQRMlyxvxyTnd5b73im&c=en-US&ur=in&da=n&logo=n&fmt=png&od=1&shading=hill&pp=12.229782,79.076477;dfp"
  }
]