[
  {
    "name": "Dr. J.Harish",
    "address": "17 EVR Road Aruna Nagar Puthur, Tiruchirappalli, Tamil Nadu",
    "phone": "Dr. J.Harish",
    "hours": null,
    "image_url": "https://www.bing.com/maps/geoplat/REST/v1/Imagery/Map/RoadVibrant?ms=92,112&key=AnTcaqBi2ypp0xI-OZNi4W_ik2KhjgpqioTAtXLC8GzkMBQRMlyxvxyTnd5b73im&c=en-US&ur=in&da=n&logo=n&fmt=png&od=1&shading=hill&pp=10.818391,78.67746;dfp"
  },
  {
    "name": "Dr.Meenakshi Sundaram Clinic/Madhura Clinic",
    "address": "38, 1, Bharathidasan Salai, Melapudur, Cantonment, Tamil Nadu 620001",
    "phone": "Dr.Meenakshi Sundaram Clinic/Madhura Clinic",
    "hours": null,
    "image_url": "https://www.bing.com/maps/geoplat/REST/v1/Imagery/Map/RoadVibrant?ms=92,112&key=AnTcaqBi2ypp0xI-OZNi4W_ik2KhjgpqioTAtXLC8GzkMBQRMlyxvxyTnd5b73im&c=en-US&ur=in&da=n&logo=n&fmt=png&od=1&shading=hill&pp=10.804384,78.682671;dfp"
  },
  {
    "name": "Dr. Sujatha K- General Physician in Coimbatore",
    "address": "Dr. Sujatha K, Near Paripoorna Estates, Thillai Nagar, Kovaipudur, Tamil Nadu",
    "phone": "Dr. Sujatha K- General Physician in Coimbatore",
    "hours": null,
    "image_url": "https://www.bing.com/maps/geoplat/REST/v1/Imagery/Map/RoadVibrant?ms=92,112&key=AnTcaqBi2ypp0xI-OZNi4W_ik2KhjgpqioTAtXLC8GzkMBQRMlyxvxyTnd5b73im&c=en-US&ur=in&da=n&logo=n&fmt=png&od=1&shading=hill&pp=10.822827,78.678963;dfp"
  },
  {
    "name": "Dr D Saminathan Clinic",
    "address": "Marsingpet Road, Bhima Nagar, Tiruchirappalli, Tamil Nadu 620001",
    "phone": "Dr D Saminathan Clinic",
    "hours": null,
    "image_url": "https://www.bing.com/maps/geoplat/REST/v1/Imagery/Map/RoadVibrant?ms=92,112&key=AnTcaqBi2ypp0xI-OZNi4W_ik2KhjgpqioTAtXLC8GzkMBQRMlyxvxyTnd5b73im&c=en-US&ur=in&da=n&logo=n&fmt=png&od=1&shading=hill&pp=10.80736,78.690529;dfp"
  },
  {
    "name": "Dr. Arun Geethayan R. A",
    "address": "Apollo Speciality Hospitals Trichy, Chennai By-Pass Road, Near Old Palpannai Tiruchirappalli, Trichy, Tami…",
    "phone": "Dr. Arun Geethayan R. A",
    "hours": "Closed· Opens 11:30",
    "image_url": "https://www.bing.com/maps/geoplat/REST/v1/Imagery/Map/RoadVibrant?ms=92,134&key=AnTcaqBi2ypp0xI-OZNi4W_ik2KhjgpqioTAtXLC8GzkMBQRMlyxvxyTnd5b73im&c=en-US&ur=in&da=n&logo=n&fmt=png&od=1&shading=hill&pp=10.812241,78.695206;dfp"
  },
  {
    "name": "Dr Marinas Clinic",
    "address": "Promenade Road, Melapudur, Tiruchirappalli, Tamil Nadu 620001",
    "phone": "Dr Marinas Clinic",
    "hours": null,
    "image_url": "/th?id=OLC.ge6KdaucKrFtgA480x360&w=92&h=112&c=8&rs=1&qlt=80&cdv=1&pid=Local"
  },
  {
    "name": "Dr. Balasubramanian K - Best Orthopedic Surgeon In Trichy",
    "address": "Chennai By-Pass Road, Near Old Palpannai Tiruchirappalli, Tiruchirappalli, Tamil Nadu 620010",
    "phone": "Dr. Balasubramanian K - Best Orthopedic Surgeon In Trichy",
    "hours": "Open· Closes 18:00",
    "image_url": "https://www.bing.com/maps/geoplat/REST/v1/Imagery/Map/RoadVibrant?ms=92,134&key=AnTcaqBi2ypp0xI-OZNi4W_ik2KhjgpqioTAtXLC8GzkMBQRMlyxvxyTnd5b73im&c=en-US&ur=in&da=n&logo=n&fmt=png&od=1&shading=hill&pp=10.812241,78.695206;dfp"
  },
  {
    "name": "Nivin Clinic",
    "address": "Fathima Puram Road, Kattur, Tiruchirappalli, Tamil Nadu 620019",
    "phone": "Nivin Clinic",
    "hours": null,
    "image_url": null
  },
  {
    "name": "DrBatra's Healthcare Homoeopathy Clinic at Trichy",
    "address": "Bishop Road, Thennur, Tiruchirappalli, Tamil Nadu, Tamil Nadu 620017",
    "phone": "DrBatra's Healthcare Homoeopathy Clinic at Trichy",
    "hours": null,
    "image_url": null
  },
  {
    "name": "Dr. Anand Kannan",
    "address": "Apollo Speciality Hospitals, Old, Palpannai Chennai Bypass Road, Near Old Palpannai, Sarkarpalayam, Tir…",
    "phone": "Dr. Anand Kannan",
    "hours": "Closed· Opens 13:30",
    "image_url": "https://www.bing.com/maps/geoplat/REST/v1/Imagery/Map/RoadVibrant?ms=92,112&key=AnTcaqBi2ypp0xI-OZNi4W_ik2KhjgpqioTAtXLC8GzkMBQRMlyxvxyTnd5b73im&c=en-US&ur=in&da=n&logo=n&fmt=png&od=1&shading=hill&pp=10.812241,78.695206;dfp"
  },
  {
    "name": "Cardiologist Dr Vijay Shekar | Electrophysiologist Doctors in Trichy | Heart Problem | Intervention Cardiologist Trichy",
    "address": "Apollo Specialty Hospital, Ariyamangalam Area, Chennai, Highway, Tiruchirappalli, Tamil Nadu",
    "phone": "Cardiologist Dr Vijay Shekar | Electrophysiologist Doctors in Trichy | Heart Problem | Intervention Cardiologist Trichy",
    "hours": null,
    "image_url": "https://www.bing.com/maps/geoplat/REST/v1/Imagery/Map/RoadVibrant?ms=92,112&key=AnTcaqBi2ypp0xI-OZNi4W_ik2KhjgpqioTAtXLC8GzkMBQRMlyxvxyTnd5b73im&c=en-US&ur=in&da=n&logo=n&fmt=png&od=1&shading=hill&pp=10.799125,78.710205;dfp"
  },
  {
    "name": "Dr. Arivarasan K",
    "address": "No.1, K.C.Road, Tennur, Tiruchirappalli, Tamil Nadu, Tiruchirappalli, Tamil Nadu 620017",
    "phone": "Dr. Arivarasan K",
    "hours": "Open 24 hours",
    "image_url": null
  },
  {
    "name": "Dr.dhananjayan Piles And Fistula Clinic",
    "address": "144, Aameen Complex, Tennur, General Bazzar Street, Tiruchirappalli, Tamil Nadu 620017",
    "phone": "Dr.dhananjayan Piles And Fistula Clinic",
    "hours": null,
    "image_url": "https://www.bing.com/maps/geoplat/REST/v1/Imagery/Map/RoadVibrant?ms=92,112&key=AnTcaqBi2ypp0xI-OZNi4W_ik2KhjgpqioTAtXLC8GzkMBQRMlyxvxyTnd5b73im&c=en-US&ur=in&da=n&logo=n&fmt=png&od=1&shading=hill&pp=10.813666,78.682396;dfp"
  },
  {
    "name": "Ragul Homeo Clinic",
    "address": "Puthur High Road, Puthur, Tiruchirappalli, Tamil Nadu 620017",
    "phone": "Ragul Homeo Clinic",
    "hours": null,
    "image_url": "https://www.bing.com/maps/geoplat/REST/v1/Imagery/Map/RoadVibrant?ms=92,112&key=AnTcaqBi2ypp0xI-OZNi4W_ik2KhjgpqioTAtXLC8GzkMBQRMlyxvxyTnd5b73im&c=en-US&ur=in&da=n&logo=n&fmt=png&od=1&shading=hill&pp=10.815884,78.677315;dfp"
  },
  {
    "name": "Dr.Raj Diabetes Center",
    "address": "3 A/1.Collector Office Road, Raja Colony, Cantonment, Tiruchirappalli, Tamil Nadu, Tamil Nadu 620001",
    "phone": "Dr.Raj Diabetes Center",
    "hours": "Open· Closes 21:00",
    "image_url": "https://www.bing.com/maps/geoplat/REST/v1/Imagery/Map/RoadVibrant?ms=92,112&key=AnTcaqBi2ypp0xI-OZNi4W_ik2KhjgpqioTAtXLC8GzkMBQRMlyxvxyTnd5b73im&c=en-US&ur=in&da=n&logo=n&fmt=png&od=1&shading=hill&pp=10.80328,78.676353;clcp"
  },
  {
    "name": "SMK Clinic",
    "address": "Vayalur Road, Somarasempettai, Trichy, Tamil Nadu 620102",
    "phone": "SMK Clinic",
    "hours": null,
    "image_url": "https://www.bing.com/maps/geoplat/REST/v1/Imagery/Map/RoadVibrant?ms=92,112&key=AnTcaqBi2ypp0xI-OZNi4W_ik2KhjgpqioTAtXLC8GzkMBQRMlyxvxyTnd5b73im&c=en-US&ur=in&da=n&logo=n&fmt=png&od=1&shading=hill&pp=10.812441,78.632622;dfp"
  },
  {
    "name": "Dr. Elavarasan",
    "address": "Thiruvalluvar Avenue, Bikshandar Kovil, 1, Tolgate, Tiruchirappalli, Tamil Nadu",
    "phone": "Dr. Elavarasan",
    "hours": "Closed· Opens 18:00",
    "image_url": "https://www.bing.com/maps/geoplat/REST/v1/Imagery/Map/RoadVibrant?ms=92,112&key=AnTcaqBi2ypp0xI-OZNi4W_ik2KhjgpqioTAtXLC8GzkMBQRMlyxvxyTnd5b73im&c=en-US&ur=in&da=n&logo=n&fmt=png&od=1&shading=hill&pp=10.876002,78.707344;dfp"
  },
  {
    "name": "Trichy Skin And Laser Clinic",
    "address": "Victoria Road, Uraiyoor, Tiruchirappalli, Tamil Nadu 620003",
    "phone": "Trichy Skin And Laser Clinic",
    "hours": null,
    "image_url": null
  }
]