[
  {
    "name": "Dr. Megala- General Physician In Tirunelveli",
    "address": "Megala Clinic Tirunelveli Shankar Road, Main Road, Mira Road, Tamil Nadu",
    "phone": "Dr. Megala- General Physician In Tirunelveli",
    "hours": null,
    "image_url": "https://www.bing.com/maps/geoplat/REST/v1/Imagery/Map/RoadVibrant?ms=92,112&key=AnTcaqBi2ypp0xI-OZNi4W_ik2KhjgpqioTAtXLC8GzkMBQRMlyxvxyTnd5b73im&c=en-US&ur=in&da=n&logo=n&fmt=png&od=1&shading=hill&pp=8.72567,77.706352;dfp"
  },
  {
    "name": "Shifa Hospital",
    "address": "82, Near Junction Flyover, Kailashapuram Middle Street, Tirunelveli Junction, Tirunelveli, Tamil Nadu 627001",
    "phone": "Shifa Hospital",
    "hours": null,
    "image_url": "/th?id=OLC.5LvHElJkg8uUjg480x360&w=92&h=112&c=8&rs=1&qlt=80&cdv=1&pid=Local"
  },
  {
    "name": "Dr. KANKANA KALRA",
    "address": "1ST Floor SN High Road, Tirunelveli, Tamil Nadu 627001",
    "phone": "Dr. KANKANA KALRA",
    "hours": null,
    "image_url": "https://www.bing.com/maps/geoplat/REST/v1/Imagery/Map/RoadVibrant?ms=92,112&key=AnTcaqBi2ypp0xI-OZNi4W_ik2KhjgpqioTAtXLC8GzkMBQRMlyxvxyTnd5b73im&c=en-US&ur=in&da=n&logo=n&fmt=png&od=1&shading=hill&pp=8.728937,77.702843;dfp"
  },
  {
    "name": "Madhu Bala Dr M Clinic",
    "address": "Madurai Road, Tirunelveli, Tamil Nadu 627001",
    "phone": "Madhu Bala Dr M Clinic",
    "hours": null,
    "image_url": "https://www.bing.com/maps/geoplat/REST/v1/Imagery/Map/RoadVibrant?ms=92,112&key=AnTcaqBi2ypp0xI-OZNi4W_ik2KhjgpqioTAtXLC8GzkMBQRMlyxvxyTnd5b73im&c=en-US&ur=in&da=n&logo=n&fmt=png&od=1&shading=hill&pp=8.750686,77.703621;dfp"
  },
  {
    "name": "Lakshmi Madhavan Hospital",
    "address": "No 4A South Byepass Road Vannarpettai Tirunelveli, Tamil Nadu 627003",
    "phone": "Lakshmi Madhavan Hospital",
    "hours": null,
    "image_url": "/th?id=OLC.s87XDe46bx8O3A480x360&w=92&h=112&c=8&rs=1&qlt=80&cdv=1&pid=Local"
  },
  {
    "name": "Dr Selvasekaran Clinic",
    "address": "15, Trivandrum Rd, Murugankurichi, Tirunelveli-2, Palayamkottai, Tirunelveli, Tamil Nadu",
    "phone": "Dr Selvasekaran Clinic",
    "hours": null,
    "image_url": "https://www.bing.com/maps/geoplat/REST/v1/Imagery/Map/RoadVibrant?ms=92,112&key=AnTcaqBi2ypp0xI-OZNi4W_ik2KhjgpqioTAtXLC8GzkMBQRMlyxvxyTnd5b73im&c=en-US&ur=in&da=n&logo=n&fmt=png&od=1&shading=hill&pp=8.721995,77.731674;dfp"
  },
  {
    "name": "Ram Swarna Clinic",
    "address": "Madurai Road, Near Thachanallur, Tirunelveli, Tamil Nadu 627001",
    "phone": "Ram Swarna Clinic",
    "hours": null,
    "image_url": "https://www.bing.com/maps/geoplat/REST/v1/Imagery/Map/RoadVibrant?ms=92,112&key=AnTcaqBi2ypp0xI-OZNi4W_ik2KhjgpqioTAtXLC8GzkMBQRMlyxvxyTnd5b73im&c=en-US&ur=in&da=n&logo=n&fmt=png&od=1&shading=hill&pp=8.746588,77.701836;dfp"
  },
  {
    "name": "Three Best Rated",
    "address": "N Bypass, Tirunelveli, Tamil Nadu 627003",
    "phone": "Three Best Rated",
    "hours": "Closed· Opens 14:00",
    "image_url": "https://www.bing.com/maps/geoplat/REST/v1/Imagery/Map/RoadVibrant?ms=92,134&key=AnTcaqBi2ypp0xI-OZNi4W_ik2KhjgpqioTAtXLC8GzkMBQRMlyxvxyTnd5b73im&c=en-US&ur=in&da=n&logo=n&fmt=png&od=1&shading=hill&pp=8.729081,77.723473;dfp"
  },
  {
    "name": "Eben Stephen Raj Dr Clinic",
    "address": "6a, Middle Street, Tirunelveli, Tamil Nadu 627859",
    "phone": "Eben Stephen Raj Dr Clinic",
    "hours": null,
    "image_url": "https://www.bing.com/maps/geoplat/REST/v1/Imagery/Map/RoadVibrant?ms=92,112&key=AnTcaqBi2ypp0xI-OZNi4W_ik2KhjgpqioTAtXLC8GzkMBQRMlyxvxyTnd5b73im&c=en-US&ur=in&da=n&logo=n&fmt=png&od=1&shading=hill&pp=8.72756,77.711739;dfp"
  },
  {
    "name": "Jayaramakrishnan Dr T Clinic",
    "address": "5, 5, 5 Jeyanagar Maharaja Nagar, Tirunelveli, Tamil Nadu 627011",
    "phone": "Jayaramakrishnan Dr T Clinic",
    "hours": null,
    "image_url": "https://www.bing.com/maps/geoplat/REST/v1/Imagery/Map/RoadVibrant?ms=92,112&key=AnTcaqBi2ypp0xI-OZNi4W_ik2KhjgpqioTAtXLC8GzkMBQRMlyxvxyTnd5b73im&c=en-US&ur=in&da=n&logo=n&fmt=png&od=1&shading=hill&pp=8.705504,77.756905;dfp"
  },
  {
    "name": "Krishna Hospitals",
    "address": "North Highground Road 4, Tirunelveli, Tamil Nadu 627002",
    "phone": "Krishna Hospitals",
    "hours": null,
    "image_url": null
  },
  {
    "name": "Sakuntala Dr S Clinic",
    "address": "No 22, North Street Sindupoondurai, Tirunelveli, Tamil Nadu 627001",
    "phone": "Sakuntala Dr S Clinic",
    "hours": null,
    "image_url": "https://www.bing.com/maps/geoplat/REST/v1/Imagery/Map/RoadVibrant?ms=92,112&key=AnTcaqBi2ypp0xI-OZNi4W_ik2KhjgpqioTAtXLC8GzkMBQRMlyxvxyTnd5b73im&c=en-US&ur=in&da=n&logo=n&fmt=png&od=1&shading=hill&pp=8.748068,77.707016;dfp"
  },
  {
    "name": "Meera Clinic",
    "address": "Trichandar Main Road, Near Barch, Krishnapuram, Tirunelveli, Tamil Nadu",
    "phone": "Meera Clinic",
    "hours": null,
    "image_url": null
  },
  {
    "name": "Dr. Mahalakshmi Saravanan",
    "address": "489, Trivandrum High Road, Tirunelveli, Tamil Nadu",
    "phone": "Dr. Mahalakshmi Saravanan",
    "hours": "Open· Closes 17:00",
    "image_url": "https://www.bing.com/maps/geoplat/REST/v1/Imagery/Map/RoadVibrant?ms=92,112&key=AnTcaqBi2ypp0xI-OZNi4W_ik2KhjgpqioTAtXLC8GzkMBQRMlyxvxyTnd5b73im&c=en-US&ur=in&da=n&logo=n&fmt=png&od=1&shading=hill&pp=8.68147,77.723701;dfp"
  },
  {
    "name": "Dr N S Balakrishna Clinic",
    "address": "Madurai Road, Balabagya Nagar North, Tirunelveli, Tamil Nadu 627001",
    "phone": "Dr N S Balakrishna Clinic",
    "hours": null,
    "image_url": "https://www.bing.com/maps/geoplat/REST/v1/Imagery/Map/RoadVibrant?ms=92,112&key=AnTcaqBi2ypp0xI-OZNi4W_ik2KhjgpqioTAtXLC8GzkMBQRMlyxvxyTnd5b73im&c=en-US&ur=in&da=n&logo=n&fmt=png&od=1&shading=hill&pp=8.743692,77.710426;dfp"
  },
  {
    "name": "Dr Ajay Prakaash T R - Nivetha Child Health Clinic",
    "address": "Noor House, 23, Trivandrum Rd, Murugankurichi, Palayamkottai, Tirunelveli, Tamil Nadu",
    "phone": "Dr Ajay Prakaash T R - Nivetha Child Health Clinic",
    "hours": null,
    "image_url": null
  },
  {
    "name": "Anandhi Piles and Fistula Clinic",
    "address": "15\\12, J.P Bose Complex, Perumal West Car Street, Tirunelveli, Tamil Nadu 627001",
    "phone": "Anandhi Piles and Fistula Clinic",
    "hours": "Open· Closes 14:00",
    "image_url": null
  },
  {
    "name": "Nivya Respiratory Clinic",
    "address": "Barani Nagar, Tirunelveli, Tamil Nadu 627003, India, Tirunelveli, Tamil Nadu 627003",
    "phone": "Nivya Respiratory Clinic",
    "hours": null,
    "image_url": null
  }
]