[
  {
    "name": "Suresh Kumar Clinic",
    "address": "S23 Mayiladuthurai Thiruthuraipoondi Road, Thiruvarur, Tamil Nadu 610001",
    "phone": "Suresh Kumar Clinic",
    "hours": null,
    "image_url": "https://www.bing.com/maps/geoplat/REST/v1/Imagery/Map/RoadVibrant?ms=92,112&key=AnTcaqBi2ypp0xI-OZNi4W_ik2KhjgpqioTAtXLC8GzkMBQRMlyxvxyTnd5b73im&c=en-US&ur=in&da=n&logo=n&fmt=png&od=1&shading=hill&pp=10.777336,79.634743;dfp"
  },
  {
    "name": "T Unnamalai Clinic",
    "address": "Sh23, West Street Road, Thiruvarur, Tamil Nadu 610001",
    "phone": "T Unnamalai Clinic",
    "hours": null,
    "image_url": "https://www.bing.com/maps/geoplat/REST/v1/Imagery/Map/RoadVibrant?ms=92,112&key=AnTcaqBi2ypp0xI-OZNi4W_ik2KhjgpqioTAtXLC8GzkMBQRMlyxvxyTnd5b73im&c=en-US&ur=in&da=n&logo=n&fmt=png&od=1&shading=hill&pp=10.774237,79.636742;dfp"
  },
  {
    "name": "Sri Revathi Siddha Clinic",
    "address": "Sh202, Thiruvarur Mannargudi Muthupet Road, Vilamal, Thiruvarur, Tamil Nadu 610001",
    "phone": "Sri Revathi Siddha Clinic",
    "hours": null,
    "image_url": "https://www.bing.com/maps/geoplat/REST/v1/Imagery/Map/RoadVibrant?ms=92,112&key=AnTcaqBi2ypp0xI-OZNi4W_ik2KhjgpqioTAtXLC8GzkMBQRMlyxvxyTnd5b73im&c=en-US&ur=in&da=n&logo=n&fmt=png&od=1&shading=hill&pp=10.774761,79.617287;dfp"
  },
  {
    "name": "S N Ganesh Clinic",
    "address": "Sh23, Thiruvarur Road, Pulivalam, Thiruvarur, Tamil Nadu 610109",
    "phone": "S N Ganesh Clinic",
    "hours": null,
    "image_url": "https://www.bing.com/maps/geoplat/REST/v1/Imagery/Map/RoadVibrant?ms=92,112&key=AnTcaqBi2ypp0xI-OZNi4W_ik2KhjgpqioTAtXLC8GzkMBQRMlyxvxyTnd5b73im&c=en-US&ur=in&da=n&logo=n&fmt=png&od=1&shading=hill&pp=10.753219,79.635803;dfp"
  },
  {
    "name": "Dr.Ansari Ortho Speciality Clinic",
    "address": "No 78 Bismi Medical Centre, South Main Street, Thiruvarur, Tiruvarur, Tamil Nadu 610002, Thiruvarur, T…",
    "phone": "Dr.Ansari Ortho Speciality Clinic",
    "hours": null,
    "image_url": "https://www.bing.com/maps/geoplat/REST/v1/Imagery/Map/RoadVibrant?ms=92,112&key=AnTcaqBi2ypp0xI-OZNi4W_ik2KhjgpqioTAtXLC8GzkMBQRMlyxvxyTnd5b73im&c=en-US&ur=in&da=n&logo=n&fmt=png&od=1&shading=hill&pp=10.773634,79.635857;dfp"
  },
  {
    "name": "Dr Thirumalai Psychiatrist Thiruvarur",
    "address": "Thiruvarur - Kumbakonam Rd, Madappuram, Thiruvarur, Tamil Nadu",
    "phone": "Dr Thirumalai Psychiatrist Thiruvarur",
    "hours": null,
    "image_url": "https://www.bing.com/maps/geoplat/REST/v1/Imagery/Map/RoadVibrant?ms=92,112&key=AnTcaqBi2ypp0xI-OZNi4W_ik2KhjgpqioTAtXLC8GzkMBQRMlyxvxyTnd5b73im&c=en-US&ur=in&da=n&logo=n&fmt=png&od=1&shading=hill&pp=10.773215,79.636589;dfp"
  },
  {
    "name": "Dr T Jayakumari Hospital",
    "address": "Nh67, Nagapattinam Coimbatore Gundlupet Highway, Adiyakamangalam, Thiruvarur, Tamil Nadu 611101",
    "phone": "Dr T Jayakumari Hospital",
    "hours": null,
    "image_url": "https://www.bing.com/maps/geoplat/REST/v1/Imagery/Map/RoadVibrant?ms=92,112&key=AnTcaqBi2ypp0xI-OZNi4W_ik2KhjgpqioTAtXLC8GzkMBQRMlyxvxyTnd5b73im&c=en-US&ur=in&da=n&logo=n&fmt=png&od=1&shading=hill&pp=10.765113,79.67627;dfp"
  },
  {
    "name": "Dr NMI Sahul Clinic",
    "address": "Nh67, Nagapattinam Coimbatore Gundlupet Highway, Adiyakamangalam, Thiruvarur, Tamil Nadu 611101",
    "phone": "Dr NMI Sahul Clinic",
    "hours": null,
    "image_url": "https://www.bing.com/maps/geoplat/REST/v1/Imagery/Map/RoadVibrant?ms=92,112&key=AnTcaqBi2ypp0xI-OZNi4W_ik2KhjgpqioTAtXLC8GzkMBQRMlyxvxyTnd5b73im&c=en-US&ur=in&da=n&logo=n&fmt=png&od=1&shading=hill&pp=10.763789,79.683403;dfp"
  },
  {
    "name": "Tharanika Clinic",
    "address": "Sh23, Thiruvarur Road, Mangudi, Thiruvarur, Tamil Nadu 610103",
    "phone": "Tharanika Clinic",
    "hours": null,
    "image_url": "https://www.bing.com/maps/geoplat/REST/v1/Imagery/Map/RoadVibrant?ms=92,112&key=AnTcaqBi2ypp0xI-OZNi4W_ik2KhjgpqioTAtXLC8GzkMBQRMlyxvxyTnd5b73im&c=en-US&ur=in&da=n&logo=n&fmt=png&od=1&shading=hill&pp=10.727225,79.629974;dfp"
  },
  {
    "name": "Babu Clinic",
    "address": "Sh202, Thiruvarur Mannargudi Muthupet Road, Koothanallur, Nannilam, Tamil Nadu 614102",
    "phone": "Babu Clinic",
    "hours": null,
    "image_url": "https://www.bing.com/maps/geoplat/REST/v1/Imagery/Map/RoadVibrant?ms=92,112&key=AnTcaqBi2ypp0xI-OZNi4W_ik2KhjgpqioTAtXLC8GzkMBQRMlyxvxyTnd5b73im&c=en-US&ur=in&da=n&logo=n&fmt=png&od=1&shading=hill&pp=10.758533,79.596222;dfp"
  },
  {
    "name": "மனநலம் Dr thiruvarur",
    "address": "Main Road, Thiruvarur, Tamil Nadu 610003",
    "phone": "மனநலம் Dr thiruvarur",
    "hours": "Open 24 hours",
    "image_url": "https://www.bing.com/maps/geoplat/REST/v1/Imagery/Map/RoadVibrant?ms=92,134&key=AnTcaqBi2ypp0xI-OZNi4W_ik2KhjgpqioTAtXLC8GzkMBQRMlyxvxyTnd5b73im&c=en-US&ur=in&da=n&logo=n&fmt=png&od=1&shading=hill&pp=10.783676,79.612518;dfp"
  },
  {
    "name": "R P Chitra Clinic",
    "address": "Nh67, Nagappattinam Thiruvarur Thanjavur Trichy Highway, Ammaiyappan, Nannilam, Tamil Nadu 613701",
    "phone": "R P Chitra Clinic",
    "hours": null,
    "image_url": "https://www.bing.com/maps/geoplat/REST/v1/Imagery/Map/RoadVibrant?ms=92,112&key=AnTcaqBi2ypp0xI-OZNi4W_ik2KhjgpqioTAtXLC8GzkMBQRMlyxvxyTnd5b73im&c=en-US&ur=in&da=n&logo=n&fmt=png&od=1&shading=hill&pp=10.789448,79.571136;dfp"
  },
  {
    "name": "Selvaraj Clinic",
    "address": "Sh23, Thiruvarur Road, Mavoor, Thiruvarur, Tamil Nadu 610202",
    "phone": "Selvaraj Clinic",
    "hours": null,
    "image_url": "https://www.bing.com/maps/geoplat/REST/v1/Imagery/Map/RoadVibrant?ms=92,112&key=AnTcaqBi2ypp0xI-OZNi4W_ik2KhjgpqioTAtXLC8GzkMBQRMlyxvxyTnd5b73im&c=en-US&ur=in&da=n&logo=n&fmt=png&od=1&shading=hill&pp=10.682391,79.646896;dfp"
  },
  {
    "name": "V K Ayurveda Hospital",
    "address": "2 VK Ayurveda Hospital 1 Kamalalayam South Bank, Tiruvarur, Tamil Nadu 610001",
    "phone": "V K Ayurveda Hospital",
    "hours": null,
    "image_url": null
  },
  {
    "name": "Mother Diagnostic Center",
    "address": "Thiruvarur Pandian Grama Bank, Sh 23/Panagal Road, Thiruvarur, Tamil Nadu 610001",
    "phone": "Mother Diagnostic Center",
    "hours": null,
    "image_url": "https://www.bing.com/maps/geoplat/REST/v1/Imagery/Map/RoadVibrant?ms=92,112&key=AnTcaqBi2ypp0xI-OZNi4W_ik2KhjgpqioTAtXLC8GzkMBQRMlyxvxyTnd5b73im&c=en-US&ur=in&da=n&logo=n&fmt=png&od=1&shading=hill&pp=10.77726,79.617363;dfp"
  },
  {
    "name": "Velumathi Homoeo Clinic",
    "address": "152, Police Street, Lakshmangudi, Marakkadai, Thiruvarur, Tamil Nadu 614102",
    "phone": "Velumathi Homoeo Clinic",
    "hours": "Open· Closes 14:00",
    "image_url": null
  },
  {
    "name": "Nakshatra Skin and Surgery Clinic",
    "address": "46 a, East Street, Thanjai Salai, Vasan Nagar, Pulivalam, Thiruvarur, Tamil Nadu",
    "phone": "Nakshatra Skin and Surgery Clinic",
    "hours": null,
    "image_url": "https://www.bing.com/maps/geoplat/REST/v1/Imagery/Map/RoadVibrant?ms=92,112&key=AnTcaqBi2ypp0xI-OZNi4W_ik2KhjgpqioTAtXLC8GzkMBQRMlyxvxyTnd5b73im&c=en-US&ur=in&da=n&logo=n&fmt=png&od=1&shading=hill&pp=10.661043,79.459618;dfp"
  },
  {
    "name": "Dr Agarwals Eye Clinic",
    "address": "Door No 44, Ward No 20, Maha Mariammal Kovil Street, Mannargudi, Near GH, Thiruvarur, Tamil Nadu 614016",
    "phone": "Dr Agarwals Eye Clinic",
    "hours": "Open· Closes 20:00",
    "image_url": "https://www.bing.com/maps/geoplat/REST/v1/Imagery/Map/RoadVibrant?ms=92,134&key=AnTcaqBi2ypp0xI-OZNi4W_ik2KhjgpqioTAtXLC8GzkMBQRMlyxvxyTnd5b73im&c=en-US&ur=in&da=n&logo=n&fmt=png&od=1&shading=hill&pp=10.663008,79.453049;dfp"
  }
]