[
  {
    "name": "Rakesh Clinic",
    "address": "Near Baba Ramdev Temple, Annapurna Dungari, Bambor Road, Tonk, Rajasthan, Rajasthan 304001",
    "phone": "Rakesh Clinic",
    "hours": null,
    "image_url": "/th?id=OLC.twfxo9nl5K57qg480x360&w=92&h=112&c=8&rs=1&qlt=80&cdv=1&pid=Local"
  },
  {
    "name": "Dr. Om Prakash | Cancer Care",
    "address": "Bisalpur Colony, Sawai Madhopur Rd, City, Tonk, Rajasthan",
    "phone": "Dr. Om Prakash | Cancer Care",
    "hours": null,
    "image_url": "https://www.bing.com/maps/geoplat/REST/v1/Imagery/Map/RoadVibrant?ms=92,112&key=AnTcaqBi2ypp0xI-OZNi4W_ik2KhjgpqioTAtXLC8GzkMBQRMlyxvxyTnd5b73im&c=en-US&ur=in&da=n&logo=n&fmt=png&od=1&shading=hill&pp=26.155045,75.785667;dfp"
  },
  {
    "name": "Krishna Clinic and Health Care",
    "address": "Pili Talai, Swai Madhopur Road, Tonk, Rajasthan 304001",
    "phone": "Krishna Clinic and Health Care",
    "hours": null,
    "image_url": "https://www.bing.com/maps/geoplat/REST/v1/Imagery/Map/RoadVibrant?ms=92,112&key=AnTcaqBi2ypp0xI-OZNi4W_ik2KhjgpqioTAtXLC8GzkMBQRMlyxvxyTnd5b73im&c=en-US&ur=in&da=n&logo=n&fmt=png&od=1&shading=hill&pp=26.155643,75.785233;dfp"
  },
  {
    "name": "Ayurvedic Hospital",
    "address": "Yousuf Pura Charai Tonk, Tonk City, Rajasthan, Rajasthan 304001",
    "phone": "Ayurvedic Hospital",
    "hours": null,
    "image_url": "/th?id=OLC.qsys5pj7dFhpEw480x360&w=92&h=112&c=8&rs=1&qlt=80&cdv=1&pid=Local"
  },
  {
    "name": "Dr. Nikhil Choudhary : NH cardiologist and Heart Specialist",
    "address": "Vikas Medical Mehendi Bagh, Tonk, Rajasthan 304001",
    "phone": "Dr. Nikhil Choudhary : NH cardiologist and Heart Specialist",
    "hours": "Open· Closes 17:00",
    "image_url": "https://www.bing.com/maps/geoplat/REST/v1/Imagery/Map/RoadVibrant?ms=92,134&key=AnTcaqBi2ypp0xI-OZNi4W_ik2KhjgpqioTAtXLC8GzkMBQRMlyxvxyTnd5b73im&c=en-US&ur=in&da=n&logo=n&fmt=png&od=1&shading=hill&pp=26.173889,75.785828;dfp"
  },
  {
    "name": "Life Care Clinic",
    "address": "City Road, Tonk, Rajasthan 304001",
    "phone": "Life Care Clinic",
    "hours": null,
    "image_url": "https://www.bing.com/maps/geoplat/REST/v1/Imagery/Map/RoadVibrant?ms=92,112&key=AnTcaqBi2ypp0xI-OZNi4W_ik2KhjgpqioTAtXLC8GzkMBQRMlyxvxyTnd5b73im&c=en-US&ur=in&da=n&logo=n&fmt=png&od=1&shading=hill&pp=26.165586,75.790031;dfp"
  },
  {
    "name": "Om Clinic",
    "address": "Goyal Trader, Panch Batti, Tonk, Rajasthan 304001",
    "phone": "Om Clinic",
    "hours": null,
    "image_url": "https://www.bing.com/maps/geoplat/REST/v1/Imagery/Map/RoadVibrant?ms=92,112&key=AnTcaqBi2ypp0xI-OZNi4W_ik2KhjgpqioTAtXLC8GzkMBQRMlyxvxyTnd5b73im&c=en-US&ur=in&da=n&logo=n&fmt=png&od=1&shading=hill&pp=26.168619,75.784653;dfp"
  },
  {
    "name": "Ram Clinic",
    "address": "Dhuan Kala, Tonk Road, Tonk, Rajasthan 304001",
    "phone": "Ram Clinic",
    "hours": null,
    "image_url": "https://www.bing.com/maps/geoplat/REST/v1/Imagery/Map/RoadVibrant?ms=92,112&key=AnTcaqBi2ypp0xI-OZNi4W_ik2KhjgpqioTAtXLC8GzkMBQRMlyxvxyTnd5b73im&c=en-US&ur=in&da=n&logo=n&fmt=png&od=1&shading=hill&pp=26.168297,75.805588;dfp"
  },
  {
    "name": "Dr. Anshu Kabra | Best Cardiologist  | Narayana Hospital",
    "address": "Sumit Medical, Subhash Bazar, Tonk, Rajasthan 304001",
    "phone": "Dr. Anshu Kabra | Best Cardiologist  | Narayana Hospital",
    "hours": "Closed· Opens Wed 11:00",
    "image_url": "https://www.bing.com/maps/geoplat/REST/v1/Imagery/Map/RoadVibrant?ms=92,134&key=AnTcaqBi2ypp0xI-OZNi4W_ik2KhjgpqioTAtXLC8GzkMBQRMlyxvxyTnd5b73im&c=en-US&ur=in&da=n&logo=n&fmt=png&od=1&shading=hill&pp=26.171886,75.787201;dfp"
  },
  {
    "name": "Dr. Vidha Saxena & Pramod Saxena",
    "address": "2/34, Saket Nagar Housing Board, Saket Nagar, Beawar, Rajasthan",
    "phone": "Dr. Vidha Saxena & Pramod Saxena",
    "hours": null,
    "image_url": "https://www.bing.com/maps/geoplat/REST/v1/Imagery/Map/RoadVibrant?ms=92,112&key=AnTcaqBi2ypp0xI-OZNi4W_ik2KhjgpqioTAtXLC8GzkMBQRMlyxvxyTnd5b73im&c=en-US&ur=in&da=n&logo=n&fmt=png&od=1&shading=hill&pp=26.16861,75.801071;dfp"
  },
  {
    "name": "Jiyyo Mitra™ e-Clinic (Hariom Medical Store)",
    "address": "Near Masjid, Shobhasar, Rajasthan",
    "phone": "Jiyyo Mitra™ e-Clinic (Hariom Medical Store)",
    "hours": null,
    "image_url": "https://www.bing.com/maps/geoplat/REST/v1/Imagery/Map/RoadVibrant?ms=92,112&key=AnTcaqBi2ypp0xI-OZNi4W_ik2KhjgpqioTAtXLC8GzkMBQRMlyxvxyTnd5b73im&c=en-US&ur=in&da=n&logo=n&fmt=png&od=1&shading=hill&pp=26.166807,75.786331;dfp"
  },
  {
    "name": "Dr.Shankar's Homoeopathic Clinic",
    "address": "2/54, Housing Board, Sawai Madhopur, Rajasthan, Rajasthan 322001",
    "phone": "Dr.Shankar's Homoeopathic Clinic",
    "hours": null,
    "image_url": null
  },
  {
    "name": "Best Neurologist : Expert in Stroke, Epilepsy & Headache Specialist - NH",
    "address": "Sumit Medial, Subhash Bazar, Tonk, Rajasthan 304001",
    "phone": "Best Neurologist : Expert in Stroke, Epilepsy & Headache Specialist - NH",
    "hours": "Open· Closes 17:00",
    "image_url": "https://www.bing.com/maps/geoplat/REST/v1/Imagery/Map/RoadVibrant?ms=92,134&key=AnTcaqBi2ypp0xI-OZNi4W_ik2KhjgpqioTAtXLC8GzkMBQRMlyxvxyTnd5b73im&c=en-US&ur=in&da=n&logo=n&fmt=png&od=1&shading=hill&pp=26.171879,75.787193;dfp"
  },
  {
    "name": "Sanjivani Homoeo Clinic",
    "address": "3 Sanjivani Homoeo Clinic Nearsabji Mandi Deoli, Tonk, Rajasthan 304804",
    "phone": "Sanjivani Homoeo Clinic",
    "hours": null,
    "image_url": "https://www.bing.com/maps/geoplat/REST/v1/Imagery/Map/RoadVibrant?ms=92,112&key=AnTcaqBi2ypp0xI-OZNi4W_ik2KhjgpqioTAtXLC8GzkMBQRMlyxvxyTnd5b73im&c=en-US&ur=in&da=n&logo=n&fmt=png&od=1&shading=hill&pp=26.160004,75.782928;dfp"
  },
  {
    "name": "Asia Afrosis Poly Clinic",
    "address": "Ghantaghar Road, Tonk, Rajasthan 304001",
    "phone": "Asia Afrosis Poly Clinic",
    "hours": null,
    "image_url": "https://www.bing.com/maps/geoplat/REST/v1/Imagery/Map/RoadVibrant?ms=92,112&key=AnTcaqBi2ypp0xI-OZNi4W_ik2KhjgpqioTAtXLC8GzkMBQRMlyxvxyTnd5b73im&c=en-US&ur=in&da=n&logo=n&fmt=png&od=1&shading=hill&pp=26.168526,75.786758;dfp"
  },
  {
    "name": "Jiyyo Mitra™ e-Clinic (Bajrang Nursing Health Care)",
    "address": "Bus Stand, Kishanpura Rd, Bari, Rajasthan",
    "phone": "Jiyyo Mitra™ e-Clinic (Bajrang Nursing Health Care)",
    "hours": null,
    "image_url": "https://www.bing.com/maps/geoplat/REST/v1/Imagery/Map/RoadVibrant?ms=92,112&key=AnTcaqBi2ypp0xI-OZNi4W_ik2KhjgpqioTAtXLC8GzkMBQRMlyxvxyTnd5b73im&c=en-US&ur=in&da=n&logo=n&fmt=png&od=1&shading=hill&pp=26.172302,75.795166;dfp"
  },
  {
    "name": "Dr. B. Lal Clinical Laboratory (Near Natraj Hotel, Mehandi Bagh, Tonk)",
    "address": "Jain Sonography & Diagnostic Center, Near Natraj Hotel, Mehandi Bagh, Patel Circle, Tonk, Rajasthan 304001",
    "phone": "Dr. B. Lal Clinical Laboratory (Near Natraj Hotel, Mehandi Bagh, Tonk)",
    "hours": "Open· Closes 20:00",
    "image_url": null
  },
  {
    "name": "Shri Dhanwantari Ayurvedic Chikitsalaya",
    "address": "Shri Laxmi Jeweller, Panch Batti, Tonk, Rajasthan 304001",
    "phone": "Shri Dhanwantari Ayurvedic Chikitsalaya",
    "hours": null,
    "image_url": "https://www.bing.com/maps/geoplat/REST/v1/Imagery/Map/RoadVibrant?ms=92,112&key=AnTcaqBi2ypp0xI-OZNi4W_ik2KhjgpqioTAtXLC8GzkMBQRMlyxvxyTnd5b73im&c=en-US&ur=in&da=n&logo=n&fmt=png&od=1&shading=hill&pp=26.162434,75.786064;dfp"
  }
]