[
  {
    "name": "Dr. Siddeswaraswamy C- General Medicine In Tumkur",
    "address": "SS Speciality Clinic, Guru Tower, Upparahalli Main Road, Besides Flyover, Tumkur, Karnataka 572102",
    "phone": "Dr. Siddeswaraswamy C- General Medicine In Tumkur",
    "hours": "Closed· Opens 12:00",
    "image_url": "https://www.bing.com/maps/geoplat/REST/v1/Imagery/Map/RoadVibrant?ms=92,134&key=AnTcaqBi2ypp0xI-OZNi4W_ik2KhjgpqioTAtXLC8GzkMBQRMlyxvxyTnd5b73im&c=en-US&ur=in&da=n&logo=n&fmt=png&od=1&shading=hill&pp=13.331601,77.10701;dfp"
  },
  {
    "name": "Ganga clinic Vijay Tubaki",
    "address": "Second Main, 4th Cross, Vasavi Nagar, Sira Road, Tumkur, Karnataka",
    "phone": "Ganga clinic Vijay Tubaki",
    "hours": null,
    "image_url": "/th?id=OLC.VJWQ%2bAbDMHKYdg480x360&w=92&h=112&c=8&rs=1&qlt=80&cdv=1&pid=Local"
  },
  {
    "name": "Dr. Murthy T.V",
    "address": "1st Cross, CSI Layout, Behind Malabar Gold, BH Road, Tumkur, Tumakuru, Karnataka",
    "phone": "Dr. Murthy T.V",
    "hours": "Open· Closes 15:00",
    "image_url": "https://www.bing.com/maps/geoplat/REST/v1/Imagery/Map/RoadVibrant?ms=92,112&key=AnTcaqBi2ypp0xI-OZNi4W_ik2KhjgpqioTAtXLC8GzkMBQRMlyxvxyTnd5b73im&c=en-US&ur=in&da=n&logo=n&fmt=png&od=1&shading=hill&pp=13.337368,77.105232;dfp"
  },
  {
    "name": "Dr. Sharath",
    "address": "Banashankari Circle, Kunigal Road, Landmark: Near Vijaya Hospital, Tumakuru, Karnataka",
    "phone": "Dr. Sharath",
    "hours": "Open· Closes 19:00",
    "image_url": "https://www.bing.com/maps/geoplat/REST/v1/Imagery/Map/RoadVibrant?ms=92,112&key=AnTcaqBi2ypp0xI-OZNi4W_ik2KhjgpqioTAtXLC8GzkMBQRMlyxvxyTnd5b73im&c=en-US&ur=in&da=n&logo=n&fmt=png&od=1&shading=hill&pp=13.331801,77.095863;dfp"
  },
  {
    "name": "Sri Sai Clinic",
    "address": "Kunigal Road, Ssit Nd Branch Post Office, Saraswathipuram Tumakur, Tumakuru, Karnataka 5721…",
    "phone": "Sri Sai Clinic",
    "hours": null,
    "image_url": "https://www.bing.com/maps/geoplat/REST/v1/Imagery/Map/RoadVibrant?ms=92,112&key=AnTcaqBi2ypp0xI-OZNi4W_ik2KhjgpqioTAtXLC8GzkMBQRMlyxvxyTnd5b73im&c=en-US&ur=in&da=n&logo=n&fmt=png&od=1&shading=hill&pp=13.323002,77.094597;dfp"
  },
  {
    "name": "Dr. Prashanth B N",
    "address": "2nd Cross, On Bishop Gill Church Road, C.S.I. Layout, Tumakuru, Karnataka",
    "phone": "Dr. Prashanth B N",
    "hours": "Open· Closes 14:30",
    "image_url": "/th?id=OLC.Cb1SVIi4O6imsQ480x360&w=92&h=112&c=8&rs=1&qlt=80&cdv=1&pid=Local"
  },
  {
    "name": "Dr. Gireesh As",
    "address": "Vinayaka Nagar, 1st Cross, Landmark: Behind Akkamahadevi Samaja, Tumkur, Tumkur 572101",
    "phone": "Dr. Gireesh As",
    "hours": "Open· Closes 13:00",
    "image_url": null
  },
  {
    "name": "Navin Clinic",
    "address": "Hazarath Tippu Sulthan Road, Sadashivanagar Tumakur, Tumakuru, Karnataka 572105",
    "phone": "Navin Clinic",
    "hours": null,
    "image_url": "https://www.bing.com/maps/geoplat/REST/v1/Imagery/Map/RoadVibrant?ms=92,112&key=AnTcaqBi2ypp0xI-OZNi4W_ik2KhjgpqioTAtXLC8GzkMBQRMlyxvxyTnd5b73im&c=en-US&ur=in&da=n&logo=n&fmt=png&od=1&shading=hill&pp=13.33254,77.091148;dfp"
  },
  {
    "name": "Dr. Adithya Suchan R Clinic",
    "address": "ASR Clinic Sadashivanagar, Tumakuru, Karnataka, India, 572105, Tumakuru, Madhya Pradesh 572105",
    "phone": "Dr. Adithya Suchan R Clinic",
    "hours": "Closed· Opens 17:30",
    "image_url": null
  },
  {
    "name": "Dr. Lohith B M- Orthopaedic",
    "address": "Udayaravi Orthopedic And Diagnostic Centre, Bhargava Complex, Post Office Road, Vidyodaya Law College Ro…",
    "phone": "Dr. Lohith B M- Orthopaedic",
    "hours": "Closed· Opens 13:30",
    "image_url": "https://www.bing.com/maps/geoplat/REST/v1/Imagery/Map/RoadVibrant?ms=92,134&key=AnTcaqBi2ypp0xI-OZNi4W_ik2KhjgpqioTAtXLC8GzkMBQRMlyxvxyTnd5b73im&c=en-US&ur=in&da=n&logo=n&fmt=png&od=1&shading=hill&pp=13.338406,77.097572;dfp"
  },
  {
    "name": "Dr.Ishwar Amalazari, MD, DM Gastroenterologist and hepatologist",
    "address": "Siddaganga Hospital, Bengaluru - Honnavar Rd, S.S.Puram, Tumakuru, Karnataka",
    "phone": "Dr.Ishwar Amalazari, MD, DM Gastroenterologist and hepatologist",
    "hours": null,
    "image_url": "https://www.bing.com/maps/geoplat/REST/v1/Imagery/Map/RoadVibrant?ms=92,112&key=AnTcaqBi2ypp0xI-OZNi4W_ik2KhjgpqioTAtXLC8GzkMBQRMlyxvxyTnd5b73im&c=en-US&ur=in&da=n&logo=n&fmt=png&od=1&shading=hill&pp=13.341812,77.094917;dfp"
  },
  {
    "name": "Dr. Girish",
    "address": "Banashankari Circle, Kunigal Road, Landmark: Near Vijaya Hospital, Tumakuru, Karnataka",
    "phone": "Dr. Girish",
    "hours": "Open· Closes 19:00",
    "image_url": "https://www.bing.com/maps/geoplat/REST/v1/Imagery/Map/RoadVibrant?ms=92,112&key=AnTcaqBi2ypp0xI-OZNi4W_ik2KhjgpqioTAtXLC8GzkMBQRMlyxvxyTnd5b73im&c=en-US&ur=in&da=n&logo=n&fmt=png&od=1&shading=hill&pp=13.331801,77.095863;dfp"
  },
  {
    "name": "Dr. Shivanand- Dermatologist in Tumkur",
    "address": "Indira Maternity and Skin Clinic, Railway Station Road, Tumkur, Karnataka 572101",
    "phone": "Dr. Shivanand- Dermatologist in Tumkur",
    "hours": "Closed· Opens 11:00",
    "image_url": null
  },
  {
    "name": "Dr. Hithesh.Nj",
    "address": "Sharada Devi Nagar, Tumakuru, Karnataka",
    "phone": "Dr. Hithesh.Nj",
    "hours": "Closed· Opens 17:00",
    "image_url": "https://www.bing.com/maps/geoplat/REST/v1/Imagery/Map/RoadVibrant?ms=92,112&key=AnTcaqBi2ypp0xI-OZNi4W_ik2KhjgpqioTAtXLC8GzkMBQRMlyxvxyTnd5b73im&c=en-US&ur=in&da=n&logo=n&fmt=png&od=1&shading=hill&pp=13.340358,77.117455;dfp"
  },
  {
    "name": "Dr. Mahesh Rajashekaraiah",
    "address": "1st Main Road, Ashok Nagar. Landmark:- Behind Minnie Motors, Opposite Government College, Tumakuru, Kar…",
    "phone": "Dr. Mahesh Rajashekaraiah",
    "hours": "Closed· Opens Sep 27 at 18:00",
    "image_url": null
  },
  {
    "name": "GSS Eye & ENT Hospital & PRC Centre",
    "address": "Ring Road Gangadhara Nagara, Behind Ssit, Near Mahindra Showroom, Maralur, Tumkur, Karnataka, Kar…",
    "phone": "GSS Eye & ENT Hospital & PRC Centre",
    "hours": null,
    "image_url": null
  },
  {
    "name": "UdayaRavi Orthopedic And Diagnostic Center",
    "address": "Maruthi Nagar, Tumakuru, Karnataka 572102",
    "phone": "UdayaRavi Orthopedic And Diagnostic Center",
    "hours": "Open· Closes 22:00",
    "image_url": null
  },
  {
    "name": "Dr Anil Kumar B N, Tumkur (Anil) Counselling & Neuro-Psychiatry Centre",
    "address": "Gnanaganga Complex, 1st Floor, Railway Station Rd, Beside Kotak Mahindra Bank/ Sampige Lodge, Ward N…",
    "phone": "Dr Anil Kumar B N, Tumkur (Anil) Counselling & Neuro-Psychiatry Centre",
    "hours": null,
    "image_url": "https://www.bing.com/maps/geoplat/REST/v1/Imagery/Map/RoadVibrant?ms=92,112&key=AnTcaqBi2ypp0xI-OZNi4W_ik2KhjgpqioTAtXLC8GzkMBQRMlyxvxyTnd5b73im&c=en-US&ur=in&da=n&logo=n&fmt=png&od=1&shading=hill&pp=13.338043,77.102364;dfp"
  }
]