[
  {
    "name": "Dr Om Prakash Raipuria",
    "address": "101, Tiger Hills Near Pratap Gaurav Kendra, Udaipur, Rajasthan",
    "phone": "Dr Om Prakash Raipuria",
    "hours": null,
    "image_url": "/th?id=OLC.RJnGlVMqathV3Q480x360&w=92&h=112&c=8&rs=1&qlt=80&cdv=1&pid=Local"
  },
  {
    "name": "Dr. Sapan Jain",
    "address": "699, Arjun Nagar, Sector No.11, Hiran Magri, Udaipur, Rajasthan, Rajasthan 313001",
    "phone": "Dr. Sapan Jain",
    "hours": "Open· Closes 14:00",
    "image_url": "/th?id=OLC.z7%2bds21yY2svfg480x360&w=92&h=134&c=8&rs=1&qlt=80&cdv=1&pid=Local"
  },
  {
    "name": "Dr Gaurav Paiwal",
    "address": "1, Ganpati Vihar, Nb Nagar, Udaipur, Udaipur 313001",
    "phone": "Dr Gaurav Paiwal",
    "hours": null,
    "image_url": "/th?id=OLC.lMtbrvuiBjEEsg480x360&w=92&h=112&c=8&rs=1&qlt=80&cdv=1&pid=Local"
  },
  {
    "name": "Dr Khushboo Khamesra @Health Care Clinic",
    "address": "16, Health Care Clinic, Ankur Complex, Opposite Narayan Seva Sansthan, Sector 5, Gayatri Nagar, Hira…",
    "phone": "Dr Khushboo Khamesra @Health Care Clinic",
    "hours": null,
    "image_url": "/th?id=OLC.uZZUhgWgjNnx2Q480x360&w=92&h=112&c=8&rs=1&qlt=80&cdv=1&pid=Local"
  },
  {
    "name": "Dr Kirti Choudhary",
    "address": "City Station Road, Near Molthor Preschool, Jawahar Nagar, Udaipur, Rajasthan 313001",
    "phone": "Dr Kirti Choudhary",
    "hours": null,
    "image_url": "/th?id=OLC.3C4SHafp3j5F2g480x360&w=92&h=112&c=8&rs=1&qlt=80&cdv=1&pid=Local"
  },
  {
    "name": "Dr. Sandeep Kansara",
    "address": "7, Seth Ji Ki Badi Madhuvan, Landmark: Near Icici Bank, Behind Chetak Sarke, Udaipur, Udaipur 313001",
    "phone": "Dr. Sandeep Kansara",
    "hours": "Closed· Opens 15:00",
    "image_url": "https://www.bing.com/maps/geoplat/REST/v1/Imagery/Map/RoadVibrant?ms=92,134&key=AnTcaqBi2ypp0xI-OZNi4W_ik2KhjgpqioTAtXLC8GzkMBQRMlyxvxyTnd5b73im&c=en-US&ur=in&da=n&logo=n&fmt=png&od=1&shading=hill&pp=24.56934,73.747208;dfp"
  },
  {
    "name": "Dr. Luv's Clinic",
    "address": "6, Kunjarwara Road, Near Ganesh Ji ka Mandir, Nada Khada, Udaipur, Rajasthan 313001",
    "phone": "Dr. Luv's Clinic",
    "hours": "Closed· Opens tomorrow 11:00",
    "image_url": "https://www.bing.com/maps/geoplat/REST/v1/Imagery/Map/RoadVibrant?ms=92,134&key=AnTcaqBi2ypp0xI-OZNi4W_ik2KhjgpqioTAtXLC8GzkMBQRMlyxvxyTnd5b73im&c=en-US&ur=in&da=n&logo=n&fmt=png&od=1&shading=hill&pp=24.585192,73.694412;dfp"
  },
  {
    "name": "Dr. Atam Prakesh Bhati Hospital",
    "address": "Kunjarwara Road, Near Hi Fashion, Nada Khada, Udaipur, Rajasthan 313001",
    "phone": "Dr. Atam Prakesh Bhati Hospital",
    "hours": null,
    "image_url": null
  },
  {
    "name": "Dr. Deepak Sethi",
    "address": "Airport Road, Near Maa Durga Mandir, Sundarwas, Ganesh Nagar, Udaipur, Rajasthan 313001",
    "phone": "Dr. Deepak Sethi",
    "hours": null,
    "image_url": "https://www.bing.com/maps/geoplat/REST/v1/Imagery/Map/RoadVibrant?ms=92,112&key=AnTcaqBi2ypp0xI-OZNi4W_ik2KhjgpqioTAtXLC8GzkMBQRMlyxvxyTnd5b73im&c=en-US&ur=in&da=n&logo=n&fmt=png&od=1&shading=hill&pp=24.587694,73.739456;dfp"
  },
  {
    "name": "Dr. Saxena Clinic",
    "address": "100 Feet Road, Near Kanchan Electricals, Sector 14, Hiran Magri, Udaipur, Rajasthan 313001",
    "phone": "Dr. Saxena Clinic",
    "hours": null,
    "image_url": null
  },
  {
    "name": "Dr. Sachin Jain",
    "address": "Ayush Hemato-Onco Clinic, 8 A, new Anand Nagar, Behind Anand Plaza Complex, Near Ayad Bridge, Khar…",
    "phone": "Dr. Sachin Jain",
    "hours": "Closed· Opens 14:00",
    "image_url": null
  },
  {
    "name": "Dr Jayesh Khandelwal's Heart, Diabetes, Thyroid & General Clinic",
    "address": "26, Padmini Marg, Ravindra Nagar Main Road, Udaipur, Udaipur 313003",
    "phone": "Dr Jayesh Khandelwal's Heart, Diabetes, Thyroid & General Clinic",
    "hours": null,
    "image_url": null
  },
  {
    "name": "Dr. Jagdish Vishnoi",
    "address": "Syphon Choraha, Bedla Road, Udaipur 313001",
    "phone": "Dr. Jagdish Vishnoi",
    "hours": "Closed· Opens 19:00",
    "image_url": null
  },
  {
    "name": "Sudha Orthopaedic and Gynec Hospital",
    "address": "8, Vrindawan Dham, Road Number 1, CPS School Road, Opposite Saurabh Enclave, New Bhopalpura, Kharakua…",
    "phone": "Sudha Orthopaedic and Gynec Hospital",
    "hours": null,
    "image_url": null
  },
  {
    "name": "Dr Rajan Singh Sood & Dr Bhawna Sood | Daffodils Poly Clinic | homoeopathy doctor Piles treatment",
    "address": "Oppo, Abhishek Complex, Ambedkar Colony, B Clock, Link Road, Sector 14, Udaipur, Rajasthan",
    "phone": "Dr Rajan Singh Sood & Dr Bhawna Sood | Daffodils Poly Clinic | homoeopathy doctor Piles treatment",
    "hours": null,
    "image_url": "https://www.bing.com/maps/geoplat/REST/v1/Imagery/Map/RoadVibrant?ms=92,112&key=AnTcaqBi2ypp0xI-OZNi4W_ik2KhjgpqioTAtXLC8GzkMBQRMlyxvxyTnd5b73im&c=en-US&ur=in&da=n&logo=n&fmt=png&od=1&shading=hill&pp=24.583694,73.699356;dfp"
  },
  {
    "name": "Dr. Priyanka Kothari",
    "address": "Bedla Road, Near Samudayik Bhawan, Fatehpura, Udaipur, Rajasthan 313001",
    "phone": "Dr. Priyanka Kothari",
    "hours": null,
    "image_url": "https://www.bing.com/maps/geoplat/REST/v1/Imagery/Map/RoadVibrant?ms=92,112&key=AnTcaqBi2ypp0xI-OZNi4W_ik2KhjgpqioTAtXLC8GzkMBQRMlyxvxyTnd5b73im&c=en-US&ur=in&da=n&logo=n&fmt=png&od=1&shading=hill&pp=24.615089,73.690979;dfp"
  },
  {
    "name": "Anurag Spine And Brain Clinic Udaipur",
    "address": "in Front of Satellite Hospital Sector 6Hiran Magri Udaipur, Udaipur, Rajasthan 313002",
    "phone": "Anurag Spine And Brain Clinic Udaipur",
    "hours": null,
    "image_url": null
  },
  {
    "name": "Arogya Clinic",
    "address": "Khempura Road, Near Bharat Jewelers, Khempura, Udaipur, Rajasthan 313001",
    "phone": "Arogya Clinic",
    "hours": null,
    "image_url": "https://www.bing.com/maps/geoplat/REST/v1/Imagery/Map/RoadVibrant?ms=92,112&key=AnTcaqBi2ypp0xI-OZNi4W_ik2KhjgpqioTAtXLC8GzkMBQRMlyxvxyTnd5b73im&c=en-US&ur=in&da=n&logo=n&fmt=png&od=1&shading=hill&pp=24.584681,73.73851;dfp"
  }
]