[
  {
    "name": "Dr. Om Prakash Arora",
    "address": "6, Guru Nanak Rd, Singh Colony, Uttarakhand 263153",
    "phone": "Dr. Om Prakash Arora",
    "hours": null,
    "image_url": "https://www.bing.com/maps/geoplat/REST/v1/Imagery/Map/RoadVibrant?ms=92,112&key=AnTcaqBi2ypp0xI-OZNi4W_ik2KhjgpqioTAtXLC8GzkMBQRMlyxvxyTnd5b73im&c=en-US&ur=in&da=n&logo=n&fmt=png&od=1&shading=hill&pp=28.981617,79.389465;dfp"
  },
  {
    "name": "Gupta Homopatik Clinic",
    "address": "Transit Camp Road, Ram Mandir, Rudrapur Udham Singh Nagar, Rudrapur, Uttarakhand 263153",
    "phone": "Gupta Homopatik Clinic",
    "hours": null,
    "image_url": "https://www.bing.com/maps/geoplat/REST/v1/Imagery/Map/RoadVibrant?ms=92,112&key=AnTcaqBi2ypp0xI-OZNi4W_ik2KhjgpqioTAtXLC8GzkMBQRMlyxvxyTnd5b73im&c=en-US&ur=in&da=n&logo=n&fmt=png&od=1&shading=hill&pp=28.984884,79.416687;dfp"
  },
  {
    "name": "Dr Siddhu Poly Clinic",
    "address": "Near Bareilly Road, Dr Sohan Singh Hospital, Kichha Udham Singh Nagar, Kichha, Uttarakhand 263148",
    "phone": "Dr Siddhu Poly Clinic",
    "hours": null,
    "image_url": "https://www.bing.com/maps/geoplat/REST/v1/Imagery/Map/RoadVibrant?ms=92,112&key=AnTcaqBi2ypp0xI-OZNi4W_ik2KhjgpqioTAtXLC8GzkMBQRMlyxvxyTnd5b73im&c=en-US&ur=in&da=n&logo=n&fmt=png&od=1&shading=hill&pp=28.909924,79.514877;dfp"
  },
  {
    "name": "Dr. Kanika Sharma | Radiation Oncology Specialist | Metrocity Hospital | Rudrapur OPD",
    "address": "Metrocity Hospital, 34/1, Lane-2, Civil Lines, Doctors Colony, Rudrapur, Rudrapur, Uttarakhand 263153",
    "phone": "Dr. Kanika Sharma | Radiation Oncology Specialist | Metrocity Hospital | Rudrapur OPD",
    "hours": "Open· Closes 18:00",
    "image_url": "https://www.bing.com/maps/geoplat/REST/v1/Imagery/Map/RoadVibrant?ms=92,112&key=AnTcaqBi2ypp0xI-OZNi4W_ik2KhjgpqioTAtXLC8GzkMBQRMlyxvxyTnd5b73im&c=en-US&ur=in&da=n&logo=n&fmt=png&od=1&shading=hill&pp=28.977003,79.398163;dfp"
  },
  {
    "name": "Citydent Clinic",
    "address": "12/4 Kalyani View, Near Kanchan Tara Hotel, Rudrapur, Uttarakhand, Uttarakhand 263153",
    "phone": "Citydent Clinic",
    "hours": null,
    "image_url": "/th?id=OLC.hJHxdpiZ82Nr6A480x360&w=92&h=112&c=8&rs=1&qlt=80&cdv=1&pid=Local"
  },
  {
    "name": "Ambrosia Homoeo Clinic",
    "address": "Gali Number 1 Indra Colony Road, Rudrapur, Uttarakhand 263153",
    "phone": "Ambrosia Homoeo Clinic",
    "hours": null,
    "image_url": "https://www.bing.com/maps/geoplat/REST/v1/Imagery/Map/RoadVibrant?ms=92,112&key=AnTcaqBi2ypp0xI-OZNi4W_ik2KhjgpqioTAtXLC8GzkMBQRMlyxvxyTnd5b73im&c=en-US&ur=in&da=n&logo=n&fmt=png&od=1&shading=hill&pp=28.984592,79.391403;dfp"
  },
  {
    "name": "Mitra Ayurvedik Clinic And Kshar Sutra Kendra",
    "address": "Shyam Talkies Road, Ravindra Junior High School, Rudrapur, Uttarakhand 263153",
    "phone": "Mitra Ayurvedik Clinic And Kshar Sutra Kendra",
    "hours": null,
    "image_url": "https://www.bing.com/maps/geoplat/REST/v1/Imagery/Map/RoadVibrant?ms=92,112&key=AnTcaqBi2ypp0xI-OZNi4W_ik2KhjgpqioTAtXLC8GzkMBQRMlyxvxyTnd5b73im&c=en-US&ur=in&da=n&logo=n&fmt=png&od=1&shading=hill&pp=28.980713,79.401611;dfp"
  },
  {
    "name": "Dr. Priy Ranjan Tewari",
    "address": "Haldwani Road Magic Stand, Udham Singh Nagar",
    "phone": "Dr. Priy Ranjan Tewari",
    "hours": "Open· Closes 14:00",
    "image_url": "https://www.bing.com/maps/geoplat/REST/v1/Imagery/Map/RoadVibrant?ms=92,112&key=AnTcaqBi2ypp0xI-OZNi4W_ik2KhjgpqioTAtXLC8GzkMBQRMlyxvxyTnd5b73im&c=en-US&ur=in&da=n&logo=n&fmt=png&od=1&shading=hill&pp=28.910427,79.519119;dfp"
  },
  {
    "name": "Har Milap Poly Clinic",
    "address": "Bareilly Road, Bathla Hospital, Kichha Udham Singh Nagar, Kichha, Uttarakhand 263148",
    "phone": "Har Milap Poly Clinic",
    "hours": null,
    "image_url": "https://www.bing.com/maps/geoplat/REST/v1/Imagery/Map/RoadVibrant?ms=92,112&key=AnTcaqBi2ypp0xI-OZNi4W_ik2KhjgpqioTAtXLC8GzkMBQRMlyxvxyTnd5b73im&c=en-US&ur=in&da=n&logo=n&fmt=png&od=1&shading=hill&pp=28.909679,79.512474;dfp"
  },
  {
    "name": "Dr. Amreek’s Dental Clinic and lmplant Center",
    "address": "Vidvani Market, Rudrapur, Uttarakhand",
    "phone": "Dr. Amreek’s Dental Clinic and lmplant Center",
    "hours": null,
    "image_url": "https://www.bing.com/maps/geoplat/REST/v1/Imagery/Map/RoadVibrant?ms=92,112&key=AnTcaqBi2ypp0xI-OZNi4W_ik2KhjgpqioTAtXLC8GzkMBQRMlyxvxyTnd5b73im&c=en-US&ur=in&da=n&logo=n&fmt=png&od=1&shading=hill&pp=28.985115,79.41304;dfp"
  },
  {
    "name": "Dr. Tewari Ayurved Hospital",
    "address": "Haldwani Road Magic Stand, Kichha 263148",
    "phone": "Dr. Tewari Ayurved Hospital",
    "hours": "Open· Closes 14:00",
    "image_url": null
  },
  {
    "name": "Speciality ayurvedic treatment centre",
    "address": "74 Nh, Rudrapur, Uttarakhand 263153",
    "phone": "Speciality ayurvedic treatment centre",
    "hours": null,
    "image_url": null
  },
  {
    "name": "D Kirti ENT Hospital",
    "address": "Rudrapur - Kashipur Road, Rudrapur, Uttarakhand 263153",
    "phone": "D Kirti ENT Hospital",
    "hours": null,
    "image_url": "https://www.bing.com/maps/geoplat/REST/v1/Imagery/Map/RoadVibrant?ms=92,112&key=AnTcaqBi2ypp0xI-OZNi4W_ik2KhjgpqioTAtXLC8GzkMBQRMlyxvxyTnd5b73im&c=en-US&ur=in&da=n&logo=n&fmt=png&od=1&shading=hill&pp=28.975075,79.385155;dfp"
  },
  {
    "name": "Metropolis Healthcare Limited - Pathology Lab, Diagnostic Centre",
    "address": "No 34/1, D1, D2, Civil Lines, Lane 2, Near Doctor Colony, Rudrapur, Uttarakhand 263153",
    "phone": "Metropolis Healthcare Limited - Pathology Lab, Diagnostic Centre",
    "hours": "Open· Closes 20:00",
    "image_url": "https://www.bing.com/maps/geoplat/REST/v1/Imagery/Map/RoadVibrant?ms=92,134&key=AnTcaqBi2ypp0xI-OZNi4W_ik2KhjgpqioTAtXLC8GzkMBQRMlyxvxyTnd5b73im&c=en-US&ur=in&da=n&logo=n&fmt=png&od=1&shading=hill&pp=28.982069,79.397392;dfp"
  },
  {
    "name": "Bangalore Dental Care (Dr. Pradeep Jaiswal B.D.S, MIDA, Dental Implantologist)",
    "address": "Parisa Complex, Lane No. 01, Doctor's Colony, Rudrapur, Uttarakhand",
    "phone": "Bangalore Dental Care (Dr. Pradeep Jaiswal B.D.S, MIDA, Dental Implantologist)",
    "hours": null,
    "image_url": "https://www.bing.com/maps/geoplat/REST/v1/Imagery/Map/RoadVibrant?ms=92,112&key=AnTcaqBi2ypp0xI-OZNi4W_ik2KhjgpqioTAtXLC8GzkMBQRMlyxvxyTnd5b73im&c=en-US&ur=in&da=n&logo=n&fmt=png&od=1&shading=hill&pp=28.981838,79.398193;dfp"
  },
  {
    "name": "Dr Lal Path Labs",
    "address": "Gandhi Colony Road, Bhagwan Valmiki Mandir, Gandhi Colony Rudrapur, Rudrapur, Uttarakhand 263153",
    "phone": "Dr Lal Path Labs",
    "hours": null,
    "image_url": "https://www.bing.com/maps/geoplat/REST/v1/Imagery/Map/RoadVibrant?ms=92,112&key=AnTcaqBi2ypp0xI-OZNi4W_ik2KhjgpqioTAtXLC8GzkMBQRMlyxvxyTnd5b73im&c=en-US&ur=in&da=n&logo=n&fmt=png&od=1&shading=hill&pp=28.974113,79.395432;dfp"
  },
  {
    "name": "Arora Pathology Lab",
    "address": "Kashipur Bypass, Gurukul Play School, Rudrapur Udham Singh Nagar, Rudrapur, Uttarakhand 263153",
    "phone": "Arora Pathology Lab",
    "hours": null,
    "image_url": "https://www.bing.com/maps/geoplat/REST/v1/Imagery/Map/RoadVibrant?ms=92,112&key=AnTcaqBi2ypp0xI-OZNi4W_ik2KhjgpqioTAtXLC8GzkMBQRMlyxvxyTnd5b73im&c=en-US&ur=in&da=n&logo=n&fmt=png&od=1&shading=hill&pp=28.977818,79.394432;dfp"
  }
]