[
  {
    "name": "Dr Sharma Murulidhara",
    "address": "S T Marg, Udupi, Karnataka 576101",
    "phone": "Dr Sharma Murulidhara",
    "hours": null,
    "image_url": "https://www.bing.com/maps/geoplat/REST/v1/Imagery/Map/RoadVibrant?ms=92,112&key=AnTcaqBi2ypp0xI-OZNi4W_ik2KhjgpqioTAtXLC8GzkMBQRMlyxvxyTnd5b73im&c=en-US&ur=in&da=n&logo=n&fmt=png&od=1&shading=hill&pp=13.343059,74.746162;dfp"
  },
  {
    "name": "Dr. Vijayendra Bhat G",
    "address": "Near Head Post Office, Udipi, Karnataka",
    "phone": "Dr. Vijayendra Bhat G",
    "hours": "Closed· Opens 18:00",
    "image_url": "/th?id=OLC.dp5eHvzkDTsNSw480x360&w=92&h=112&c=8&rs=1&qlt=80&cdv=1&pid=Local"
  },
  {
    "name": "Dr Ashwini Kumar Shetty",
    "address": "K M Marg, Super Bazar, Udupi, Karnataka 576101",
    "phone": "Dr Ashwini Kumar Shetty",
    "hours": null,
    "image_url": "https://www.bing.com/maps/geoplat/REST/v1/Imagery/Map/RoadVibrant?ms=92,112&key=AnTcaqBi2ypp0xI-OZNi4W_ik2KhjgpqioTAtXLC8GzkMBQRMlyxvxyTnd5b73im&c=en-US&ur=in&da=n&logo=n&fmt=png&od=1&shading=hill&pp=13.337901,74.748428;dfp"
  },
  {
    "name": "Dr. HM Shashikala",
    "address": "Super Bazaar Complex First Floor KM Marg, Udupi, Karnataka, India, 567101, Udupi, Madhya Pradesh 567…",
    "phone": "Dr. HM Shashikala",
    "hours": "Open· Closes 18:00",
    "image_url": "/th?id=OLC.RQQdEq1LPAYpKw480x360&w=92&h=134&c=8&rs=1&qlt=80&cdv=1&pid=Local"
  },
  {
    "name": "Shanbhag Vishwanath Dr M Clinic",
    "address": "Vidya Ranya Marg, Udupi, Karnataka 576101",
    "phone": "Shanbhag Vishwanath Dr M Clinic",
    "hours": null,
    "image_url": "https://www.bing.com/maps/geoplat/REST/v1/Imagery/Map/RoadVibrant?ms=92,112&key=AnTcaqBi2ypp0xI-OZNi4W_ik2KhjgpqioTAtXLC8GzkMBQRMlyxvxyTnd5b73im&c=en-US&ur=in&da=n&logo=n&fmt=png&od=1&shading=hill&pp=13.343059,74.746162;dfp"
  },
  {
    "name": "dr ASHOK KUMAR YG m.d",
    "address": "Okude Clinic Rambhat Bldg, Kals Udupi, Udupi, Karnataka 576103",
    "phone": "dr ASHOK KUMAR YG m.d",
    "hours": null,
    "image_url": "https://www.bing.com/maps/geoplat/REST/v1/Imagery/Map/RoadVibrant?ms=92,112&key=AnTcaqBi2ypp0xI-OZNi4W_ik2KhjgpqioTAtXLC8GzkMBQRMlyxvxyTnd5b73im&c=en-US&ur=in&da=n&logo=n&fmt=png&od=1&shading=hill&pp=13.344712,74.760063;dfp"
  },
  {
    "name": "Dr.gururaja Bhagavath",
    "address": "Ambalpadi, Udupi, Karnataka 576103",
    "phone": "Dr.gururaja Bhagavath",
    "hours": null,
    "image_url": "https://www.bing.com/maps/geoplat/REST/v1/Imagery/Map/RoadVibrant?ms=92,112&key=AnTcaqBi2ypp0xI-OZNi4W_ik2KhjgpqioTAtXLC8GzkMBQRMlyxvxyTnd5b73im&c=en-US&ur=in&da=n&logo=n&fmt=png&od=1&shading=hill&pp=13.342927,74.725395;dfp"
  },
  {
    "name": "Anantha Clinic (dr. Vailaya)",
    "address": "Ambalpadi, Udupi, Karnataka 576101",
    "phone": "Anantha Clinic (dr. Vailaya)",
    "hours": null,
    "image_url": "https://www.bing.com/maps/geoplat/REST/v1/Imagery/Map/RoadVibrant?ms=92,112&key=AnTcaqBi2ypp0xI-OZNi4W_ik2KhjgpqioTAtXLC8GzkMBQRMlyxvxyTnd5b73im&c=en-US&ur=in&da=n&logo=n&fmt=png&od=1&shading=hill&pp=13.346744,74.762024;dfp"
  },
  {
    "name": "Prasad Netralaya",
    "address": "Alankar Bhagat Singh Road, Udupi, Karnataka 576101",
    "phone": "Prasad Netralaya",
    "hours": null,
    "image_url": "https://www.bing.com/maps/geoplat/REST/v1/Imagery/Map/RoadVibrant?ms=92,112&key=AnTcaqBi2ypp0xI-OZNi4W_ik2KhjgpqioTAtXLC8GzkMBQRMlyxvxyTnd5b73im&c=en-US&ur=in&da=n&logo=n&fmt=png&od=1&shading=hill&pp=13.338935,74.746849;dfp"
  },
  {
    "name": "Dr. BHARAT CHAWDA - Best Dermatologist in Bhilai",
    "address": "Perfect Skin and Hair Clinic Kanha Medical, Opposite Canara Bank - General Branch, Smriti Nagar, Chhattisg…",
    "phone": "Dr. BHARAT CHAWDA - Best Dermatologist in Bhilai",
    "hours": null,
    "image_url": "https://www.bing.com/maps/geoplat/REST/v1/Imagery/Map/RoadVibrant?ms=92,112&key=AnTcaqBi2ypp0xI-OZNi4W_ik2KhjgpqioTAtXLC8GzkMBQRMlyxvxyTnd5b73im&c=en-US&ur=in&da=n&logo=n&fmt=png&od=1&shading=hill&pp=13.341448,74.748085;dfp"
  },
  {
    "name": "Skin Win Clinic",
    "address": "1St Floor, Sri Devraj Towers, 1, Court Road, Udupi, Karnataka 576101",
    "phone": "Skin Win Clinic",
    "hours": "Open· Closes 19:00",
    "image_url": null
  },
  {
    "name": "S D M Ayurvedic Hospital",
    "address": "Uddevar Road, Kuthpady, Udupi, Karnataka 574118",
    "phone": "S D M Ayurvedic Hospital",
    "hours": null,
    "image_url": null
  },
  {
    "name": "DR SANDEEP SHENOY Mahalaxmi Eye Hospital",
    "address": "Andrade Arcade, 1st Floor, Km Marg, Udupi, Karnataka 576101",
    "phone": "DR SANDEEP SHENOY Mahalaxmi Eye Hospital",
    "hours": null,
    "image_url": null
  },
  {
    "name": "Swastik Ent Clinic and Advanced Digital Hearing AID Centre",
    "address": "1st Floor, Baliga Towers, Main Rd, opp. Hotel Kediyoor &, Near Bus Stand, Udupi, Karnataka",
    "phone": "Swastik Ent Clinic and Advanced Digital Hearing AID Centre",
    "hours": null,
    "image_url": "https://www.bing.com/maps/geoplat/REST/v1/Imagery/Map/RoadVibrant?ms=92,112&key=AnTcaqBi2ypp0xI-OZNi4W_ik2KhjgpqioTAtXLC8GzkMBQRMlyxvxyTnd5b73im&c=en-US&ur=in&da=n&logo=n&fmt=png&od=1&shading=hill&pp=13.358665,74.754379;dfp"
  },
  {
    "name": "Dr.Sripathi Skincentre",
    "address": "Raaj Tower, 1st Floor, Above Radha Medical, Opp City Bus Stand, Udupi-Manipal Hwy, Udupi, Karnataka",
    "phone": "Dr.Sripathi Skincentre",
    "hours": "Closed· Opens 16:30",
    "image_url": null
  },
  {
    "name": "Swastik Ent Care And Hearing AID Centre",
    "address": "Baliga Tower, 10-4-100K, First Floor, OPP Kidiyoor Hotel, Udupi, Karnataka 576101",
    "phone": "Swastik Ent Care And Hearing AID Centre",
    "hours": null,
    "image_url": "https://www.bing.com/maps/geoplat/REST/v1/Imagery/Map/RoadVibrant?ms=92,112&key=AnTcaqBi2ypp0xI-OZNi4W_ik2KhjgpqioTAtXLC8GzkMBQRMlyxvxyTnd5b73im&c=en-US&ur=in&da=n&logo=n&fmt=png&od=1&shading=hill&pp=13.33515,74.749382;dfp"
  },
  {
    "name": "Al Haq Hijama Clinic",
    "address": "4QRC+8RG, Padubidri, Karnataka",
    "phone": "Al Haq Hijama Clinic",
    "hours": null,
    "image_url": "https://www.bing.com/maps/geoplat/REST/v1/Imagery/Map/RoadVibrant?ms=92,112&key=AnTcaqBi2ypp0xI-OZNi4W_ik2KhjgpqioTAtXLC8GzkMBQRMlyxvxyTnd5b73im&c=en-US&ur=in&da=n&logo=n&fmt=png&od=1&shading=hill&pp=13.143981,74.771317;dfp"
  }
]