[
  {
    "name": "Anand Clinic.Dr Anand Saraf.",
    "address": "336, Tempo Stand Chauraha, Sethi Nagar, Ujjain, Madhya Pradesh",
    "phone": "Anand Clinic.Dr Anand Saraf.",
    "hours": null,
    "image_url": "https://www.bing.com/maps/geoplat/REST/v1/Imagery/Map/RoadVibrant?ms=92,112&key=AnTcaqBi2ypp0xI-OZNi4W_ik2KhjgpqioTAtXLC8GzkMBQRMlyxvxyTnd5b73im&c=en-US&ur=in&da=n&logo=n&fmt=png&od=1&shading=hill&pp=23.176785,75.774704;dfp"
  },
  {
    "name": "Dr. Pushplata Saxena",
    "address": "301 Durga Plaza, Dewas Road, Ujjain, Madhya Pradesh 456010",
    "phone": "Dr. Pushplata Saxena",
    "hours": null,
    "image_url": "https://www.bing.com/maps/geoplat/REST/v1/Imagery/Map/RoadVibrant?ms=92,112&key=AnTcaqBi2ypp0xI-OZNi4W_ik2KhjgpqioTAtXLC8GzkMBQRMlyxvxyTnd5b73im&c=en-US&ur=in&da=n&logo=n&fmt=png&od=1&shading=hill&pp=23.175526,75.790588;dfp"
  },
  {
    "name": "Dr. Ghanshyan Damboria | Dr.Rashmi Clinic",
    "address": "Saket Nagar Ujjain, Ujjain, Madhya Pradesh, India, 456010, Ujjain, Madhya Pradesh 456010",
    "phone": "Dr. Ghanshyan Damboria | Dr.Rashmi Clinic",
    "hours": "Closed· Opens 11:00",
    "image_url": "/th?id=OLC.R9xQkATSEYJdkg480x360&w=92&h=134&c=8&rs=1&qlt=80&cdv=1&pid=Local"
  },
  {
    "name": "Dr. Uday Jejurikar- General & Laproscopic Surgeon",
    "address": "Patidar Hospital & Research Centre, 12, Kshapanak Marg, Freeganj Ujjain, Ujjain, Madhya Pradesh 456010",
    "phone": "Dr. Uday Jejurikar- General & Laproscopic Surgeon",
    "hours": "Closed· Opens 12:00",
    "image_url": "https://www.bing.com/maps/geoplat/REST/v1/Imagery/Map/RoadVibrant?ms=92,134&key=AnTcaqBi2ypp0xI-OZNi4W_ik2KhjgpqioTAtXLC8GzkMBQRMlyxvxyTnd5b73im&c=en-US&ur=in&da=n&logo=n&fmt=png&od=1&shading=hill&pp=23.180752,75.791847;dfp"
  },
  {
    "name": "Dr. Neeraj Nagar",
    "address": "27, Bhagvat Villa Sneha Nagar, Landmark, Ujjain 456010",
    "phone": "Dr. Neeraj Nagar",
    "hours": "Open· Closes 13:00",
    "image_url": "/th?id=OLC.vRdLzuTECQv65A480x360&w=92&h=112&c=8&rs=1&qlt=80&cdv=1&pid=Local"
  },
  {
    "name": "Dr Sharad Nayak Clinic",
    "address": "Railway Station, Ujjain Sh-27, Hari Fatak Over Bridge, Road, Dudh Talai, Malipura, Madhya Pradesh 456006",
    "phone": "Dr Sharad Nayak Clinic",
    "hours": null,
    "image_url": "https://www.bing.com/maps/geoplat/REST/v1/Imagery/Map/RoadVibrant?ms=92,112&key=AnTcaqBi2ypp0xI-OZNi4W_ik2KhjgpqioTAtXLC8GzkMBQRMlyxvxyTnd5b73im&c=en-US&ur=in&da=n&logo=n&fmt=png&od=1&shading=hill&pp=23.18429,75.782837;dfp"
  },
  {
    "name": "Dr. H.s. Bagga",
    "address": "Old Four Gumati Hospital, Ujjain, Madhya Pradesh 456006",
    "phone": "Dr. H.s. Bagga",
    "hours": null,
    "image_url": null
  },
  {
    "name": "Dr. Vikas Uthra",
    "address": "Tilak Marg, Freeganj, Ujjain, Madhya Pradesh 456010",
    "phone": "Dr. Vikas Uthra",
    "hours": null,
    "image_url": null
  },
  {
    "name": "Dr. Santosh Kabra",
    "address": "40, Dhanwantri Marg, Near Laxmi Bakery, Ujjain, Madhya Pradesh 456010",
    "phone": "Dr. Santosh Kabra",
    "hours": "Closed· Opens 11:00",
    "image_url": null
  },
  {
    "name": "Dr Girish Arya Clinic",
    "address": "Tilak Marg, Freeganj, Ujjain, Madhya Pradesh 456010",
    "phone": "Dr Girish Arya Clinic",
    "hours": null,
    "image_url": "https://www.bing.com/maps/geoplat/REST/v1/Imagery/Map/RoadVibrant?ms=92,112&key=AnTcaqBi2ypp0xI-OZNi4W_ik2KhjgpqioTAtXLC8GzkMBQRMlyxvxyTnd5b73im&c=en-US&ur=in&da=n&logo=n&fmt=png&od=1&shading=hill&pp=23.177635,75.78965;dfp"
  },
  {
    "name": "Dr.udayjeet Kumawat",
    "address": "Hospital, Vikram Marg, Near Madhav Nagar, Freeganj, Madhav Nagar, Madhya Pradesh 456010",
    "phone": "Dr.udayjeet Kumawat",
    "hours": null,
    "image_url": "https://www.bing.com/maps/geoplat/REST/v1/Imagery/Map/RoadVibrant?ms=92,112&key=AnTcaqBi2ypp0xI-OZNi4W_ik2KhjgpqioTAtXLC8GzkMBQRMlyxvxyTnd5b73im&c=en-US&ur=in&da=n&logo=n&fmt=png&od=1&shading=hill&pp=23.178066,75.793137;dfp"
  },
  {
    "name": "Patidar Homoeo Health Clinic",
    "address": "Bus Stand, 85, Jawahar Marg, Diversion Road, Front of Convent School, Near Hajari bag, Barnagar, Madhya Pr…",
    "phone": "Patidar Homoeo Health Clinic",
    "hours": null,
    "image_url": null
  },
  {
    "name": "Dr. T S Chaudhary- ENT Specialist",
    "address": "Chaudhary Ent Hospital, 47/B, Kshapanak Marg, Dussehra Maidan, Near Lic Building, Freeganj, Ujjain, …",
    "phone": "Dr. T S Chaudhary- ENT Specialist",
    "hours": "Closed· Opens 11:00",
    "image_url": null
  },
  {
    "name": "Dr C M Puranik Md Clinic",
    "address": "Chota Gopal Mandir, Tilak Marg, Freeganj, Ujjain, Madhya Pradesh 456010",
    "phone": "Dr C M Puranik Md Clinic",
    "hours": null,
    "image_url": "https://www.bing.com/maps/geoplat/REST/v1/Imagery/Map/RoadVibrant?ms=92,112&key=AnTcaqBi2ypp0xI-OZNi4W_ik2KhjgpqioTAtXLC8GzkMBQRMlyxvxyTnd5b73im&c=en-US&ur=in&da=n&logo=n&fmt=png&od=1&shading=hill&pp=23.17988,75.788605;dfp"
  },
  {
    "name": "DR. Ankur Gupta",
    "address": "B\\4\\16, Ankur Gupta, Mahananda Nagar, Ujjain, Madhya Pradesh 456010",
    "phone": "DR. Ankur Gupta",
    "hours": null,
    "image_url": "https://www.bing.com/maps/geoplat/REST/v1/Imagery/Map/RoadVibrant?ms=92,112&key=AnTcaqBi2ypp0xI-OZNi4W_ik2KhjgpqioTAtXLC8GzkMBQRMlyxvxyTnd5b73im&c=en-US&ur=in&da=n&logo=n&fmt=png&od=1&shading=hill&pp=23.155407,75.80072;dfp"
  },
  {
    "name": "Shree bhimashankar ayurved and panchkarm clinic",
    "address": "Shree Bhimashankar Ayurved & Panchkarm Clinic, 27/2 Chobies Khamba Marg, Ujjain (m.p), Ujjain, Madhya Pr…",
    "phone": "Shree bhimashankar ayurved and panchkarm clinic",
    "hours": "Open· Closes 14:00",
    "image_url": null
  },
  {
    "name": "Tapasya: Multispecialty Clinic \" Dr Pathak Ujjain",
    "address": "Sector-A, Mahananda Nagar Complex, (in Front of Bank of India), Ujjain, Madhya Pradesh 456010",
    "phone": "Tapasya: Multispecialty Clinic \" Dr Pathak Ujjain",
    "hours": null,
    "image_url": null
  },
  {
    "name": "Dr. Abhay Jain",
    "address": "Awantika Plaza, Tilak Marg, Shahid Park, Ujjain, Madhya Pradesh 456010",
    "phone": "Dr. Abhay Jain",
    "hours": null,
    "image_url": "https://www.bing.com/maps/geoplat/REST/v1/Imagery/Map/RoadVibrant?ms=92,112&key=AnTcaqBi2ypp0xI-OZNi4W_ik2KhjgpqioTAtXLC8GzkMBQRMlyxvxyTnd5b73im&c=en-US&ur=in&da=n&logo=n&fmt=png&od=1&shading=hill&pp=23.181463,75.793617;dfp"
  }
]