[
  {
    "name": "Shuddhi Clinic Una",
    "address": "Basement Of Union Bank, Una-Hamirpur Road, Near Hotel Suvidha Palace, Una, Himachal Pradesh 174303",
    "phone": "Shuddhi Clinic Una",
    "hours": "Open· Closes 17:00",
    "image_url": "/th?id=OLC.L3IADfi3MpsZEA480x360&w=92&h=134&c=8&rs=1&qlt=80&cdv=1&pid=Local"
  },
  {
    "name": "Dr Satinder Chauhan Hospital",
    "address": "Near, Una Bus Stand Rd, Una, Himachal Pradesh 174303, Una, Himachal Pradesh, Himachal Pradesh 17…",
    "phone": "Dr Satinder Chauhan Hospital",
    "hours": null,
    "image_url": "/th?id=OLC.2P1bXq9OZdIVEw480x360&w=92&h=112&c=8&rs=1&qlt=80&cdv=1&pid=Local"
  },
  {
    "name": "Sharma Clinic",
    "address": "Galua Road, Bus Stand, Una, Himachal Pradesh 174303",
    "phone": "Sharma Clinic",
    "hours": null,
    "image_url": "https://www.bing.com/maps/geoplat/REST/v1/Imagery/Map/RoadVibrant?ms=92,112&key=AnTcaqBi2ypp0xI-OZNi4W_ik2KhjgpqioTAtXLC8GzkMBQRMlyxvxyTnd5b73im&c=en-US&ur=in&da=n&logo=n&fmt=png&od=1&shading=hill&pp=31.462915,76.279663;dfp"
  },
  {
    "name": "Dr Ravinder Sood Clinic",
    "address": "Kotala Kalan, Sh32 Una Jahu Nerchowk Road, Una, Himachal Pradesh 174305",
    "phone": "Dr Ravinder Sood Clinic",
    "hours": null,
    "image_url": "/th?id=OLC.aNlkThoaqN%2bx4g480x360&w=92&h=112&c=8&rs=1&qlt=80&cdv=1&pid=Local"
  },
  {
    "name": "Sidhwani Clinic",
    "address": "Una Main Bazar Road, Heritage Gurudwara, Una, Himachal Pradesh 174303",
    "phone": "Sidhwani Clinic",
    "hours": null,
    "image_url": "https://www.bing.com/maps/geoplat/REST/v1/Imagery/Map/RoadVibrant?ms=92,112&key=AnTcaqBi2ypp0xI-OZNi4W_ik2KhjgpqioTAtXLC8GzkMBQRMlyxvxyTnd5b73im&c=en-US&ur=in&da=n&logo=n&fmt=png&od=1&shading=hill&pp=31.467167,76.265312;dfp"
  },
  {
    "name": "Kashul Clinic",
    "address": "Main Khad Road, Una Dc Colony Park, Una, Himachal Pradesh 174303",
    "phone": "Kashul Clinic",
    "hours": null,
    "image_url": "https://www.bing.com/maps/geoplat/REST/v1/Imagery/Map/RoadVibrant?ms=92,112&key=AnTcaqBi2ypp0xI-OZNi4W_ik2KhjgpqioTAtXLC8GzkMBQRMlyxvxyTnd5b73im&c=en-US&ur=in&da=n&logo=n&fmt=png&od=1&shading=hill&pp=31.466894,76.265518;dfp"
  },
  {
    "name": "Jagota Clinic",
    "address": "Ram Nagar, Sh25 Nangal Road, Una, Himachal Pradesh 174303",
    "phone": "Jagota Clinic",
    "hours": null,
    "image_url": "https://www.bing.com/maps/geoplat/REST/v1/Imagery/Map/RoadVibrant?ms=92,112&key=AnTcaqBi2ypp0xI-OZNi4W_ik2KhjgpqioTAtXLC8GzkMBQRMlyxvxyTnd5b73im&c=en-US&ur=in&da=n&logo=n&fmt=png&od=1&shading=hill&pp=31.468382,76.272751;dfp"
  },
  {
    "name": "Goyal Clinic",
    "address": "Sharma Dairy, Sh25, Prem Nagar, Una, Himachal Pradesh 174303",
    "phone": "Goyal Clinic",
    "hours": null,
    "image_url": "https://www.bing.com/maps/geoplat/REST/v1/Imagery/Map/RoadVibrant?ms=92,112&key=AnTcaqBi2ypp0xI-OZNi4W_ik2KhjgpqioTAtXLC8GzkMBQRMlyxvxyTnd5b73im&c=en-US&ur=in&da=n&logo=n&fmt=png&od=1&shading=hill&pp=31.467489,76.264374;dfp"
  },
  {
    "name": "Dr Stender Chauhan Hospital",
    "address": "Ram Nagar, Sh32 Una Jahu Nerchowk Road, Una, Himachal Pradesh 174303",
    "phone": "Dr Stender Chauhan Hospital",
    "hours": null,
    "image_url": "https://www.bing.com/maps/geoplat/REST/v1/Imagery/Map/RoadVibrant?ms=92,112&key=AnTcaqBi2ypp0xI-OZNi4W_ik2KhjgpqioTAtXLC8GzkMBQRMlyxvxyTnd5b73im&c=en-US&ur=in&da=n&logo=n&fmt=png&od=1&shading=hill&pp=31.469049,76.270714;dfp"
  },
  {
    "name": "Dr. Indu's AyurClinic",
    "address": "Ashirwad Complex, DR. Indu's Ayurclinic, Una, Himachal Pradesh 174303",
    "phone": "Dr. Indu's AyurClinic",
    "hours": null,
    "image_url": null
  },
  {
    "name": "Primary Health Centre",
    "address": "Panoh, Sh25 Una Amb Road, Una, Himachal Pradesh 174303",
    "phone": "Primary Health Centre",
    "hours": null,
    "image_url": "https://www.bing.com/maps/geoplat/REST/v1/Imagery/Map/RoadVibrant?ms=92,112&key=AnTcaqBi2ypp0xI-OZNi4W_ik2KhjgpqioTAtXLC8GzkMBQRMlyxvxyTnd5b73im&c=en-US&ur=in&da=n&logo=n&fmt=png&od=1&shading=hill&pp=31.489267,76.234779;dfp"
  },
  {
    "name": "Homoeopathic Clinic",
    "address": "01 Ajay Kumar AMB, Una, Himachal Pradesh 177211",
    "phone": "Homoeopathic Clinic",
    "hours": null,
    "image_url": "https://www.bing.com/maps/geoplat/REST/v1/Imagery/Map/RoadVibrant?ms=92,112&key=AnTcaqBi2ypp0xI-OZNi4W_ik2KhjgpqioTAtXLC8GzkMBQRMlyxvxyTnd5b73im&c=en-US&ur=in&da=n&logo=n&fmt=png&od=1&shading=hill&pp=31.473301,76.271751;dfp"
  },
  {
    "name": "Attri Homeo Clinic",
    "address": "Pulwala Bzar Road, Tcp Office, Una, Himachal Pradesh 174303",
    "phone": "Attri Homeo Clinic",
    "hours": null,
    "image_url": "https://www.bing.com/maps/geoplat/REST/v1/Imagery/Map/RoadVibrant?ms=92,112&key=AnTcaqBi2ypp0xI-OZNi4W_ik2KhjgpqioTAtXLC8GzkMBQRMlyxvxyTnd5b73im&c=en-US&ur=in&da=n&logo=n&fmt=png&od=1&shading=hill&pp=31.467892,76.271317;dfp"
  },
  {
    "name": "Gulshan Rai Diagnostic Center",
    "address": "Pune Jahu Neer Chowk Road, Bus Stand, Una, Himachal Pradesh 174303",
    "phone": "Gulshan Rai Diagnostic Center",
    "hours": null,
    "image_url": "https://www.bing.com/maps/geoplat/REST/v1/Imagery/Map/RoadVibrant?ms=92,112&key=AnTcaqBi2ypp0xI-OZNi4W_ik2KhjgpqioTAtXLC8GzkMBQRMlyxvxyTnd5b73im&c=en-US&ur=in&da=n&logo=n&fmt=png&od=1&shading=hill&pp=31.475025,76.272293;dfp"
  },
  {
    "name": "Dr Lal PathLabs - Patient Service Centre",
    "address": "Shop No 1, Karishna Tower, Una Amb Road, Una, Himachal Pradesh 174303",
    "phone": "Dr Lal PathLabs - Patient Service Centre",
    "hours": "Open· Closes 20:00",
    "image_url": "https://www.bing.com/maps/geoplat/REST/v1/Imagery/Map/RoadVibrant?ms=92,134&key=AnTcaqBi2ypp0xI-OZNi4W_ik2KhjgpqioTAtXLC8GzkMBQRMlyxvxyTnd5b73im&c=en-US&ur=in&da=n&logo=n&fmt=png&od=1&shading=hill&pp=31.467255,76.261528;dfp"
  },
  {
    "name": "Arun Diagnostic Centre",
    "address": "Una-Hamirpur Road Arniala, Opposite Regional Hospital, Una, Himachal Pradesh",
    "phone": "Arun Diagnostic Centre",
    "hours": null,
    "image_url": "https://www.bing.com/maps/geoplat/REST/v1/Imagery/Map/RoadVibrant?ms=92,112&key=AnTcaqBi2ypp0xI-OZNi4W_ik2KhjgpqioTAtXLC8GzkMBQRMlyxvxyTnd5b73im&c=en-US&ur=in&da=n&logo=n&fmt=png&od=1&shading=hill&pp=31.485521,76.272202;dfp"
  },
  {
    "name": "Dr Lal PathLabs - Patient Service Centre",
    "address": "Ground Floor, Ghanari, Gagret 177201",
    "phone": "Dr Lal PathLabs - Patient Service Centre",
    "hours": null,
    "image_url": "https://www.bing.com/maps/geoplat/REST/v1/Imagery/Map/RoadVibrant?ms=92,112&key=AnTcaqBi2ypp0xI-OZNi4W_ik2KhjgpqioTAtXLC8GzkMBQRMlyxvxyTnd5b73im&c=en-US&ur=in&da=n&logo=n&fmt=png&od=1&shading=hill&pp=31.469007,76.270775;dfp"
  },
  {
    "name": "Himachal International Diagnostic Center",
    "address": "Near Vishal Mega Mart OLD Hoshiarpur Road, Una, Himachal Pradesh 174303",
    "phone": "Himachal International Diagnostic Center",
    "hours": null,
    "image_url": "https://www.bing.com/maps/geoplat/REST/v1/Imagery/Map/RoadVibrant?ms=92,112&key=AnTcaqBi2ypp0xI-OZNi4W_ik2KhjgpqioTAtXLC8GzkMBQRMlyxvxyTnd5b73im&c=en-US&ur=in&da=n&logo=n&fmt=png&od=1&shading=hill&pp=31.486887,76.272484;dfp"
  }
]