[
  {
    "name": "Dr. Jay Prakash | General Physician | Radha health centar",
    "address": "Radha Health Centar, Lalganj, Bihar, India, 844121, Lalganj, Madhya Pradesh 844121",
    "phone": "Dr. Jay Prakash | General Physician | Radha health centar",
    "hours": "Open· Closes 14:00",
    "image_url": "/th?id=OLC.c%2bwxmqTy1sqD9g480x360&w=92&h=134&c=8&rs=1&qlt=80&cdv=1&pid=Local"
  },
  {
    "name": "Dr. Ravi Bhushan Lal",
    "address": "Anwarpur Chowk, Vaishali, Bihar",
    "phone": "Dr. Ravi Bhushan Lal",
    "hours": "Closed· Opens 14:00",
    "image_url": "https://www.bing.com/maps/geoplat/REST/v1/Imagery/Map/RoadVibrant?ms=92,112&key=AnTcaqBi2ypp0xI-OZNi4W_ik2KhjgpqioTAtXLC8GzkMBQRMlyxvxyTnd5b73im&c=en-US&ur=in&da=n&logo=n&fmt=png&od=1&shading=hill&pp=25.698368,85.214745;dfp"
  },
  {
    "name": "Dr. Abhijit",
    "address": "Doctors Colony, Opposite Nagarpalika Pani Tanki, Rambalak Chowk, Vaishali, Bihar",
    "phone": "Dr. Abhijit",
    "hours": "Open· Closes 12:00",
    "image_url": "https://www.bing.com/maps/geoplat/REST/v1/Imagery/Map/RoadVibrant?ms=92,112&key=AnTcaqBi2ypp0xI-OZNi4W_ik2KhjgpqioTAtXLC8GzkMBQRMlyxvxyTnd5b73im&c=en-US&ur=in&da=n&logo=n&fmt=png&od=1&shading=hill&pp=25.695021,85.21579;dfp"
  },
  {
    "name": "Dr. Shamsul Hoda",
    "address": "Trimurti Chowk, Johari Bazaar, Purani Gandak Pul Road, Vaishali, Bihar",
    "phone": "Dr. Shamsul Hoda",
    "hours": "Closed· Opens 11:00",
    "image_url": "/th?id=OLC.l7mesZAHMBdtCw480x360&w=92&h=112&c=8&rs=1&qlt=80&cdv=1&pid=Local"
  },
  {
    "name": "Om Sai Clinic",
    "address": "Jauhari Bazar, Sanchipatti, Vaishali, NH-19, Sonepur Railway Station Road, Vaishali, Bihar",
    "phone": "Om Sai Clinic",
    "hours": null,
    "image_url": "/th?id=OLC.LazcMDF9%2beeS8g480x360&w=92&h=112&c=8&rs=1&qlt=80&cdv=1&pid=Local"
  },
  {
    "name": "Dr Jitendr Kumar",
    "address": "68, Kanhauli Dhanraj, Mahua, Kanhauli, Hajipur, Vaishali, Bihar 844122",
    "phone": "Dr Jitendr Kumar",
    "hours": "Closed· Opens Thu 18:00",
    "image_url": "https://www.bing.com/maps/geoplat/REST/v1/Imagery/Map/RoadVibrant?ms=92,112&key=AnTcaqBi2ypp0xI-OZNi4W_ik2KhjgpqioTAtXLC8GzkMBQRMlyxvxyTnd5b73im&c=en-US&ur=in&da=n&logo=n&fmt=png&od=1&shading=hill&pp=25.7889,85.364006;dfp"
  },
  {
    "name": "Max Super Speciality Hospital",
    "address": "108 A, Indraprastha Extension, New Delhi, Delhi 110092",
    "phone": "Max Super Speciality Hospital",
    "hours": "Open 24 hours",
    "image_url": null
  },
  {
    "name": "Dr. Prabhat Kumar",
    "address": "Hospital Road, Vaishali, Bihar",
    "phone": "Dr. Prabhat Kumar",
    "hours": "Open· Closes 21:00",
    "image_url": "https://www.bing.com/maps/geoplat/REST/v1/Imagery/Map/RoadVibrant?ms=92,112&key=AnTcaqBi2ypp0xI-OZNi4W_ik2KhjgpqioTAtXLC8GzkMBQRMlyxvxyTnd5b73im&c=en-US&ur=in&da=n&logo=n&fmt=png&od=1&shading=hill&pp=25.691998,85.208466;dfp"
  },
  {
    "name": "Dr. C. K. Singh",
    "address": "Town Thana Road, Vaishali, Bihar",
    "phone": "Dr. C. K. Singh",
    "hours": "Open· Closes 12:00",
    "image_url": "https://www.bing.com/maps/geoplat/REST/v1/Imagery/Map/RoadVibrant?ms=92,112&key=AnTcaqBi2ypp0xI-OZNi4W_ik2KhjgpqioTAtXLC8GzkMBQRMlyxvxyTnd5b73im&c=en-US&ur=in&da=n&logo=n&fmt=png&od=1&shading=hill&pp=25.689497,85.207596;dfp"
  },
  {
    "name": "Dr Rajnish Orthopedic Clinic",
    "address": "Dhanauti Pokhar, Hajipur, Marai Road, Vaishali, Bihar 844101",
    "phone": "Dr Rajnish Orthopedic Clinic",
    "hours": "Closed· Opens 14:00",
    "image_url": null
  },
  {
    "name": "Prasad Clinic",
    "address": "Anwarpur, Hajipur, Vaishali, Bihar 844101",
    "phone": "Prasad Clinic",
    "hours": null,
    "image_url": "https://www.bing.com/maps/geoplat/REST/v1/Imagery/Map/RoadVibrant?ms=92,112&key=AnTcaqBi2ypp0xI-OZNi4W_ik2KhjgpqioTAtXLC8GzkMBQRMlyxvxyTnd5b73im&c=en-US&ur=in&da=n&logo=n&fmt=png&od=1&shading=hill&pp=25.69832,85.21537;dfp"
  },
  {
    "name": "C K N Singh Clinic",
    "address": "101, Krishna Naval Kunj Appartment, Hajipur, Jauhari Bazar, Vaishali, Bihar 844101",
    "phone": "C K N Singh Clinic",
    "hours": null,
    "image_url": "https://www.bing.com/maps/geoplat/REST/v1/Imagery/Map/RoadVibrant?ms=92,112&key=AnTcaqBi2ypp0xI-OZNi4W_ik2KhjgpqioTAtXLC8GzkMBQRMlyxvxyTnd5b73im&c=en-US&ur=in&da=n&logo=n&fmt=png&od=1&shading=hill&pp=25.686247,85.203445;dfp"
  },
  {
    "name": "Dr. Amit Gupta",
    "address": "845, Gda Market, Sector 7, Vaishali, Ghaziabad 201012",
    "phone": "Dr. Amit Gupta",
    "hours": "Open· Closes 11:00",
    "image_url": "https://www.bing.com/maps/geoplat/REST/v1/Imagery/Map/RoadVibrant?ms=92,134&key=AnTcaqBi2ypp0xI-OZNi4W_ik2KhjgpqioTAtXLC8GzkMBQRMlyxvxyTnd5b73im&c=en-US&ur=in&da=n&logo=n&fmt=png&od=1&shading=hill&pp=28.646914,77.34594;dfp"
  },
  {
    "name": "Patliputra Multi Super Speciality Clinic",
    "address": "Jauhari Bazar, Jauhari Bazar Road, Hajipur, Vaishali, Bihar 844101",
    "phone": "Patliputra Multi Super Speciality Clinic",
    "hours": null,
    "image_url": "https://www.bing.com/maps/geoplat/REST/v1/Imagery/Map/RoadVibrant?ms=92,112&key=AnTcaqBi2ypp0xI-OZNi4W_ik2KhjgpqioTAtXLC8GzkMBQRMlyxvxyTnd5b73im&c=en-US&ur=in&da=n&logo=n&fmt=png&od=1&shading=hill&pp=25.694862,85.221581;dfp"
  },
  {
    "name": "Mangal Murti Clinic",
    "address": "F NO 01, C/O Shambhunath Singh S/O Jagdeo PD Singh, Anwarpur Purbi Hajipur, Vaishali, Bihar 844101",
    "phone": "Mangal Murti Clinic",
    "hours": null,
    "image_url": "https://www.bing.com/maps/geoplat/REST/v1/Imagery/Map/RoadVibrant?ms=92,112&key=AnTcaqBi2ypp0xI-OZNi4W_ik2KhjgpqioTAtXLC8GzkMBQRMlyxvxyTnd5b73im&c=en-US&ur=in&da=n&logo=n&fmt=png&od=1&shading=hill&pp=25.698465,85.21508;dfp"
  },
  {
    "name": "Muskan Clinic",
    "address": "Adalpur, Panchvati Chowk Misrauliya, Jandaha, Vaishali, Bihar 844126",
    "phone": "Muskan Clinic",
    "hours": null,
    "image_url": "https://www.bing.com/maps/geoplat/REST/v1/Imagery/Map/RoadVibrant?ms=92,112&key=AnTcaqBi2ypp0xI-OZNi4W_ik2KhjgpqioTAtXLC8GzkMBQRMlyxvxyTnd5b73im&c=en-US&ur=in&da=n&logo=n&fmt=png&od=1&shading=hill&pp=25.704054,85.209885;dfp"
  },
  {
    "name": "Kamal Nayan Clinic",
    "address": "Bishunpur Taraura Patepur Road, Bhagwatpur Taraur Mahua, Vaishali, Bihar 844122",
    "phone": "Kamal Nayan Clinic",
    "hours": null,
    "image_url": "https://www.bing.com/maps/geoplat/REST/v1/Imagery/Map/RoadVibrant?ms=92,112&key=AnTcaqBi2ypp0xI-OZNi4W_ik2KhjgpqioTAtXLC8GzkMBQRMlyxvxyTnd5b73im&c=en-US&ur=in&da=n&logo=n&fmt=png&od=1&shading=hill&pp=25.831264,85.396011;dfp"
  },
  {
    "name": "Neetu Clinic",
    "address": "Subhadra Path, Anandpuri, Patna, Bihar 800001",
    "phone": "Neetu Clinic",
    "hours": null,
    "image_url": "https://www.bing.com/maps/geoplat/REST/v1/Imagery/Map/RoadVibrant?ms=92,112&key=AnTcaqBi2ypp0xI-OZNi4W_ik2KhjgpqioTAtXLC8GzkMBQRMlyxvxyTnd5b73im&c=en-US&ur=in&da=n&logo=n&fmt=png&od=1&shading=hill&pp=25.620291,85.118996;dfp"
  }
]