[
  {
    "name": "Dr. Percy B. Kharas",
    "address": "Kharas Hospital & Maternity Home, 1st Floor, Ravikiran Building, Maulana Azad Road, Luhar Tekra, Valsad, Gu…",
    "phone": "Dr. Percy B. Kharas",
    "hours": "Closed· Opens 12:30",
    "image_url": "/th?id=OLC.1b3z24y7eAJhYg480x360&w=92&h=134&c=8&rs=1&qlt=80&cdv=1&pid=Local"
  },
  {
    "name": "Lotus Hospital",
    "address": "Opp.Geeta Sadan, Valsad, Gujarat 396001",
    "phone": "Lotus Hospital",
    "hours": null,
    "image_url": "/th?id=OLC.ED%2fLEhnIFmC9qA480x360&w=92&h=112&c=8&rs=1&qlt=80&cdv=1&pid=Local"
  },
  {
    "name": "Dr. Shashvat Joshi",
    "address": "Riddhi-Siddhi Apartments, Dharampur, Valsad, Gujarat",
    "phone": "Dr. Shashvat Joshi",
    "hours": "Closed· Opens Wed 10:00",
    "image_url": "https://www.bing.com/maps/geoplat/REST/v1/Imagery/Map/RoadVibrant?ms=92,112&key=AnTcaqBi2ypp0xI-OZNi4W_ik2KhjgpqioTAtXLC8GzkMBQRMlyxvxyTnd5b73im&c=en-US&ur=in&da=n&logo=n&fmt=png&od=1&shading=hill&pp=20.611273,72.927353;dfp"
  },
  {
    "name": "Dr.Akash patel",
    "address": "G/F Ananddham apt., Nr. Koli Patel Samaj Vadi, Tithal Road, Valsad, Gujarat 396001",
    "phone": "Dr.Akash patel",
    "hours": "Open· Closes 18:00",
    "image_url": "/th?id=OLC.gm%2faS79zq3U34Q480x360&w=92&h=134&c=8&rs=1&qlt=80&cdv=1&pid=Local"
  },
  {
    "name": "Dr Satish Clinic",
    "address": "Kiran Parekh Hospital, Halar Road, Mograwadi, Valsad, Gujarat 396001",
    "phone": "Dr Satish Clinic",
    "hours": null,
    "image_url": "https://www.bing.com/maps/geoplat/REST/v1/Imagery/Map/RoadVibrant?ms=92,112&key=AnTcaqBi2ypp0xI-OZNi4W_ik2KhjgpqioTAtXLC8GzkMBQRMlyxvxyTnd5b73im&c=en-US&ur=in&da=n&logo=n&fmt=png&od=1&shading=hill&pp=20.611303,72.927979;dfp"
  },
  {
    "name": "Sattva Clinics - Valsad Branch",
    "address": "5-6/A Riddhi Siddhi Appartment, Opposite KB Mall, Halar Road, Valsad, Gujarat",
    "phone": "Sattva Clinics - Valsad Branch",
    "hours": null,
    "image_url": "/th?id=OLC.XcBPpQOc0vGHoQ480x360&w=92&h=112&c=8&rs=1&qlt=80&cdv=1&pid=Local"
  },
  {
    "name": "Dr Mhaskar General Hospital",
    "address": "2nd Floor, Avi Arcade, Halar Rd, Valsad, Gujarat 396001, India, Valsad, Gujarat 396001",
    "phone": "Dr Mhaskar General Hospital",
    "hours": null,
    "image_url": null
  },
  {
    "name": "Dr. Priyanka Joshi",
    "address": "Riddhi-Siddhi Apartments, Dharampur, Valsad, Gujarat",
    "phone": "Dr. Priyanka Joshi",
    "hours": "Closed· Opens Wed 09:00",
    "image_url": "https://www.bing.com/maps/geoplat/REST/v1/Imagery/Map/RoadVibrant?ms=92,112&key=AnTcaqBi2ypp0xI-OZNi4W_ik2KhjgpqioTAtXLC8GzkMBQRMlyxvxyTnd5b73im&c=en-US&ur=in&da=n&logo=n&fmt=png&od=1&shading=hill&pp=20.611246,72.927444;dfp"
  },
  {
    "name": "New Padma Clinic",
    "address": "Halar Road, Valsad, Gujarat 396001",
    "phone": "New Padma Clinic",
    "hours": "Open· Closes 13:00",
    "image_url": null
  },
  {
    "name": "Dr. Girdhar G. Rolekar",
    "address": "Rolekar Medicentre, Behind Vishnu Chamber, Near Grandure Hotel, Bacher Road, Valsad, Gujarat",
    "phone": "Dr. Girdhar G. Rolekar",
    "hours": "Open· Closes 13:00",
    "image_url": null
  },
  {
    "name": "Dr G K Beewala clinic",
    "address": "Avabai Complex 1st Floor 113 Opposite SBI Bank, Halar Rd, Near Doctor House, Valsad, Gujarat",
    "phone": "Dr G K Beewala clinic",
    "hours": null,
    "image_url": "https://www.bing.com/maps/geoplat/REST/v1/Imagery/Map/RoadVibrant?ms=92,112&key=AnTcaqBi2ypp0xI-OZNi4W_ik2KhjgpqioTAtXLC8GzkMBQRMlyxvxyTnd5b73im&c=en-US&ur=in&da=n&logo=n&fmt=png&od=1&shading=hill&pp=20.610146,72.92765;dfp"
  },
  {
    "name": "Dr Rajesh",
    "address": "Halar Road, Valsad, Gujarat 396001",
    "phone": "Dr Rajesh",
    "hours": null,
    "image_url": null
  },
  {
    "name": "Valsad Clinic",
    "address": "Ankur Hospital, Stadium Road, Mograwadi, Valsad, Gujarat 396001",
    "phone": "Valsad Clinic",
    "hours": null,
    "image_url": "https://www.bing.com/maps/geoplat/REST/v1/Imagery/Map/RoadVibrant?ms=92,112&key=AnTcaqBi2ypp0xI-OZNi4W_ik2KhjgpqioTAtXLC8GzkMBQRMlyxvxyTnd5b73im&c=en-US&ur=in&da=n&logo=n&fmt=png&od=1&shading=hill&pp=20.611473,72.931259;dfp"
  },
  {
    "name": "Rudra Clinic, Killa-Pardi.",
    "address": "Shop NO 9 Rudra Clinic Vasudev Residency, Umarsadi Desaiwad Pardi Railway, Valsad, Gujarat 396125",
    "phone": "Rudra Clinic, Killa-Pardi.",
    "hours": null,
    "image_url": "https://www.bing.com/maps/geoplat/REST/v1/Imagery/Map/RoadVibrant?ms=92,112&key=AnTcaqBi2ypp0xI-OZNi4W_ik2KhjgpqioTAtXLC8GzkMBQRMlyxvxyTnd5b73im&c=en-US&ur=in&da=n&logo=n&fmt=png&od=1&shading=hill&pp=20.612511,72.928932;dfp"
  },
  {
    "name": "MS NEURON BRAIN & SPINE CLINIC (Dr. Mukesh Sumra)",
    "address": "Vidhi Nursing Home, Avi Arcade, Halar Rd, Government Colony, Valsad, Gujarat",
    "phone": "MS NEURON BRAIN & SPINE CLINIC (Dr. Mukesh Sumra)",
    "hours": null,
    "image_url": "https://www.bing.com/maps/geoplat/REST/v1/Imagery/Map/RoadVibrant?ms=92,112&key=AnTcaqBi2ypp0xI-OZNi4W_ik2KhjgpqioTAtXLC8GzkMBQRMlyxvxyTnd5b73im&c=en-US&ur=in&da=n&logo=n&fmt=png&od=1&shading=hill&pp=20.609274,72.926987;dfp"
  },
  {
    "name": "LOTUS Diabetes Clinic",
    "address": "Lotus Hospital, Valsad, Gujarat 396001",
    "phone": "LOTUS Diabetes Clinic",
    "hours": null,
    "image_url": "https://www.bing.com/maps/geoplat/REST/v1/Imagery/Map/RoadVibrant?ms=92,112&key=AnTcaqBi2ypp0xI-OZNi4W_ik2KhjgpqioTAtXLC8GzkMBQRMlyxvxyTnd5b73im&c=en-US&ur=in&da=n&logo=n&fmt=png&od=1&shading=hill&pp=20.615458,72.92627;clcp"
  },
  {
    "name": "Atharva Ayurveda & Panchkarma Hospital",
    "address": "303, Kavan Arcade, Opp. Centre Point, Station Road, Killa Pardi, Di: Valsad, Killa Pardi, Gujarat, Gujarat 396…",
    "phone": "Atharva Ayurveda & Panchkarma Hospital",
    "hours": null,
    "image_url": "https://www.bing.com/maps/geoplat/REST/v1/Imagery/Map/RoadVibrant?ms=92,112&key=AnTcaqBi2ypp0xI-OZNi4W_ik2KhjgpqioTAtXLC8GzkMBQRMlyxvxyTnd5b73im&c=en-US&ur=in&da=n&logo=n&fmt=png&od=1&shading=hill&pp=20.59269,72.943207;dfp"
  },
  {
    "name": "Shaswat Heart Care & Ayurved Panchkarma Clinic",
    "address": "4, 5 Trade Center, 1st Floor, Opposite Bank Of Baroda, Above Bajaj Showroom, Dharampur Road, Abrama., V…",
    "phone": "Shaswat Heart Care & Ayurved Panchkarma Clinic",
    "hours": null,
    "image_url": "https://www.bing.com/maps/geoplat/REST/v1/Imagery/Map/RoadVibrant?ms=92,112&key=AnTcaqBi2ypp0xI-OZNi4W_ik2KhjgpqioTAtXLC8GzkMBQRMlyxvxyTnd5b73im&c=en-US&ur=in&da=n&logo=n&fmt=png&od=1&shading=hill&pp=20.592289,72.944801;dfp"
  }
]