[
  {
    "name": "Ali Clinic Dr Sadre Alam",
    "address": "Fariha-Nizamabad Rd, Nai Sarak, Isapur, Uttar Pradesh",
    "phone": "Ali Clinic Dr Sadre Alam",
    "hours": null,
    "image_url": "https://www.bing.com/maps/geoplat/REST/v1/Imagery/Map/RoadVibrant?ms=92,112&key=AnTcaqBi2ypp0xI-OZNi4W_ik2KhjgpqioTAtXLC8GzkMBQRMlyxvxyTnd5b73im&c=en-US&ur=in&da=n&logo=n&fmt=png&od=1&shading=hill&pp=25.309532,83.005539;dfp"
  },
  {
    "name": "Dr Priyankar Sharma",
    "address": "BHU Road, Near Hotel Vijoya International, Bangali Tola, Varanasi, Uttar Pradesh 221001",
    "phone": "Dr Priyankar Sharma",
    "hours": null,
    "image_url": "https://www.bing.com/maps/geoplat/REST/v1/Imagery/Map/RoadVibrant?ms=92,112&key=AnTcaqBi2ypp0xI-OZNi4W_ik2KhjgpqioTAtXLC8GzkMBQRMlyxvxyTnd5b73im&c=en-US&ur=in&da=n&logo=n&fmt=png&od=1&shading=hill&pp=25.308668,83.006348;dfp"
  },
  {
    "name": "Dr. H B Das Gupta",
    "address": "Mahmoorganj Manduwadih Road, Landmark: Passport Office, Varanasi, Uttar Pradesh",
    "phone": "Dr. H B Das Gupta",
    "hours": "Open· Closes 13:00",
    "image_url": "/th?id=OLC.qUPs0qeFPC62KQ480x360&w=92&h=112&c=8&rs=1&qlt=80&cdv=1&pid=Local"
  },
  {
    "name": "Dr. B.K. Agrawal",
    "address": "BHU Road, Near Hotel Vijaya International, Bangali Tola, Varanasi, Uttar Pradesh 221001",
    "phone": "Dr. B.K. Agrawal",
    "hours": null,
    "image_url": "https://www.bing.com/maps/geoplat/REST/v1/Imagery/Map/RoadVibrant?ms=92,112&key=AnTcaqBi2ypp0xI-OZNi4W_ik2KhjgpqioTAtXLC8GzkMBQRMlyxvxyTnd5b73im&c=en-US&ur=in&da=n&logo=n&fmt=png&od=1&shading=hill&pp=25.308874,83.00695;dfp"
  },
  {
    "name": "Dr. Arun Singh | Surgery | Dr. Arun Singh's clinic",
    "address": "Dr. Arun Singh's Clinic, Varanasi, Uttar Pradesh, India, 221002, Varanasi, Madhya Pradesh 221002",
    "phone": "Dr. Arun Singh | Surgery | Dr. Arun Singh's clinic",
    "hours": "Closed· Opens 16:30",
    "image_url": "/th?id=OLC.7midH4H9bGktrQ480x360&w=92&h=134&c=8&rs=1&qlt=80&cdv=1&pid=Local"
  },
  {
    "name": "Dr. Sunil Tripathi",
    "address": "Vivekananda Road, Gurubagh, Birdopur, Varanasi, Uttar Pradesh 221001",
    "phone": "Dr. Sunil Tripathi",
    "hours": null,
    "image_url": "https://www.bing.com/maps/geoplat/REST/v1/Imagery/Map/RoadVibrant?ms=92,112&key=AnTcaqBi2ypp0xI-OZNi4W_ik2KhjgpqioTAtXLC8GzkMBQRMlyxvxyTnd5b73im&c=en-US&ur=in&da=n&logo=n&fmt=png&od=1&shading=hill&pp=25.305136,82.996445;dfp"
  },
  {
    "name": "Heritage Hospitals",
    "address": "Pandit Madan Mohan Malviya Road, Varanasi, Uttar Pradesh 221005",
    "phone": "Heritage Hospitals",
    "hours": null,
    "image_url": null
  },
  {
    "name": "Dr. Nagendra Singh",
    "address": "S-5/148, Vindyawasini Katra, Mahaveer Road, Pandeypur, Varanasi City, Landmark: Mahaveer Templ…",
    "phone": "Dr. Nagendra Singh",
    "hours": "Open· Closes 14:00",
    "image_url": null
  },
  {
    "name": "Dr. Mohan Srivastav",
    "address": "Arya Samaj Marg, Near Kamla Paper Trading Company, Bulanala, Varanasi, Uttar Pradesh 221001",
    "phone": "Dr. Mohan Srivastav",
    "hours": null,
    "image_url": "https://www.bing.com/maps/geoplat/REST/v1/Imagery/Map/RoadVibrant?ms=92,112&key=AnTcaqBi2ypp0xI-OZNi4W_ik2KhjgpqioTAtXLC8GzkMBQRMlyxvxyTnd5b73im&c=en-US&ur=in&da=n&logo=n&fmt=png&od=1&shading=hill&pp=25.310801,83.00853;dfp"
  },
  {
    "name": "Shuddhi Clinic Varanasi",
    "address": "Flat No. D-58, 12M-3/5, Gandhi Nagar, Sigra, Near TVS Show Room, Opposite Satyam Hospital, Varanasi, Utta…",
    "phone": "Shuddhi Clinic Varanasi",
    "hours": "Open· Closes 18:00",
    "image_url": null
  },
  {
    "name": "Dr. Unmesh Chakraverty",
    "address": "Ravindrapuri Extension, Lanka, Varanasi, Uttar Pradesh 221005",
    "phone": "Dr. Unmesh Chakraverty",
    "hours": "Closed· Opens 11:00",
    "image_url": null
  },
  {
    "name": "Chakraverty Clinic",
    "address": "B-21/46-A Kamachha, Varanasi, Uttar Pradesh, Uttar Pradesh 221010",
    "phone": "Chakraverty Clinic",
    "hours": null,
    "image_url": null
  },
  {
    "name": "Dr Batra's Homeopathy",
    "address": "No C19/40/1, Fatman Road, Sigra, Varanasi, Uttar Pradesh 221012",
    "phone": "Dr Batra's Homeopathy",
    "hours": "Closed· Opens 11:00",
    "image_url": null
  },
  {
    "name": "Dr. S.P. Pandey Clinic",
    "address": "Arya Samaj Marg, Near Kamla Paper Trading Company, Bulanala, Varanasi, Uttar Pradesh 221001",
    "phone": "Dr. S.P. Pandey Clinic",
    "hours": null,
    "image_url": "https://www.bing.com/maps/geoplat/REST/v1/Imagery/Map/RoadVibrant?ms=92,112&key=AnTcaqBi2ypp0xI-OZNi4W_ik2KhjgpqioTAtXLC8GzkMBQRMlyxvxyTnd5b73im&c=en-US&ur=in&da=n&logo=n&fmt=png&od=1&shading=hill&pp=25.310389,83.007782;dfp"
  },
  {
    "name": "Dr Sakshi Agarwal",
    "address": "Ujala Cygnus Hospital, 64, Near Chetmani Chauraha, Jawahar Nagar Colony, Varanasi, Uttar Pradesh",
    "phone": "Dr Sakshi Agarwal",
    "hours": null,
    "image_url": null
  },
  {
    "name": "Dr. K. N. Chakravarty",
    "address": "B 20/ 1 J 2B, Varanasi, Uttar Pradesh",
    "phone": "Dr. K. N. Chakravarty",
    "hours": "Open· Closes 14:00",
    "image_url": "https://www.bing.com/maps/geoplat/REST/v1/Imagery/Map/RoadVibrant?ms=92,112&key=AnTcaqBi2ypp0xI-OZNi4W_ik2KhjgpqioTAtXLC8GzkMBQRMlyxvxyTnd5b73im&c=en-US&ur=in&da=n&logo=n&fmt=png&od=1&shading=hill&pp=25.301041,83.000374;dfp"
  },
  {
    "name": "Shibani Homoeo clinic",
    "address": "Kharikuan, Near Girzaghar, Godowlia, Varanasi, Uttar Pradesh, Uttar Pradesh 221001",
    "phone": "Shibani Homoeo clinic",
    "hours": null,
    "image_url": null
  },
  {
    "name": "Dr. Bharat Lal Gupta (MBBS) - General Physician",
    "address": "C 8/14 Chetganj, Varanasi, Uttar Pradesh 221001",
    "phone": "Dr. Bharat Lal Gupta (MBBS) - General Physician",
    "hours": null,
    "image_url": null
  }
]