[
  {
    "name": "Dr. Shubhangi Jain",
    "address": "Hospital Road, Opposite Datar Hospital, Vidisha, Madhya Pradesh 464001",
    "phone": "Dr. Shubhangi Jain",
    "hours": "Closed· Opens 17:00",
    "image_url": "https://www.bing.com/maps/geoplat/REST/v1/Imagery/Map/RoadVibrant?ms=92,134&key=AnTcaqBi2ypp0xI-OZNi4W_ik2KhjgpqioTAtXLC8GzkMBQRMlyxvxyTnd5b73im&c=en-US&ur=in&da=n&logo=n&fmt=png&od=1&shading=hill&pp=23.523594,77.814034;dfp"
  },
  {
    "name": "Dr. Jadon's",
    "address": "Behind Peeli Kothi, Hospital Road, Vidisha, Madhya Pradesh, Madhya Pradesh 464001",
    "phone": "Dr. Jadon's",
    "hours": "Open· Closes 20:30",
    "image_url": "/th?id=OLC.7xn2by6gFOcF5w480x360&w=92&h=134&c=8&rs=1&qlt=80&cdv=1&pid=Local"
  },
  {
    "name": "Dr. Prachi Thakur- General Physician",
    "address": "Dr. Prachi Thakur's Clinic, Royal City, Vidisha, Madhya Pradesh 464001",
    "phone": "Dr. Prachi Thakur- General Physician",
    "hours": "Closed· Opens 15:00",
    "image_url": "https://www.bing.com/maps/geoplat/REST/v1/Imagery/Map/RoadVibrant?ms=92,134&key=AnTcaqBi2ypp0xI-OZNi4W_ik2KhjgpqioTAtXLC8GzkMBQRMlyxvxyTnd5b73im&c=en-US&ur=in&da=n&logo=n&fmt=png&od=1&shading=hill&pp=23.522663,77.809433;dfp"
  },
  {
    "name": "Dr. Preeti Arora",
    "address": "4, Chunewali Nikasa Road, Vidisha, Madhya Pradesh",
    "phone": "Dr. Preeti Arora",
    "hours": "Closed· Opens 11:00",
    "image_url": "https://www.bing.com/maps/geoplat/REST/v1/Imagery/Map/RoadVibrant?ms=92,112&key=AnTcaqBi2ypp0xI-OZNi4W_ik2KhjgpqioTAtXLC8GzkMBQRMlyxvxyTnd5b73im&c=en-US&ur=in&da=n&logo=n&fmt=png&od=1&shading=hill&pp=23.51819,77.812317;dfp"
  },
  {
    "name": "Dr. Ayush Jain General Physician",
    "address": "A2 Rajeev Nagar, Vidisha, Madhya Pradesh 464221",
    "phone": "Dr. Ayush Jain General Physician",
    "hours": "Open· Closes 21:00",
    "image_url": "https://www.bing.com/maps/geoplat/REST/v1/Imagery/Map/RoadVibrant?ms=92,134&key=AnTcaqBi2ypp0xI-OZNi4W_ik2KhjgpqioTAtXLC8GzkMBQRMlyxvxyTnd5b73im&c=en-US&ur=in&da=n&logo=n&fmt=png&od=1&shading=hill&pp=23.516886,77.812836;dfp"
  },
  {
    "name": "Shri Balaji Clinic",
    "address": "Hospital Road, Vidisha, Madhya Pradesh 464001",
    "phone": "Shri Balaji Clinic",
    "hours": null,
    "image_url": "https://www.bing.com/maps/geoplat/REST/v1/Imagery/Map/RoadVibrant?ms=92,112&key=AnTcaqBi2ypp0xI-OZNi4W_ik2KhjgpqioTAtXLC8GzkMBQRMlyxvxyTnd5b73im&c=en-US&ur=in&da=n&logo=n&fmt=png&od=1&shading=hill&pp=23.521536,77.810562;dfp"
  },
  {
    "name": "Dr. Deepika- General Physician and Covid Specialist",
    "address": "Health Care, Buliding Number 15, Govt Medical College, Vidisha, Madhya Pradesh 464001",
    "phone": "Dr. Deepika- General Physician and Covid Specialist",
    "hours": "Open· Closes 21:00",
    "image_url": "https://www.bing.com/maps/geoplat/REST/v1/Imagery/Map/RoadVibrant?ms=92,134&key=AnTcaqBi2ypp0xI-OZNi4W_ik2KhjgpqioTAtXLC8GzkMBQRMlyxvxyTnd5b73im&c=en-US&ur=in&da=n&logo=n&fmt=png&od=1&shading=hill&pp=23.515415,77.798912;dfp"
  },
  {
    "name": "Noble Homoeo Clinic",
    "address": "Dandapura, Vidisha, Madhya Pradesh, Madhya Pradesh 464001",
    "phone": "Noble Homoeo Clinic",
    "hours": null,
    "image_url": null
  },
  {
    "name": "Dr. Gourav Jain (shree Arihant Maxillofacial Dental & Hair Care Center)",
    "address": "Arihant Vihar Colony Main Gate, Vidisha, Madhya Pradesh, Madhya Pradesh 464001",
    "phone": "Dr. Gourav Jain (shree Arihant Maxillofacial Dental & Hair Care Center)",
    "hours": null,
    "image_url": "https://www.bing.com/maps/geoplat/REST/v1/Imagery/Map/RoadVibrant?ms=92,112&key=AnTcaqBi2ypp0xI-OZNi4W_ik2KhjgpqioTAtXLC8GzkMBQRMlyxvxyTnd5b73im&c=en-US&ur=in&da=n&logo=n&fmt=png&od=1&shading=hill&pp=23.523993,77.812592;dfp"
  },
  {
    "name": "Kushwah Clinic",
    "address": "Main Road, Bichiya, Shamshabad, Bichhiya, Vidisha, Madhya Pradesh 464111",
    "phone": "Kushwah Clinic",
    "hours": null,
    "image_url": "https://www.bing.com/maps/geoplat/REST/v1/Imagery/Map/RoadVibrant?ms=92,112&key=AnTcaqBi2ypp0xI-OZNi4W_ik2KhjgpqioTAtXLC8GzkMBQRMlyxvxyTnd5b73im&c=en-US&ur=in&da=n&logo=n&fmt=png&od=1&shading=hill&pp=23.524506,77.806297;dfp"
  },
  {
    "name": "Dr Atul Samaiya (Best Oncologist in Bhopal)",
    "address": "First Floor, Bansal Multispeciality Hospital, Madhya Pradesh",
    "phone": "Dr Atul Samaiya (Best Oncologist in Bhopal)",
    "hours": null,
    "image_url": "https://www.bing.com/maps/geoplat/REST/v1/Imagery/Map/RoadVibrant?ms=92,112&key=AnTcaqBi2ypp0xI-OZNi4W_ik2KhjgpqioTAtXLC8GzkMBQRMlyxvxyTnd5b73im&c=en-US&ur=in&da=n&logo=n&fmt=png&od=1&shading=hill&pp=23.523188,77.814186;dfp"
  },
  {
    "name": "Dr Sandeep Kumar Clinic",
    "address": "Shashtri Nagar Gate, Sanchi Rd, Behind sai Pathology, Vidisha, Madhya Pradesh",
    "phone": "Dr Sandeep Kumar Clinic",
    "hours": null,
    "image_url": null
  },
  {
    "name": "Dr Lal PathLabs",
    "address": "Near Prakhar Sonography Centre Campus, Hospital Road Vidisha, Vidisha, Madhya Pradesh 464001",
    "phone": "Dr Lal PathLabs",
    "hours": "Open· Closes 19:30",
    "image_url": "https://www.bing.com/maps/geoplat/REST/v1/Imagery/Map/RoadVibrant?ms=92,134&key=AnTcaqBi2ypp0xI-OZNi4W_ik2KhjgpqioTAtXLC8GzkMBQRMlyxvxyTnd5b73im&c=en-US&ur=in&da=n&logo=n&fmt=png&od=1&shading=hill&pp=23.522079,77.807198;dfp"
  },
  {
    "name": "Dr. Ravi Sahu- Dentist",
    "address": "Miracle Dental Care And Implant Centre, Hospital Road, Bus Stand, Opposite Old Bus Stand, Vidisha, Madhya …",
    "phone": "Dr. Ravi Sahu- Dentist",
    "hours": "Closed· Opens 11:00",
    "image_url": "https://www.bing.com/maps/geoplat/REST/v1/Imagery/Map/RoadVibrant?ms=92,134&key=AnTcaqBi2ypp0xI-OZNi4W_ik2KhjgpqioTAtXLC8GzkMBQRMlyxvxyTnd5b73im&c=en-US&ur=in&da=n&logo=n&fmt=png&od=1&shading=hill&pp=23.52228,77.81134;dfp"
  },
  {
    "name": "Alpha Pathology Lab and Digital X-ray and Medical Store",
    "address": "Vidisha, MP, India, Vidisha, Madhya Pradesh 464001",
    "phone": "Alpha Pathology Lab and Digital X-ray and Medical Store",
    "hours": null,
    "image_url": null
  },
  {
    "name": "Pratibha Pathology X Ray",
    "address": "Civil Hospital Area, Vidisha, Madhya Pradesh 464001",
    "phone": "Pratibha Pathology X Ray",
    "hours": null,
    "image_url": "https://www.bing.com/maps/geoplat/REST/v1/Imagery/Map/RoadVibrant?ms=92,112&key=AnTcaqBi2ypp0xI-OZNi4W_ik2KhjgpqioTAtXLC8GzkMBQRMlyxvxyTnd5b73im&c=en-US&ur=in&da=n&logo=n&fmt=png&od=1&shading=hill&pp=23.519638,77.808975;dfp"
  },
  {
    "name": "Swastik Dental Clinic",
    "address": "Opposite To Mlb Girls School, Dandapura, Vidisha, Madhya Pradesh, Madhya Pradesh 464001",
    "phone": "Swastik Dental Clinic",
    "hours": "Open· Closes 13:00",
    "image_url": null
  },
  {
    "name": "Dental Care Unit",
    "address": "Kiri Mohalla, Vidisha, Madhya Pradesh 464001",
    "phone": "Dental Care Unit",
    "hours": null,
    "image_url": "https://www.bing.com/maps/geoplat/REST/v1/Imagery/Map/RoadVibrant?ms=92,112&key=AnTcaqBi2ypp0xI-OZNi4W_ik2KhjgpqioTAtXLC8GzkMBQRMlyxvxyTnd5b73im&c=en-US&ur=in&da=n&logo=n&fmt=png&od=1&shading=hill&pp=23.523502,77.813904;dfp"
  }
]