[
  {
    "name": "Parimala Devi Dr Clinic",
    "address": "306 Gandhi Road Banvaram, Viluppuram, Tamil Nadu 635505",
    "phone": "Parimala Devi Dr Clinic",
    "hours": null,
    "image_url": "https://www.bing.com/maps/geoplat/REST/v1/Imagery/Map/RoadVibrant?ms=92,112&key=AnTcaqBi2ypp0xI-OZNi4W_ik2KhjgpqioTAtXLC8GzkMBQRMlyxvxyTnd5b73im&c=en-US&ur=in&da=n&logo=n&fmt=png&od=1&shading=hill&pp=11.942382,79.489182;dfp"
  },
  {
    "name": "DR. Murali Dharan",
    "address": "Duthie School Junction, 43-1, Court Rd, Tamil Nadu",
    "phone": "DR. Murali Dharan",
    "hours": null,
    "image_url": "https://www.bing.com/maps/geoplat/REST/v1/Imagery/Map/RoadVibrant?ms=92,112&key=AnTcaqBi2ypp0xI-OZNi4W_ik2KhjgpqioTAtXLC8GzkMBQRMlyxvxyTnd5b73im&c=en-US&ur=in&da=n&logo=n&fmt=png&od=1&shading=hill&pp=11.944202,79.496445;dfp"
  },
  {
    "name": "Dr TSR Clinic",
    "address": "Chairman Chidambaram Road, Kvr Guest House, Villupuram, Viluppuram, Tamil Nadu 605602",
    "phone": "Dr TSR Clinic",
    "hours": null,
    "image_url": "https://www.bing.com/maps/geoplat/REST/v1/Imagery/Map/RoadVibrant?ms=92,112&key=AnTcaqBi2ypp0xI-OZNi4W_ik2KhjgpqioTAtXLC8GzkMBQRMlyxvxyTnd5b73im&c=en-US&ur=in&da=n&logo=n&fmt=png&od=1&shading=hill&pp=11.939003,79.487335;dfp"
  },
  {
    "name": "Aswini Hospital",
    "address": "40 Nehruji Road, Villupuram, Tamil Nadu 605602",
    "phone": "Aswini Hospital",
    "hours": "Open· Closes 19:00",
    "image_url": "/th?id=OLC.tsvLkaLfnrDovA480x360&w=92&h=134&c=8&rs=1&qlt=80&cdv=1&pid=Local"
  },
  {
    "name": "Dhananjayan piles Fistula clinic Thanjavur",
    "address": "Shop no, 779, Trichy Main Rd, Near New Bus Stand, opp. Serfoji College, New Housing Unit, Thanjavur, Tamil Na…",
    "phone": "Dhananjayan piles Fistula clinic Thanjavur",
    "hours": null,
    "image_url": "/th?id=OLC.05cdlOknZ4CjCA480x360&w=92&h=112&c=8&rs=1&qlt=80&cdv=1&pid=Local"
  },
  {
    "name": "Raju Hospital",
    "address": "Vinayagar Koil Street, Villupuram, Tamil Nadu 605602",
    "phone": "Raju Hospital",
    "hours": null,
    "image_url": "https://www.bing.com/maps/geoplat/REST/v1/Imagery/Map/RoadVibrant?ms=92,112&key=AnTcaqBi2ypp0xI-OZNi4W_ik2KhjgpqioTAtXLC8GzkMBQRMlyxvxyTnd5b73im&c=en-US&ur=in&da=n&logo=n&fmt=png&od=1&shading=hill&pp=11.942862,79.495461;dfp"
  },
  {
    "name": "Tamilnadu Multispeciality Clinic",
    "address": "Nh45a, Villuppuram Puducherry Road, Villupuram, Viluppuram, Tamil Nadu 605602",
    "phone": "Tamilnadu Multispeciality Clinic",
    "hours": null,
    "image_url": "https://www.bing.com/maps/geoplat/REST/v1/Imagery/Map/RoadVibrant?ms=92,112&key=AnTcaqBi2ypp0xI-OZNi4W_ik2KhjgpqioTAtXLC8GzkMBQRMlyxvxyTnd5b73im&c=en-US&ur=in&da=n&logo=n&fmt=png&od=1&shading=hill&pp=11.938766,79.485992;dfp"
  },
  {
    "name": "Gopinath Clinic",
    "address": "Nehruji Road, Villupuram Railway Station, Villupuram, Viluppuram, Tamil Nadu 605602",
    "phone": "Gopinath Clinic",
    "hours": null,
    "image_url": "https://www.bing.com/maps/geoplat/REST/v1/Imagery/Map/RoadVibrant?ms=92,112&key=AnTcaqBi2ypp0xI-OZNi4W_ik2KhjgpqioTAtXLC8GzkMBQRMlyxvxyTnd5b73im&c=en-US&ur=in&da=n&logo=n&fmt=png&od=1&shading=hill&pp=11.940452,79.498436;dfp"
  },
  {
    "name": "Dakshit Clinic",
    "address": "Sh7, E S Metriculation School, Villupuram, Viluppuram, Tamil Nadu 605602",
    "phone": "Dakshit Clinic",
    "hours": null,
    "image_url": "https://www.bing.com/maps/geoplat/REST/v1/Imagery/Map/RoadVibrant?ms=92,112&key=AnTcaqBi2ypp0xI-OZNi4W_ik2KhjgpqioTAtXLC8GzkMBQRMlyxvxyTnd5b73im&c=en-US&ur=in&da=n&logo=n&fmt=png&od=1&shading=hill&pp=11.938428,79.485413;dfp"
  },
  {
    "name": "Sashi Clinic",
    "address": "Thamaraj Street, Villupuram, Viluppuram, Tamil Nadu 605602",
    "phone": "Sashi Clinic",
    "hours": null,
    "image_url": null
  },
  {
    "name": "RRM Gastro - Superspeciality Clinic & Cancer centre",
    "address": "No 20, Raja Rajeswari Nagar. Behind Joyalukas, Viluppuram, Tamil Nadu 605602",
    "phone": "RRM Gastro - Superspeciality Clinic & Cancer centre",
    "hours": null,
    "image_url": null
  },
  {
    "name": "Dr. Prabhu K",
    "address": "No.24A, K.K Nagar, Therpillaiyar Koil Street, Villupuram, Tamil Nadu",
    "phone": "Dr. Prabhu K",
    "hours": "Closed· Opens 17:00",
    "image_url": "https://www.bing.com/maps/geoplat/REST/v1/Imagery/Map/RoadVibrant?ms=92,112&key=AnTcaqBi2ypp0xI-OZNi4W_ik2KhjgpqioTAtXLC8GzkMBQRMlyxvxyTnd5b73im&c=en-US&ur=in&da=n&logo=n&fmt=png&od=1&shading=hill&pp=11.929097,79.486267;dfp"
  },
  {
    "name": "Dr Agarwals Eye Hospital",
    "address": "No 19, Trichy Trunk Road, Near Villupuram Traffic Signal, Villupuram, Tamil Nadu 605602",
    "phone": "Dr Agarwals Eye Hospital",
    "hours": "Open· Closes 20:00",
    "image_url": null
  },
  {
    "name": "Best spine cure clinic",
    "address": "Therkku Thottam, 244/2, Trichy Main Rd, Near New Bus Stand Road, New Housing Unit, Neelagiri, Thanjavur, T…",
    "phone": "Best spine cure clinic",
    "hours": null,
    "image_url": "https://www.bing.com/maps/geoplat/REST/v1/Imagery/Map/RoadVibrant?ms=92,112&key=AnTcaqBi2ypp0xI-OZNi4W_ik2KhjgpqioTAtXLC8GzkMBQRMlyxvxyTnd5b73im&c=en-US&ur=in&da=n&logo=n&fmt=png&od=1&shading=hill&pp=11.933526,79.484322;dfp"
  },
  {
    "name": "www.rajesh B.sc physician assistant, sengunam village.com",
    "address": "487 Pillaiyar Kovil Street.Sengunam, Village, Kollaimedu, Tamil Nadu",
    "phone": "www.rajesh B.sc physician assistant, sengunam village.com",
    "hours": null,
    "image_url": "https://www.bing.com/maps/geoplat/REST/v1/Imagery/Map/RoadVibrant?ms=92,112&key=AnTcaqBi2ypp0xI-OZNi4W_ik2KhjgpqioTAtXLC8GzkMBQRMlyxvxyTnd5b73im&c=en-US&ur=in&da=n&logo=n&fmt=png&od=1&shading=hill&pp=11.950864,79.496307;dfp"
  },
  {
    "name": "Dr. Ram Narayan",
    "address": "Sreeram Dental Clinic, Raja Maravady Building, 30/132, Kk Rd, Mandhakarai, Viluppuram, Tamil Nadu 605602",
    "phone": "Dr. Ram Narayan",
    "hours": "Open· Closes 13:30",
    "image_url": "https://www.bing.com/maps/geoplat/REST/v1/Imagery/Map/RoadVibrant?ms=92,134&key=AnTcaqBi2ypp0xI-OZNi4W_ik2KhjgpqioTAtXLC8GzkMBQRMlyxvxyTnd5b73im&c=en-US&ur=in&da=n&logo=n&fmt=png&od=1&shading=hill&pp=11.939381,79.490662;dfp"
  },
  {
    "name": "Sri Kumaran Physio Clinic",
    "address": "3rd Street, Villupuram, Tamil Nadu 605602",
    "phone": "Sri Kumaran Physio Clinic",
    "hours": "Open· Closes 13:30",
    "image_url": "https://www.bing.com/maps/geoplat/REST/v1/Imagery/Map/RoadVibrant?ms=92,134&key=AnTcaqBi2ypp0xI-OZNi4W_ik2KhjgpqioTAtXLC8GzkMBQRMlyxvxyTnd5b73im&c=en-US&ur=in&da=n&logo=n&fmt=png&od=1&shading=hill&pp=11.95314,79.491287;dfp"
  },
  {
    "name": "by Lakshmi Cancer Care",
    "address": "No.55, Lakshmi, Singavaram, Ground, Sree Ranganathar Kovil Street, Gingee, Viluppuram, Tamil Nadu 604202",
    "phone": "by Lakshmi Cancer Care",
    "hours": null,
    "image_url": "https://www.bing.com/maps/geoplat/REST/v1/Imagery/Map/RoadVibrant?ms=92,112&key=AnTcaqBi2ypp0xI-OZNi4W_ik2KhjgpqioTAtXLC8GzkMBQRMlyxvxyTnd5b73im&c=en-US&ur=in&da=n&logo=n&fmt=png&od=1&shading=hill&pp=11.950668,79.495728;dfp"
  }
]