[
  {
    "name": "Best General Physician - Dr. Anitha Kolukula, 15+ yrs of Exp | Fever & Diabetes Doctor | Visakhapatnam",
    "address": "Door Number-18-516/2/1, Plot Number 1, Health City, Chinnagadili, Visakhapatnam, Andhra Pradesh",
    "phone": "Best General Physician - Dr. Anitha Kolukula, 15+ yrs of Exp | Fever & Diabetes Doctor | Visakhapatnam",
    "hours": "Open· Closes 15:00",
    "image_url": "/th?id=OLC.vCdb%2f0hO2YNDSw480x360&w=92&h=112&c=8&rs=1&qlt=80&cdv=1&pid=Local"
  },
  {
    "name": "Dr. Turpati Sravanthi- General Physician In Visakhapatnam",
    "address": "Queen's Nri Hospital, D No. 50- 53- 14, Gurudwara Lane, Seethammadhara, Visakhapatnam, Andhra Pradesh 53…",
    "phone": "Dr. Turpati Sravanthi- General Physician In Visakhapatnam",
    "hours": "Open· Closes 13:00",
    "image_url": "https://www.bing.com/maps/geoplat/REST/v1/Imagery/Map/RoadVibrant?ms=92,134&key=AnTcaqBi2ypp0xI-OZNi4W_ik2KhjgpqioTAtXLC8GzkMBQRMlyxvxyTnd5b73im&c=en-US&ur=in&da=n&logo=n&fmt=png&od=1&shading=hill&pp=17.740414,83.305984;dfp"
  },
  {
    "name": "Dr. V Rama Narasimham",
    "address": "Near Saraswathi Park, Daba Gardens, Visakhapatnam, Andhra Pradesh 530020",
    "phone": "Dr. V Rama Narasimham",
    "hours": "Closed· Opens 18:30",
    "image_url": "/th?id=OLC.JvUj9a8MjeGEZA480x360&w=92&h=134&c=8&rs=1&qlt=80&cdv=1&pid=Local"
  },
  {
    "name": "Dr. Pedada Mohan Krishna",
    "address": "Health Origin Polyclinic, Beside Lalitha Jewellery Shop, Araku- Visakhapatnam Road, Gopalapatnam, Simhach…",
    "phone": "Dr. Pedada Mohan Krishna",
    "hours": "Closed· Opens 17:00",
    "image_url": "/th?id=OLC.wVFqx6432FlhZA480x360&w=92&h=134&c=8&rs=1&qlt=80&cdv=1&pid=Local"
  },
  {
    "name": "Dr. Ragasudha. Ch - Best Gynecologist in Vizag",
    "address": "Beside Fourpoints Sheraton Hotel, Waltair Uplands, Ram Nagar, Visakhapatnam, Andhra Pradesh",
    "phone": "Dr. Ragasudha. Ch - Best Gynecologist in Vizag",
    "hours": null,
    "image_url": "/th?id=OLC.AU3JYyO4BnLtHQ480x360&w=92&h=112&c=8&rs=1&qlt=80&cdv=1&pid=Local"
  },
  {
    "name": "Dr. Varaprasad Ans",
    "address": "14/39/27, Zilla Parithan Junction, Visakhapatnam, Andhra Pradesh",
    "phone": "Dr. Varaprasad Ans",
    "hours": "Open· Closes 14:00",
    "image_url": "https://www.bing.com/maps/geoplat/REST/v1/Imagery/Map/RoadVibrant?ms=92,112&key=AnTcaqBi2ypp0xI-OZNi4W_ik2KhjgpqioTAtXLC8GzkMBQRMlyxvxyTnd5b73im&c=en-US&ur=in&da=n&logo=n&fmt=png&od=1&shading=hill&pp=17.752043,83.243881;dfp"
  },
  {
    "name": "Dr. Madhumalini Sharma",
    "address": "Apollo Clinic Seethammapeta Vizag, Door No. 50 – 81 – 1 / 2, Plot No. 5, Near Bvk College, Seethammapeta, Vi…",
    "phone": "Dr. Madhumalini Sharma",
    "hours": "Open· Closes 18:00",
    "image_url": "https://www.bing.com/maps/geoplat/REST/v1/Imagery/Map/RoadVibrant?ms=92,134&key=AnTcaqBi2ypp0xI-OZNi4W_ik2KhjgpqioTAtXLC8GzkMBQRMlyxvxyTnd5b73im&c=en-US&ur=in&da=n&logo=n&fmt=png&od=1&shading=hill&pp=17.731649,83.306976;dfp"
  },
  {
    "name": "Dr. Surya Prakasa Rao Salla | SURYA PRAKASA RAO SALLA CLINIC",
    "address": "Side Of Crown Bakery, Main Road, FCI Nagar, Sai Nagar, Marripalem, Visakhapatnam, Andhra Pradesh",
    "phone": "Dr. Surya Prakasa Rao Salla | SURYA PRAKASA RAO SALLA CLINIC",
    "hours": "Closed· Opens 18:00",
    "image_url": "https://www.bing.com/maps/geoplat/REST/v1/Imagery/Map/RoadVibrant?ms=92,112&key=AnTcaqBi2ypp0xI-OZNi4W_ik2KhjgpqioTAtXLC8GzkMBQRMlyxvxyTnd5b73im&c=en-US&ur=in&da=n&logo=n&fmt=png&od=1&shading=hill&pp=17.744009,83.246567;dfp"
  },
  {
    "name": "Dr. K Santhosh Kumar",
    "address": "50-81-66, Seethammapet Main Road, Vishakhapatnam, Visakhapatnam, Andhra Pradesh",
    "phone": "Dr. K Santhosh Kumar",
    "hours": "Closed· Opens 18:00",
    "image_url": null
  },
  {
    "name": "Dr. Bharat Chukka",
    "address": "Maharani Peta, Sainath Plaza, Opposite to KGH Clock Tower, Visakhapatnam 530002",
    "phone": "Dr. Bharat Chukka",
    "hours": "Open· Closes 14:00",
    "image_url": null
  },
  {
    "name": "Dr. Biswabasu Das",
    "address": "Room No, 1107, Waltair Main Rd, Rockdale Layout, Maharanipeta, Visakhapatnam, Andhra Pradesh",
    "phone": "Dr. Biswabasu Das",
    "hours": "Open· Closes 13:00",
    "image_url": "https://www.bing.com/maps/geoplat/REST/v1/Imagery/Map/RoadVibrant?ms=92,112&key=AnTcaqBi2ypp0xI-OZNi4W_ik2KhjgpqioTAtXLC8GzkMBQRMlyxvxyTnd5b73im&c=en-US&ur=in&da=n&logo=n&fmt=png&od=1&shading=hill&pp=17.717274,83.309456;dfp"
  },
  {
    "name": "Dr. Phani Krishna",
    "address": "43/5/53, Railway New Colony, Dwaraka Nagar, Visakhapatnam, Andhra Pradesh",
    "phone": "Dr. Phani Krishna",
    "hours": "Closed· Opens 11:00",
    "image_url": null
  },
  {
    "name": "Dr KUTIKUPPALA SURYA RAO Hospital[ITAL",
    "address": "Surya Clinic, Kancharapalem Mettu, 56-1-84, Kancharapalem, Visakhapatnam, Andhra Pradesh",
    "phone": "Dr KUTIKUPPALA SURYA RAO Hospital[ITAL",
    "hours": null,
    "image_url": "https://www.bing.com/maps/geoplat/REST/v1/Imagery/Map/RoadVibrant?ms=92,112&key=AnTcaqBi2ypp0xI-OZNi4W_ik2KhjgpqioTAtXLC8GzkMBQRMlyxvxyTnd5b73im&c=en-US&ur=in&da=n&logo=n&fmt=png&od=1&shading=hill&pp=17.733307,83.276009;dfp"
  },
  {
    "name": "Dr Mythili Ayyagari",
    "address": "18, 1, Doctors And Doctors Plaza, 35, KGH Down Rd, Opp KGH OP Gate, Maharanipeta, Visakhapatnam, An…",
    "phone": "Dr Mythili Ayyagari",
    "hours": "Closed· Opens 17:00",
    "image_url": "https://www.bing.com/maps/geoplat/REST/v1/Imagery/Map/RoadVibrant?ms=92,134&key=AnTcaqBi2ypp0xI-OZNi4W_ik2KhjgpqioTAtXLC8GzkMBQRMlyxvxyTnd5b73im&c=en-US&ur=in&da=n&logo=n&fmt=png&od=1&shading=hill&pp=17.710234,83.305183;dfp"
  },
  {
    "name": "Dr. N.B. Vijay Kumar",
    "address": "80 Feet Road, Madhavadhara, Landmark: Near RTO Office, Visakhapatnam, Andhra Pradesh",
    "phone": "Dr. N.B. Vijay Kumar",
    "hours": "Closed· Opens tomorrow 07:00",
    "image_url": "https://www.bing.com/maps/geoplat/REST/v1/Imagery/Map/RoadVibrant?ms=92,112&key=AnTcaqBi2ypp0xI-OZNi4W_ik2KhjgpqioTAtXLC8GzkMBQRMlyxvxyTnd5b73im&c=en-US&ur=in&da=n&logo=n&fmt=png&od=1&shading=hill&pp=17.749165,83.248962;dfp"
  },
  {
    "name": "Apollo Clinic",
    "address": "Murali Nagar St, Muralinagar, Madhavadhara, Visakhapatnam, Andhra Pradesh",
    "phone": "Apollo Clinic",
    "hours": null,
    "image_url": "https://www.bing.com/maps/geoplat/REST/v1/Imagery/Map/RoadVibrant?ms=92,112&key=AnTcaqBi2ypp0xI-OZNi4W_ik2KhjgpqioTAtXLC8GzkMBQRMlyxvxyTnd5b73im&c=en-US&ur=in&da=n&logo=n&fmt=png&od=1&shading=hill&pp=17.744184,83.262466;dfp"
  },
  {
    "name": "Dr. Ch. Praveen Kumar",
    "address": "15 2 9, Gokhale Road Maharani Peta, Visakhapatnam, Visakhapatnam 530002",
    "phone": "Dr. Ch. Praveen Kumar",
    "hours": "Open· Closes 18:00",
    "image_url": null
  },
  {
    "name": "Dr. Ramesh Baipalli",
    "address": "D.NO. 18-1-64, K.G.H OUT Patient Gate Down, Maharanipeta, Visakhapatnam, Andhra Pradesh",
    "phone": "Dr. Ramesh Baipalli",
    "hours": "Open· Closes 14:00",
    "image_url": null
  }
]