[
  {
    "name": "Dr",
    "address": "RTC Complex Road, Vizianagaram, Andhra Pradesh 535001",
    "phone": "Dr",
    "hours": null,
    "image_url": "https://www.bing.com/maps/geoplat/REST/v1/Imagery/Map/RoadVibrant?ms=92,112&key=AnTcaqBi2ypp0xI-OZNi4W_ik2KhjgpqioTAtXLC8GzkMBQRMlyxvxyTnd5b73im&c=en-US&ur=in&da=n&logo=n&fmt=png&od=1&shading=hill&pp=18.10741,83.397552;dfp"
  },
  {
    "name": "Dr. Praveen Tamminana | Balaji Doctors Clinic",
    "address": "Balaji Doctor Clinic Ymca Complex, Near Kota Junction, Vijaya Nagara, Vizianagaram, Andhra Pradesh",
    "phone": "Dr. Praveen Tamminana | Balaji Doctors Clinic",
    "hours": null,
    "image_url": "https://www.bing.com/maps/geoplat/REST/v1/Imagery/Map/RoadVibrant?ms=92,112&key=AnTcaqBi2ypp0xI-OZNi4W_ik2KhjgpqioTAtXLC8GzkMBQRMlyxvxyTnd5b73im&c=en-US&ur=in&da=n&logo=n&fmt=png&od=1&shading=hill&pp=18.107695,83.398552;dfp"
  },
  {
    "name": "Dr. I. Krishana Shanthi",
    "address": "8-24/6, Lower Tankbund Rd, Near Hotel Mayuri, RTC Complex Area, Siddarth Nagar, Balaji Nagar, Vizianaga…",
    "phone": "Dr. I. Krishana Shanthi",
    "hours": null,
    "image_url": "https://www.bing.com/maps/geoplat/REST/v1/Imagery/Map/RoadVibrant?ms=92,112&key=AnTcaqBi2ypp0xI-OZNi4W_ik2KhjgpqioTAtXLC8GzkMBQRMlyxvxyTnd5b73im&c=en-US&ur=in&da=n&logo=n&fmt=png&od=1&shading=hill&pp=18.109489,83.405624;dfp"
  },
  {
    "name": "Dr. Vangapandu Nirmala MD(General Med), DM(Neuro)JIPMER - Specialist in Brain, Neuro Proble…",
    "address": "8-24-1, Behind Inox Multiplex, RTC Complex Area, Balaji Nagar, Vizianagaram, Andhra Pradesh",
    "phone": "Dr. Vangapandu Nirmala MD(General Med), DM(Neuro)JIPMER - Specialist in Brain, Neuro Proble…",
    "hours": null,
    "image_url": "https://www.bing.com/maps/geoplat/REST/v1/Imagery/Map/RoadVibrant?ms=92,112&key=AnTcaqBi2ypp0xI-OZNi4W_ik2KhjgpqioTAtXLC8GzkMBQRMlyxvxyTnd5b73im&c=en-US&ur=in&da=n&logo=n&fmt=png&od=1&shading=hill&pp=18.107433,83.395592;dfp"
  },
  {
    "name": "Sameer Clinic",
    "address": "Railway Station Road, Beside Hotel Blaji, Vizianagaram, Andhra Pradesh",
    "phone": "Sameer Clinic",
    "hours": null,
    "image_url": "/th?id=OLC.5GhnkFiwcMdgTA480x360&w=92&h=112&c=8&rs=1&qlt=80&cdv=1&pid=Local"
  },
  {
    "name": "Dr. D V Ramabhadra Raju",
    "address": "Jidduvari Street, Vizianagaram, Andhra Pradesh",
    "phone": "Dr. D V Ramabhadra Raju",
    "hours": "Closed· Opens 18:00",
    "image_url": "/th?id=OLC.5or0I7BoSUVKZg480x360&w=92&h=112&c=8&rs=1&qlt=80&cdv=1&pid=Local"
  },
  {
    "name": "Dr D V Sreekanth Clinic",
    "address": "Gurajada Apparao Road, Vijayanagaram Fort, Fort Area, Vizianagaram, Andhra Pradesh 535001",
    "phone": "Dr D V Sreekanth Clinic",
    "hours": null,
    "image_url": null
  },
  {
    "name": "Dr. Maradana Shankara Rao Orthopedics",
    "address": "Shankar Orthopaedic and Trauma Care Hospital, Kota Junction, opp Idbi Bank, Zidduvari Street, Vizianagaram…",
    "phone": "Dr. Maradana Shankara Rao Orthopedics",
    "hours": "Open· Closes 14:00",
    "image_url": "https://www.bing.com/maps/geoplat/REST/v1/Imagery/Map/RoadVibrant?ms=92,134&key=AnTcaqBi2ypp0xI-OZNi4W_ik2KhjgpqioTAtXLC8GzkMBQRMlyxvxyTnd5b73im&c=en-US&ur=in&da=n&logo=n&fmt=png&od=1&shading=hill&pp=18.111029,83.413933;dfp"
  },
  {
    "name": "Dr. Rajasekhar Chest Clinic",
    "address": "Visakha Doctors Plaza, Gumchi Road, Opp. Muvvagopala Nursing Home, Kota Junction, Andhra Pradesh 535002",
    "phone": "Dr. Rajasekhar Chest Clinic",
    "hours": null,
    "image_url": null
  },
  {
    "name": "Dr.Tushara's Homeopathic & Aesthetic Clinic",
    "address": "MIG 165, Baba Metta Rd, Near 7 Temples, Babametta, Vizianagaram, Jammu Narayana Puram Rural, Andhra …",
    "phone": "Dr.Tushara's Homeopathic & Aesthetic Clinic",
    "hours": null,
    "image_url": "https://www.bing.com/maps/geoplat/REST/v1/Imagery/Map/RoadVibrant?ms=92,112&key=AnTcaqBi2ypp0xI-OZNi4W_ik2KhjgpqioTAtXLC8GzkMBQRMlyxvxyTnd5b73im&c=en-US&ur=in&da=n&logo=n&fmt=png&od=1&shading=hill&pp=18.114124,83.426117;dfp"
  },
  {
    "name": "Dr Pavan Ayurveda Centre",
    "address": "Kerala Ayurvedic Clinic, Vizianagaram, Andhra Pradesh 535003",
    "phone": "Dr Pavan Ayurveda Centre",
    "hours": null,
    "image_url": null
  },
  {
    "name": "Dr. K Santosh Kalyan",
    "address": "Door Number 5-1-11, Srinivasa Nagar, M.G Road, Vizianagaram, Andhra Pradesh",
    "phone": "Dr. K Santosh Kalyan",
    "hours": "Closed· Opens 17:00",
    "image_url": "https://www.bing.com/maps/geoplat/REST/v1/Imagery/Map/RoadVibrant?ms=92,112&key=AnTcaqBi2ypp0xI-OZNi4W_ik2KhjgpqioTAtXLC8GzkMBQRMlyxvxyTnd5b73im&c=en-US&ur=in&da=n&logo=n&fmt=png&od=1&shading=hill&pp=18.117182,83.400803;dfp"
  },
  {
    "name": "Aditya Heart Care Clinic",
    "address": "4C67+GG8, Zidduvari St, Near Muvva Gopal Hospital, Ambati Satram Area, Vizianagaram, Andhra Pradesh",
    "phone": "Aditya Heart Care Clinic",
    "hours": null,
    "image_url": "https://www.bing.com/maps/geoplat/REST/v1/Imagery/Map/RoadVibrant?ms=92,112&key=AnTcaqBi2ypp0xI-OZNi4W_ik2KhjgpqioTAtXLC8GzkMBQRMlyxvxyTnd5b73im&c=en-US&ur=in&da=n&logo=n&fmt=png&od=1&shading=hill&pp=18.111563,83.414612;dfp"
  },
  {
    "name": "Sri Venkata Padma Hospital",
    "address": "Sh36 Rajam Road, Razam, Andhra Pradesh 532127",
    "phone": "Sri Venkata Padma Hospital",
    "hours": null,
    "image_url": "https://www.bing.com/maps/geoplat/REST/v1/Imagery/Map/RoadVibrant?ms=92,112&key=AnTcaqBi2ypp0xI-OZNi4W_ik2KhjgpqioTAtXLC8GzkMBQRMlyxvxyTnd5b73im&c=en-US&ur=in&da=n&logo=n&fmt=png&od=1&shading=hill&pp=18.449461,83.662354;dfp"
  },
  {
    "name": "Best Pediatrician - Dr. Monangi Manoj Kumar | 5+ Yrs of Exp. | Srikakulam",
    "address": "Sri Jaibharath Hospital, Srikakulam-Rajam Rd, Srikakulam, Sreeharipuram, Andhra Pradesh",
    "phone": "Best Pediatrician - Dr. Monangi Manoj Kumar | 5+ Yrs of Exp. | Srikakulam",
    "hours": null,
    "image_url": "https://www.bing.com/maps/geoplat/REST/v1/Imagery/Map/RoadVibrant?ms=92,112&key=AnTcaqBi2ypp0xI-OZNi4W_ik2KhjgpqioTAtXLC8GzkMBQRMlyxvxyTnd5b73im&c=en-US&ur=in&da=n&logo=n&fmt=png&od=1&shading=hill&pp=18.448128,83.663742;dfp"
  },
  {
    "name": "Sanjivani Homeo Clinic",
    "address": "Phool Bagh Road Gollapalli Road, Alpha Iit Foundation Academy, Bobbili, Andhra Pradesh 535558",
    "phone": "Sanjivani Homeo Clinic",
    "hours": null,
    "image_url": "https://www.bing.com/maps/geoplat/REST/v1/Imagery/Map/RoadVibrant?ms=92,112&key=AnTcaqBi2ypp0xI-OZNi4W_ik2KhjgpqioTAtXLC8GzkMBQRMlyxvxyTnd5b73im&c=en-US&ur=in&da=n&logo=n&fmt=png&od=1&shading=hill&pp=18.570766,83.355827;dfp"
  },
  {
    "name": "Dr. Pradeep Kumar Palakonda",
    "address": "Door Number-18-516/2/1, Plot Number 1, Health City, Chinnagadili, Visakhapatnam, Andhra Pradesh",
    "phone": "Dr. Pradeep Kumar Palakonda",
    "hours": "Open· Closes 15:00",
    "image_url": "https://www.bing.com/maps/geoplat/REST/v1/Imagery/Map/RoadVibrant?ms=92,112&key=AnTcaqBi2ypp0xI-OZNi4W_ik2KhjgpqioTAtXLC8GzkMBQRMlyxvxyTnd5b73im&c=en-US&ur=in&da=n&logo=n&fmt=png&od=1&shading=hill&pp=17.825291,83.353203;dfp"
  }
]