[
  {
    "name": "Dr. Rajni- General Medicine",
    "address": "Aditi Clinic, JPN Road, Warangal, Telangana 506001",
    "phone": "Dr. Rajni- General Medicine",
    "hours": "Closed· Opens 14:00",
    "image_url": "https://www.bing.com/maps/geoplat/REST/v1/Imagery/Map/RoadVibrant?ms=92,134&key=AnTcaqBi2ypp0xI-OZNi4W_ik2KhjgpqioTAtXLC8GzkMBQRMlyxvxyTnd5b73im&c=en-US&ur=in&da=n&logo=n&fmt=png&od=1&shading=hill&pp=17.981037,79.596359;dfp"
  },
  {
    "name": "Dr. M.Pavan Kumar MD (General Medicine), Physician",
    "address": "Maharshi Clinic, Beside Syndicate Bank, JPN Road, Warangal, Telangana 506002",
    "phone": "Dr. M.Pavan Kumar MD (General Medicine), Physician",
    "hours": "Closed· Opens 18:00",
    "image_url": "/th?id=OLC.sFi25wNxf3ba%2bA480x360&w=92&h=134&c=8&rs=1&qlt=80&cdv=1&pid=Local"
  },
  {
    "name": "Dr. Pamulaparti Rama Rao",
    "address": "Archana Ayurveds Hospital, Warangal, Telangana 506002",
    "phone": "Dr. Pamulaparti Rama Rao",
    "hours": null,
    "image_url": "/th?id=OLC.1pzXjFOwcUUoYw480x360&w=92&h=112&c=8&rs=1&qlt=80&cdv=1&pid=Local"
  },
  {
    "name": "Perukawada. Dr. Sambayya Clinic",
    "address": "Hunter Rd, Warangal, Telangana 506002",
    "phone": "Perukawada. Dr. Sambayya Clinic",
    "hours": null,
    "image_url": "https://www.bing.com/maps/geoplat/REST/v1/Imagery/Map/RoadVibrant?ms=92,112&key=AnTcaqBi2ypp0xI-OZNi4W_ik2KhjgpqioTAtXLC8GzkMBQRMlyxvxyTnd5b73im&c=en-US&ur=in&da=n&logo=n&fmt=png&od=1&shading=hill&pp=17.976505,79.584938;dfp"
  },
  {
    "name": "Dr. K Ashok Kumar Clinic",
    "address": "11-15-49, Venkatrama Theatre, Desaipet Road, Warangal, Warangal-Hamamkonda, Telangana 506002",
    "phone": "Dr. K Ashok Kumar Clinic",
    "hours": null,
    "image_url": "https://www.bing.com/maps/geoplat/REST/v1/Imagery/Map/RoadVibrant?ms=92,112&key=AnTcaqBi2ypp0xI-OZNi4W_ik2KhjgpqioTAtXLC8GzkMBQRMlyxvxyTnd5b73im&c=en-US&ur=in&da=n&logo=n&fmt=png&od=1&shading=hill&pp=17.980928,79.60804;dfp"
  },
  {
    "name": "Dr. G Chandrashekar",
    "address": "Shubodaya Complex, Beside: Sri Krishana Childrens Hospital, Vada, Warangal, Telangana",
    "phone": "Dr. G Chandrashekar",
    "hours": null,
    "image_url": "https://www.bing.com/maps/geoplat/REST/v1/Imagery/Map/RoadVibrant?ms=92,112&key=AnTcaqBi2ypp0xI-OZNi4W_ik2KhjgpqioTAtXLC8GzkMBQRMlyxvxyTnd5b73im&c=en-US&ur=in&da=n&logo=n&fmt=png&od=1&shading=hill&pp=17.964933,79.599632;clcp"
  },
  {
    "name": "Dr B Jaya Prakash Clinic",
    "address": "Charbhowli Road, Girmajipet, Warangal-Hamamkonda, Telangana 506002",
    "phone": "Dr B Jaya Prakash Clinic",
    "hours": null,
    "image_url": "https://www.bing.com/maps/geoplat/REST/v1/Imagery/Map/RoadVibrant?ms=92,112&key=AnTcaqBi2ypp0xI-OZNi4W_ik2KhjgpqioTAtXLC8GzkMBQRMlyxvxyTnd5b73im&c=en-US&ur=in&da=n&logo=n&fmt=png&od=1&shading=hill&pp=17.981092,79.600151;dfp"
  },
  {
    "name": "Dr I Venkatarao Clinic",
    "address": "Jpn Road, Icici Bank, Ramannapet, Warangal-Hamamkonda, Telangana 506002",
    "phone": "Dr I Venkatarao Clinic",
    "hours": null,
    "image_url": "https://www.bing.com/maps/geoplat/REST/v1/Imagery/Map/RoadVibrant?ms=92,112&key=AnTcaqBi2ypp0xI-OZNi4W_ik2KhjgpqioTAtXLC8GzkMBQRMlyxvxyTnd5b73im&c=en-US&ur=in&da=n&logo=n&fmt=png&od=1&shading=hill&pp=17.979025,79.598656;dfp"
  },
  {
    "name": "Lakshmi Clinic Dr Mohan Rao",
    "address": "Narsampet Road, Christian Colony, Warangal-Hamamkonda, Telangana 506002",
    "phone": "Lakshmi Clinic Dr Mohan Rao",
    "hours": null,
    "image_url": "https://www.bing.com/maps/geoplat/REST/v1/Imagery/Map/RoadVibrant?ms=92,112&key=AnTcaqBi2ypp0xI-OZNi4W_ik2KhjgpqioTAtXLC8GzkMBQRMlyxvxyTnd5b73im&c=en-US&ur=in&da=n&logo=n&fmt=png&od=1&shading=hill&pp=17.972288,79.619972;dfp"
  },
  {
    "name": "Vanamala Clinic Dr B Murali Krishna",
    "address": "Jayaprakash Narayan Road, Girmajipet, Warangal-Hamamkonda, Telangana 506002",
    "phone": "Vanamala Clinic Dr B Murali Krishna",
    "hours": null,
    "image_url": "https://www.bing.com/maps/geoplat/REST/v1/Imagery/Map/RoadVibrant?ms=92,112&key=AnTcaqBi2ypp0xI-OZNi4W_ik2KhjgpqioTAtXLC8GzkMBQRMlyxvxyTnd5b73im&c=en-US&ur=in&da=n&logo=n&fmt=png&od=1&shading=hill&pp=17.979059,79.600868;dfp"
  },
  {
    "name": "Maharshi Clinic",
    "address": "JPN Road, Beside Syndicate Bank, Warangal, Telangana, India, 506002, Warangal, Madhya Pradesh …",
    "phone": "Maharshi Clinic",
    "hours": "Closed· Opens 16:00",
    "image_url": null
  },
  {
    "name": "Dr..usharani | MS.OBG | Dr..usharani's clinic",
    "address": "Dr. .Usharani's Clinic, Warangal, Telangana, India, 506002, Warangal, Madhya Pradesh 506002",
    "phone": "Dr..usharani | MS.OBG | Dr..usharani's clinic",
    "hours": "Open· Closes 21:30",
    "image_url": null
  },
  {
    "name": "Dr. Gouda Ramesh",
    "address": "Bus Stand Road, Sai Nagar, Warangal, Telangana 506001",
    "phone": "Dr. Gouda Ramesh",
    "hours": "Closed· Opens 11:00",
    "image_url": null
  },
  {
    "name": "Dr. D. Satyanarayana E.N.T. Clinic",
    "address": "Jayaprakash Narayan Road, Girmajipet, Warangal, Telangana",
    "phone": "Dr. D. Satyanarayana E.N.T. Clinic",
    "hours": null,
    "image_url": "https://www.bing.com/maps/geoplat/REST/v1/Imagery/Map/RoadVibrant?ms=92,112&key=AnTcaqBi2ypp0xI-OZNi4W_ik2KhjgpqioTAtXLC8GzkMBQRMlyxvxyTnd5b73im&c=en-US&ur=in&da=n&logo=n&fmt=png&od=1&shading=hill&pp=17.987131,79.600716;dfp"
  },
  {
    "name": "Dr. T Satyanarayana",
    "address": "11-24-154, Bank Colony, Warangal, Telangana 506002",
    "phone": "Dr. T Satyanarayana",
    "hours": null,
    "image_url": "https://www.bing.com/maps/geoplat/REST/v1/Imagery/Map/RoadVibrant?ms=92,112&key=AnTcaqBi2ypp0xI-OZNi4W_ik2KhjgpqioTAtXLC8GzkMBQRMlyxvxyTnd5b73im&c=en-US&ur=in&da=n&logo=n&fmt=png&od=1&shading=hill&pp=17.993647,79.602051;dfp"
  },
  {
    "name": "Dr. Pawan Rao Ambatpalli",
    "address": "6-2-88, Kalaji Colony, Warangal, Telangana",
    "phone": "Dr. Pawan Rao Ambatpalli",
    "hours": "Open· Closes 18:00",
    "image_url": null
  },
  {
    "name": "Dr. Dinesh Heart Clinic",
    "address": "Jayaprakash Narayan Road 9-9-6/a & 7, Warangal, Telangana 506002",
    "phone": "Dr. Dinesh Heart Clinic",
    "hours": null,
    "image_url": "https://www.bing.com/maps/geoplat/REST/v1/Imagery/Map/RoadVibrant?ms=92,112&key=AnTcaqBi2ypp0xI-OZNi4W_ik2KhjgpqioTAtXLC8GzkMBQRMlyxvxyTnd5b73im&c=en-US&ur=in&da=n&logo=n&fmt=png&od=1&shading=hill&pp=17.984051,79.602051;dfp"
  },
  {
    "name": "HaYani Dorn & Acupuncture Clinic",
    "address": "11_27_131 Kothawada, Warangal, Telangana, Telangana 506002",
    "phone": "HaYani Dorn & Acupuncture Clinic",
    "hours": null,
    "image_url": "https://www.bing.com/maps/geoplat/REST/v1/Imagery/Map/RoadVibrant?ms=92,112&key=AnTcaqBi2ypp0xI-OZNi4W_ik2KhjgpqioTAtXLC8GzkMBQRMlyxvxyTnd5b73im&c=en-US&ur=in&da=n&logo=n&fmt=png&od=1&shading=hill&pp=17.992182,79.598976;dfp"
  }
]