[
  {
    "name": "Dr. Subhash Musale MBBS MD",
    "address": "Ambai Multispecility Hospital. Jawahar Colony, Near Pusad Naka, Washim, Maharashtra 444505",
    "phone": "Dr. Subhash Musale MBBS MD",
    "hours": "Open· Closes 15:00",
    "image_url": "https://www.bing.com/maps/geoplat/REST/v1/Imagery/Map/RoadVibrant?ms=92,134&key=AnTcaqBi2ypp0xI-OZNi4W_ik2KhjgpqioTAtXLC8GzkMBQRMlyxvxyTnd5b73im&c=en-US&ur=in&da=n&logo=n&fmt=png&od=1&shading=hill&pp=20.108768,77.143127;dfp"
  },
  {
    "name": "Dr Sachin Patil Clinic",
    "address": "Near Kaleshwar Mandir, Sukrawar Peth, Washim, Maharashtra 444505, India, Washim, Maharashtra 444…",
    "phone": "Dr Sachin Patil Clinic",
    "hours": null,
    "image_url": "https://www.bing.com/maps/geoplat/REST/v1/Imagery/Map/RoadVibrant?ms=92,112&key=AnTcaqBi2ypp0xI-OZNi4W_ik2KhjgpqioTAtXLC8GzkMBQRMlyxvxyTnd5b73im&c=en-US&ur=in&da=n&logo=n&fmt=png&od=1&shading=hill&pp=20.10483,77.134048;dfp"
  },
  {
    "name": "Dr. Ashok Bang | Matruchhaya Hospital",
    "address": "Matruchhaya Hospital, Pusad Road, Washim, Maharashtra, India, 444505, Washim, Madhya Prades…",
    "phone": "Dr. Ashok Bang | Matruchhaya Hospital",
    "hours": "Closed· Opens 12:00",
    "image_url": "/th?id=OLC.AHqOafJs3Z%2bErA480x360&w=92&h=134&c=8&rs=1&qlt=80&cdv=1&pid=Local"
  },
  {
    "name": "Shri Saikrupa Clinic",
    "address": "Mahatma Gandhi Complex, Hingoli Road, Washim, Maharashtra 444505",
    "phone": "Shri Saikrupa Clinic",
    "hours": null,
    "image_url": "https://www.bing.com/maps/geoplat/REST/v1/Imagery/Map/RoadVibrant?ms=92,112&key=AnTcaqBi2ypp0xI-OZNi4W_ik2KhjgpqioTAtXLC8GzkMBQRMlyxvxyTnd5b73im&c=en-US&ur=in&da=n&logo=n&fmt=png&od=1&shading=hill&pp=20.107588,77.141273;dfp"
  },
  {
    "name": "Bedarkar Hospital",
    "address": "Mahatma Gandhi Complex, Hingoli Road, Washim, Maharashtra 444505",
    "phone": "Bedarkar Hospital",
    "hours": null,
    "image_url": "https://www.bing.com/maps/geoplat/REST/v1/Imagery/Map/RoadVibrant?ms=92,112&key=AnTcaqBi2ypp0xI-OZNi4W_ik2KhjgpqioTAtXLC8GzkMBQRMlyxvxyTnd5b73im&c=en-US&ur=in&da=n&logo=n&fmt=png&od=1&shading=hill&pp=20.107571,77.14106;dfp"
  },
  {
    "name": "Dr Shubham Clinic",
    "address": "Shiv Colony Civil Line, Civil Line Road, Washim, Maharashtra 444505",
    "phone": "Dr Shubham Clinic",
    "hours": null,
    "image_url": "https://www.bing.com/maps/geoplat/REST/v1/Imagery/Map/RoadVibrant?ms=92,112&key=AnTcaqBi2ypp0xI-OZNi4W_ik2KhjgpqioTAtXLC8GzkMBQRMlyxvxyTnd5b73im&c=en-US&ur=in&da=n&logo=n&fmt=png&od=1&shading=hill&pp=20.120224,77.137886;dfp"
  },
  {
    "name": "Dr. Pravin M Thakare Pulmonologist",
    "address": "Nath Hospital, Pusad Naka, Washim, Maharashtra 444505",
    "phone": "Dr. Pravin M Thakare Pulmonologist",
    "hours": "Closed· Opens 11:00",
    "image_url": null
  },
  {
    "name": "Shivkrupa Clinic",
    "address": "1, Shivkrupa, Tondgaon, Bus Stand, Washim, Maharashtra 444505",
    "phone": "Shivkrupa Clinic",
    "hours": null,
    "image_url": "https://www.bing.com/maps/geoplat/REST/v1/Imagery/Map/RoadVibrant?ms=92,112&key=AnTcaqBi2ypp0xI-OZNi4W_ik2KhjgpqioTAtXLC8GzkMBQRMlyxvxyTnd5b73im&c=en-US&ur=in&da=n&logo=n&fmt=png&od=1&shading=hill&pp=20.113916,77.135971;dfp"
  },
  {
    "name": "Shree Krishna Hospital",
    "address": "Highway, Pusad Naka, Washim, Maharashtra 444505, India, Washim, Maharashtra 444506",
    "phone": "Shree Krishna Hospital",
    "hours": null,
    "image_url": "https://www.bing.com/maps/geoplat/REST/v1/Imagery/Map/RoadVibrant?ms=92,112&key=AnTcaqBi2ypp0xI-OZNi4W_ik2KhjgpqioTAtXLC8GzkMBQRMlyxvxyTnd5b73im&c=en-US&ur=in&da=n&logo=n&fmt=png&od=1&shading=hill&pp=20.112202,77.137062;dfp"
  },
  {
    "name": "Dr. Gaikwad Hospital",
    "address": "Ground Floor, Akola Naka Mauli Hospital Ground Floor, Akola Road, Washim, Maharashtra 444505",
    "phone": "Dr. Gaikwad Hospital",
    "hours": null,
    "image_url": "https://www.bing.com/maps/geoplat/REST/v1/Imagery/Map/RoadVibrant?ms=92,112&key=AnTcaqBi2ypp0xI-OZNi4W_ik2KhjgpqioTAtXLC8GzkMBQRMlyxvxyTnd5b73im&c=en-US&ur=in&da=n&logo=n&fmt=png&od=1&shading=hill&pp=20.122126,77.128571;dfp"
  },
  {
    "name": "Dr.dhoke Ayurvedic Hospital",
    "address": "Sh183, Washim, Maharashtra 444505, India, Washim, Maharashtra 444505",
    "phone": "Dr.dhoke Ayurvedic Hospital",
    "hours": null,
    "image_url": "https://www.bing.com/maps/geoplat/REST/v1/Imagery/Map/RoadVibrant?ms=92,112&key=AnTcaqBi2ypp0xI-OZNi4W_ik2KhjgpqioTAtXLC8GzkMBQRMlyxvxyTnd5b73im&c=en-US&ur=in&da=n&logo=n&fmt=png&od=1&shading=hill&pp=20.117872,77.132545;dfp"
  },
  {
    "name": "Sai Clinic Malegaon",
    "address": "03, Near Maratha Wain Bar, Malegaon To Mehkar Road, Mehakar Road, Malegaon, Washim, Maharashtra 444503",
    "phone": "Sai Clinic Malegaon",
    "hours": null,
    "image_url": "https://www.bing.com/maps/geoplat/REST/v1/Imagery/Map/RoadVibrant?ms=92,112&key=AnTcaqBi2ypp0xI-OZNi4W_ik2KhjgpqioTAtXLC8GzkMBQRMlyxvxyTnd5b73im&c=en-US&ur=in&da=n&logo=n&fmt=png&od=1&shading=hill&pp=20.120413,77.130356;dfp"
  },
  {
    "name": "Dr Royal Alkaline Water",
    "address": "Civil Lines, Washim, Maharashtra 444505",
    "phone": "Dr Royal Alkaline Water",
    "hours": "Open 24 hours",
    "image_url": "https://www.bing.com/maps/geoplat/REST/v1/Imagery/Map/RoadVibrant?ms=92,134&key=AnTcaqBi2ypp0xI-OZNi4W_ik2KhjgpqioTAtXLC8GzkMBQRMlyxvxyTnd5b73im&c=en-US&ur=in&da=n&logo=n&fmt=png&od=1&shading=hill&pp=20.114689,77.139168;dfp"
  },
  {
    "name": "Metropolis Healthcare Limited - Pathology Lab, Diagnostic Centre",
    "address": "Turkey Complex, Pusad Naka, Washim, Maharashtra 444505",
    "phone": "Metropolis Healthcare Limited - Pathology Lab, Diagnostic Centre",
    "hours": "Open· Closes 20:00",
    "image_url": null
  },
  {
    "name": "Dr. Doiphode Maternity Hospital",
    "address": "Sh 204, Washim, Maharashtra 444505, India, Washim, Maharashtra 444505",
    "phone": "Dr. Doiphode Maternity Hospital",
    "hours": null,
    "image_url": null
  },
  {
    "name": "Gandagule 4 D Sonography, Colour Digital X-Ray, Ct Scan and Mri Center Washim",
    "address": "Near Hotel Maniprabha Yojana Heights, Washim, Maharashtra",
    "phone": "Gandagule 4 D Sonography, Colour Digital X-Ray, Ct Scan and Mri Center Washim",
    "hours": null,
    "image_url": "https://www.bing.com/maps/geoplat/REST/v1/Imagery/Map/RoadVibrant?ms=92,112&key=AnTcaqBi2ypp0xI-OZNi4W_ik2KhjgpqioTAtXLC8GzkMBQRMlyxvxyTnd5b73im&c=en-US&ur=in&da=n&logo=n&fmt=png&od=1&shading=hill&pp=20.1126,77.136398;dfp"
  }
]