[
  {
    "name": "DR. Chandrasekharan's Home Clinic",
    "address": "Christy Quarters, Police Station Juction, Mananthavadi, Wayanad, Kerala 670645",
    "phone": "DR. Chandrasekharan's Home Clinic",
    "hours": null,
    "image_url": "https://www.bing.com/maps/geoplat/REST/v1/Imagery/Map/RoadVibrant?ms=92,112&key=AnTcaqBi2ypp0xI-OZNi4W_ik2KhjgpqioTAtXLC8GzkMBQRMlyxvxyTnd5b73im&c=en-US&ur=in&da=n&logo=n&fmt=png&od=1&shading=hill&pp=11.741249,76.073059;dfp"
  },
  {
    "name": "Dr. K M John- Internal Medicine In Wayanad",
    "address": "Medical Superintendent & Physician Chulliyode Road, Opp. Panchayat Bus Stand, Sultan Bathery, Kerala",
    "phone": "Dr. K M John- Internal Medicine In Wayanad",
    "hours": null,
    "image_url": "https://www.bing.com/maps/geoplat/REST/v1/Imagery/Map/RoadVibrant?ms=92,112&key=AnTcaqBi2ypp0xI-OZNi4W_ik2KhjgpqioTAtXLC8GzkMBQRMlyxvxyTnd5b73im&c=en-US&ur=in&da=n&logo=n&fmt=png&od=1&shading=hill&pp=11.656013,76.256248;dfp"
  },
  {
    "name": "Dr. Shajunnisa Sidheek | Maple Homeopathy Clinic",
    "address": "Talippuzha, Near Talippuzha bus Stop, Vythiri, Lakkidi Post, Kalpetta, Kerala",
    "phone": "Dr. Shajunnisa Sidheek | Maple Homeopathy Clinic",
    "hours": null,
    "image_url": "https://www.bing.com/maps/geoplat/REST/v1/Imagery/Map/RoadVibrant?ms=92,112&key=AnTcaqBi2ypp0xI-OZNi4W_ik2KhjgpqioTAtXLC8GzkMBQRMlyxvxyTnd5b73im&c=en-US&ur=in&da=n&logo=n&fmt=png&od=1&shading=hill&pp=11.698293,76.080048;dfp"
  },
  {
    "name": "Dr. Mridul P M",
    "address": "Thrikkaippetta, Wayanad, Kerala",
    "phone": "Dr. Mridul P M",
    "hours": "Open· Closes 13:00",
    "image_url": "https://www.bing.com/maps/geoplat/REST/v1/Imagery/Map/RoadVibrant?ms=92,112&key=AnTcaqBi2ypp0xI-OZNi4W_ik2KhjgpqioTAtXLC8GzkMBQRMlyxvxyTnd5b73im&c=en-US&ur=in&da=n&logo=n&fmt=png&od=1&shading=hill&pp=11.607197,76.13533;dfp"
  },
  {
    "name": "Abhaya Ayurvedic Hospital",
    "address": "Muttil-Nedumbala Rd, Mandad, Muttil South, Kerala 673122, India, Kerala 673122",
    "phone": "Abhaya Ayurvedic Hospital",
    "hours": null,
    "image_url": "/th?id=OLC.ITYTd2bWvZ6jvQ480x360&w=92&h=112&c=8&rs=1&qlt=80&cdv=1&pid=Local"
  },
  {
    "name": "Dr Dn Surendran Clinic",
    "address": "Sulthan Batheri Chulliyod Road, Telecom Quarters, Sulthanbatheri, Sulthanbathery, Kerala 673592",
    "phone": "Dr Dn Surendran Clinic",
    "hours": null,
    "image_url": "https://www.bing.com/maps/geoplat/REST/v1/Imagery/Map/RoadVibrant?ms=92,112&key=AnTcaqBi2ypp0xI-OZNi4W_ik2KhjgpqioTAtXLC8GzkMBQRMlyxvxyTnd5b73im&c=en-US&ur=in&da=n&logo=n&fmt=png&od=1&shading=hill&pp=11.659985,76.249474;dfp"
  },
  {
    "name": "Brahmakalpam Ayurveda Hospital",
    "address": "5\\442B, Sreelakshmi, Padivayal, Kalpetta, Ootty Road, Vaduvanchal, Wayanad, Kerala 673581",
    "phone": "Brahmakalpam Ayurveda Hospital",
    "hours": "Open· Closes 17:00",
    "image_url": null
  },
  {
    "name": "Green Life Homoeo Care",
    "address": "Service Co-Operative Bank Building, Kaniyambetta, Kerala 673124",
    "phone": "Green Life Homoeo Care",
    "hours": "Open· Closes 17:00",
    "image_url": "https://www.bing.com/maps/geoplat/REST/v1/Imagery/Map/RoadVibrant?ms=92,134&key=AnTcaqBi2ypp0xI-OZNi4W_ik2KhjgpqioTAtXLC8GzkMBQRMlyxvxyTnd5b73im&c=en-US&ur=in&da=n&logo=n&fmt=png&od=1&shading=hill&pp=11.68665,76.08062;dfp"
  },
  {
    "name": "Kannur Ayurvedic Centre",
    "address": "Mini Bypass Road, Emily, Kalpetta, Kerala 673121",
    "phone": "Kannur Ayurvedic Centre",
    "hours": null,
    "image_url": null
  },
  {
    "name": "Dr Rajmohan's Brahmakalpam Ayurvedic Pharmacy and Clinic",
    "address": "Meppadi Bus Stand Rd, Meppadi, Kerala",
    "phone": "Dr Rajmohan's Brahmakalpam Ayurvedic Pharmacy and Clinic",
    "hours": null,
    "image_url": "https://www.bing.com/maps/geoplat/REST/v1/Imagery/Map/RoadVibrant?ms=92,112&key=AnTcaqBi2ypp0xI-OZNi4W_ik2KhjgpqioTAtXLC8GzkMBQRMlyxvxyTnd5b73im&c=en-US&ur=in&da=n&logo=n&fmt=png&od=1&shading=hill&pp=11.607744,76.083542;dfp"
  },
  {
    "name": "Mayo clinic",
    "address": "M558+XM8, Meenangadi, Kerala",
    "phone": "Mayo clinic",
    "hours": null,
    "image_url": "https://www.bing.com/maps/geoplat/REST/v1/Imagery/Map/RoadVibrant?ms=92,112&key=AnTcaqBi2ypp0xI-OZNi4W_ik2KhjgpqioTAtXLC8GzkMBQRMlyxvxyTnd5b73im&c=en-US&ur=in&da=n&logo=n&fmt=png&od=1&shading=hill&pp=11.656212,76.159721;dfp"
  },
  {
    "name": "DR. Prasad's Wellness Hub Private Limited",
    "address": "Near Village Office Vrindavan Kenichira, Wayanad, Kerala 673596",
    "phone": "DR. Prasad's Wellness Hub Private Limited",
    "hours": null,
    "image_url": "https://www.bing.com/maps/geoplat/REST/v1/Imagery/Map/RoadVibrant?ms=92,112&key=AnTcaqBi2ypp0xI-OZNi4W_ik2KhjgpqioTAtXLC8GzkMBQRMlyxvxyTnd5b73im&c=en-US&ur=in&da=n&logo=n&fmt=png&od=1&shading=hill&pp=11.707747,76.177597;dfp"
  },
  {
    "name": "Arogya Homoeopathy Family Speciality Clinic",
    "address": "Near Telephone Exchange Kelakam, Kelakam, Kerala 670674",
    "phone": "Arogya Homoeopathy Family Speciality Clinic",
    "hours": null,
    "image_url": null
  },
  {
    "name": "Ayurvalley Ayurvedic Hospital - Meppady",
    "address": "Kappamkolli Valavu Stop, Kallai-Chembothara Rd, Baby Nagar, Kappamkolli, Meppadi, Kerala",
    "phone": "Ayurvalley Ayurvedic Hospital - Meppady",
    "hours": null,
    "image_url": null
  },
  {
    "name": "Dr. Shanavas Palliyal",
    "address": "DM Wims Arapetta Rd, Arapetta, Kerala 673577, India, Wayanad, Kerala",
    "phone": "Dr. Shanavas Palliyal",
    "hours": "Open· Closes 16:00",
    "image_url": "https://www.bing.com/maps/geoplat/REST/v1/Imagery/Map/RoadVibrant?ms=92,112&key=AnTcaqBi2ypp0xI-OZNi4W_ik2KhjgpqioTAtXLC8GzkMBQRMlyxvxyTnd5b73im&c=en-US&ur=in&da=n&logo=n&fmt=png&od=1&shading=hill&pp=11.560363,76.161545;dfp"
  },
  {
    "name": "Dr Simon's Homoeopathy",
    "address": "1ST Floor, Nechiyan Arcade, Meenangadi, Kerala",
    "phone": "Dr Simon's Homoeopathy",
    "hours": null,
    "image_url": "https://www.bing.com/maps/geoplat/REST/v1/Imagery/Map/RoadVibrant?ms=92,112&key=AnTcaqBi2ypp0xI-OZNi4W_ik2KhjgpqioTAtXLC8GzkMBQRMlyxvxyTnd5b73im&c=en-US&ur=in&da=n&logo=n&fmt=png&od=1&shading=hill&pp=11.803383,76.006279;dfp"
  },
  {
    "name": "Kottakkal Arya Vaidya Shala",
    "address": "Kozhikode-Mysore-Kollegal Road, Aishwarya Auditorium, Sulthanbathery, Kerala 673592",
    "phone": "Kottakkal Arya Vaidya Shala",
    "hours": "Open· Closes 18:00",
    "image_url": "https://www.bing.com/maps/geoplat/REST/v1/Imagery/Map/RoadVibrant?ms=92,112&key=AnTcaqBi2ypp0xI-OZNi4W_ik2KhjgpqioTAtXLC8GzkMBQRMlyxvxyTnd5b73im&c=en-US&ur=in&da=n&logo=n&fmt=png&od=1&shading=hill&pp=11.663993,76.259506;dfp"
  },
  {
    "name": "Doctors door",
    "address": "First Floor, Sbm-24/685b And 24/685b1, Js Arcade, Gas Pump-Stadium Road, Sulthanbathery, Sulthan Bathery…",
    "phone": "Doctors door",
    "hours": null,
    "image_url": "https://www.bing.com/maps/geoplat/REST/v1/Imagery/Map/RoadVibrant?ms=92,112&key=AnTcaqBi2ypp0xI-OZNi4W_ik2KhjgpqioTAtXLC8GzkMBQRMlyxvxyTnd5b73im&c=en-US&ur=in&da=n&logo=n&fmt=png&od=1&shading=hill&pp=11.662709,76.258591;dfp"
  }
]