[
  {
    "name": "Dr Biplab Barman Trauma and Joint Care, Medinipur",
    "address": "Rabindranagar, Durga Temple, Midnapore, West Bengal 721101",
    "phone": "Dr Biplab Barman Trauma and Joint Care, Medinipur",
    "hours": null,
    "image_url": "/th?id=OLC.datFuDsiXDewEQ480x360&w=92&h=112&c=8&rs=1&qlt=80&cdv=1&pid=Local"
  },
  {
    "name": "Dr. Sandhya Mandal Dhara",
    "address": "Rabindranagar, West Medinipur, West Bengal",
    "phone": "Dr. Sandhya Mandal Dhara",
    "hours": "Open· Closes 12:30",
    "image_url": "https://www.bing.com/maps/geoplat/REST/v1/Imagery/Map/RoadVibrant?ms=92,112&key=AnTcaqBi2ypp0xI-OZNi4W_ik2KhjgpqioTAtXLC8GzkMBQRMlyxvxyTnd5b73im&c=en-US&ur=in&da=n&logo=n&fmt=png&od=1&shading=hill&pp=22.42396,87.320808;dfp"
  },
  {
    "name": "Prof.(Dr.) Biswarup Sen, MD(Hom)-MEDICINE. Only MEDICINE specialist",
    "address": "Between Bat-Tala & Golkua, Medicine-I OPD (Tuesdays) মঙ্গলবার Midnapore Homoeopathic Medical Colleg…",
    "phone": "Prof.(Dr.) Biswarup Sen, MD(Hom)-MEDICINE. Only MEDICINE specialist",
    "hours": null,
    "image_url": "/th?id=OLC.yJq3hPGoLYDFkA480x360&w=92&h=112&c=8&rs=1&qlt=80&cdv=1&pid=Local"
  },
  {
    "name": "Dr. Kanchan Kumar Dhara",
    "address": "Rabindranagar, West Medinipur, West Bengal",
    "phone": "Dr. Kanchan Kumar Dhara",
    "hours": "Open· Closes 12:30",
    "image_url": "https://www.bing.com/maps/geoplat/REST/v1/Imagery/Map/RoadVibrant?ms=92,112&key=AnTcaqBi2ypp0xI-OZNi4W_ik2KhjgpqioTAtXLC8GzkMBQRMlyxvxyTnd5b73im&c=en-US&ur=in&da=n&logo=n&fmt=png&od=1&shading=hill&pp=22.42396,87.320808;dfp"
  },
  {
    "name": "Dr.S.B.MISRA.Clinic",
    "address": "Palbari, Ganapatinagar, Midnapore, West Bengal",
    "phone": "Dr.S.B.MISRA.Clinic",
    "hours": null,
    "image_url": "https://www.bing.com/maps/geoplat/REST/v1/Imagery/Map/RoadVibrant?ms=92,112&key=AnTcaqBi2ypp0xI-OZNi4W_ik2KhjgpqioTAtXLC8GzkMBQRMlyxvxyTnd5b73im&c=en-US&ur=in&da=n&logo=n&fmt=png&od=1&shading=hill&pp=22.430529,87.319588;dfp"
  },
  {
    "name": "Dr. Mangal Prasad Mallick",
    "address": "Rabindra Nagar, West Medinipur, West Bengal",
    "phone": "Dr. Mangal Prasad Mallick",
    "hours": "Open· Closes 13:00",
    "image_url": "https://www.bing.com/maps/geoplat/REST/v1/Imagery/Map/RoadVibrant?ms=92,112&key=AnTcaqBi2ypp0xI-OZNi4W_ik2KhjgpqioTAtXLC8GzkMBQRMlyxvxyTnd5b73im&c=en-US&ur=in&da=n&logo=n&fmt=png&od=1&shading=hill&pp=22.423386,87.320427;dfp"
  },
  {
    "name": "Dr. A.K. DE Clinic",
    "address": "N/4 Mitra Compound, Midnapore Railway Station Rd, Midnapore, West Bengal",
    "phone": "Dr. A.K. DE Clinic",
    "hours": null,
    "image_url": "https://www.bing.com/maps/geoplat/REST/v1/Imagery/Map/RoadVibrant?ms=92,112&key=AnTcaqBi2ypp0xI-OZNi4W_ik2KhjgpqioTAtXLC8GzkMBQRMlyxvxyTnd5b73im&c=en-US&ur=in&da=n&logo=n&fmt=png&od=1&shading=hill&pp=22.423414,87.309891;dfp"
  },
  {
    "name": "Dr. Arnab Dutta",
    "address": "Church Road, Shekhpura, Midnapore, West Bengal",
    "phone": "Dr. Arnab Dutta",
    "hours": null,
    "image_url": "https://www.bing.com/maps/geoplat/REST/v1/Imagery/Map/RoadVibrant?ms=92,112&key=AnTcaqBi2ypp0xI-OZNi4W_ik2KhjgpqioTAtXLC8GzkMBQRMlyxvxyTnd5b73im&c=en-US&ur=in&da=n&logo=n&fmt=png&od=1&shading=hill&pp=22.423237,87.314835;dfp"
  },
  {
    "name": "Dr. Dibyajyoti De, Paediatrician & Neonatologist, Midnapore",
    "address": "Rabindranagar, Midnapore, West Bengal, West Bengal 721101",
    "phone": "Dr. Dibyajyoti De, Paediatrician & Neonatologist, Midnapore",
    "hours": null,
    "image_url": null
  },
  {
    "name": "Dr Somedeb Gupta Clinic",
    "address": "Library Road, Midnapore, West Bengal 721101",
    "phone": "Dr Somedeb Gupta Clinic",
    "hours": null,
    "image_url": "https://www.bing.com/maps/geoplat/REST/v1/Imagery/Map/RoadVibrant?ms=92,112&key=AnTcaqBi2ypp0xI-OZNi4W_ik2KhjgpqioTAtXLC8GzkMBQRMlyxvxyTnd5b73im&c=en-US&ur=in&da=n&logo=n&fmt=png&od=1&shading=hill&pp=22.419256,87.324936;dfp"
  },
  {
    "name": "Dr Mondal Clinic",
    "address": "Rabindra Nagar, Midnapore, West Bengal 721101",
    "phone": "Dr Mondal Clinic",
    "hours": null,
    "image_url": "https://www.bing.com/maps/geoplat/REST/v1/Imagery/Map/RoadVibrant?ms=92,112&key=AnTcaqBi2ypp0xI-OZNi4W_ik2KhjgpqioTAtXLC8GzkMBQRMlyxvxyTnd5b73im&c=en-US&ur=in&da=n&logo=n&fmt=png&od=1&shading=hill&pp=22.42145,87.320122;dfp"
  },
  {
    "name": "Dr Pratip Tarafdar Clinic",
    "address": "M N Nagar Road, Midnapore, West Bengal 721101",
    "phone": "Dr Pratip Tarafdar Clinic",
    "hours": null,
    "image_url": null
  },
  {
    "name": "Dr A K Mahapatra Clinic",
    "address": "Girja Road, Midnapore, Medinipur, West Bengal 721102",
    "phone": "Dr A K Mahapatra Clinic",
    "hours": null,
    "image_url": null
  },
  {
    "name": "Dr Sandip Mandal",
    "address": "College Road, Sainthia, West Bengal",
    "phone": "Dr Sandip Mandal",
    "hours": null,
    "image_url": "https://www.bing.com/maps/geoplat/REST/v1/Imagery/Map/RoadVibrant?ms=92,112&key=AnTcaqBi2ypp0xI-OZNi4W_ik2KhjgpqioTAtXLC8GzkMBQRMlyxvxyTnd5b73im&c=en-US&ur=in&da=n&logo=n&fmt=png&od=1&shading=hill&pp=22.42453,87.323448;dfp"
  },
  {
    "name": "Dr. A.s Mahapatra",
    "address": "Station Road, Midnapore, West Bengal 721101",
    "phone": "Dr. A.s Mahapatra",
    "hours": null,
    "image_url": null
  },
  {
    "name": "Dr.Samujjwal Roy's Clinic",
    "address": "C/o Prankrishna, Sushil Roy Ln, Near Community Hall, Netaji Nagar, Teliamura, Tripura",
    "phone": "Dr.Samujjwal Roy's Clinic",
    "hours": null,
    "image_url": "https://www.bing.com/maps/geoplat/REST/v1/Imagery/Map/RoadVibrant?ms=92,112&key=AnTcaqBi2ypp0xI-OZNi4W_ik2KhjgpqioTAtXLC8GzkMBQRMlyxvxyTnd5b73im&c=en-US&ur=in&da=n&logo=n&fmt=png&od=1&shading=hill&pp=22.415159,87.315002;dfp"
  },
  {
    "name": "Dr Haru Mallick | Best Ayurvedic Doctor in Neradeul | Physician  | C K Town | Medinipur",
    "address": "Talkui (Mallick Bazar), Neradeul, Keshpur, West Bengal",
    "phone": "Dr Haru Mallick | Best Ayurvedic Doctor in Neradeul | Physician  | C K Town | Medinipur",
    "hours": null,
    "image_url": "https://www.bing.com/maps/geoplat/REST/v1/Imagery/Map/RoadVibrant?ms=92,112&key=AnTcaqBi2ypp0xI-OZNi4W_ik2KhjgpqioTAtXLC8GzkMBQRMlyxvxyTnd5b73im&c=en-US&ur=in&da=n&logo=n&fmt=png&od=1&shading=hill&pp=22.425873,87.326523;dfp"
  },
  {
    "name": "Maa Ent Hospital",
    "address": "Madhyamik School Board Lane, Opposite Adda Resturant, Keranitola, Midnapore, West Bengal 721102",
    "phone": "Maa Ent Hospital",
    "hours": "Closed· Opens Wed 10:30",
    "image_url": null
  }
]