[
  {
    "name": "Dr R. Sarkanungo Clinic",
    "address": "Opposite Government Hospital, Sanawad Road, Government Hospital, Khargon, Khargone, Madhya Pra…",
    "phone": "Dr R. Sarkanungo Clinic",
    "hours": null,
    "image_url": "https://www.bing.com/maps/geoplat/REST/v1/Imagery/Map/RoadVibrant?ms=92,112&key=AnTcaqBi2ypp0xI-OZNi4W_ik2KhjgpqioTAtXLC8GzkMBQRMlyxvxyTnd5b73im&c=en-US&ur=in&da=n&logo=n&fmt=png&od=1&shading=hill&pp=21.832272,75.627563;dfp"
  },
  {
    "name": "Dr Ashok Somani Clinic",
    "address": "Opposite Central Bank Of India, Nutan Nagar Road, Nootan Nagar Colony, Khargone, Madhya Pradesh 451…",
    "phone": "Dr Ashok Somani Clinic",
    "hours": null,
    "image_url": "https://www.bing.com/maps/geoplat/REST/v1/Imagery/Map/RoadVibrant?ms=92,112&key=AnTcaqBi2ypp0xI-OZNi4W_ik2KhjgpqioTAtXLC8GzkMBQRMlyxvxyTnd5b73im&c=en-US&ur=in&da=n&logo=n&fmt=png&od=1&shading=hill&pp=21.824461,75.62101;dfp"
  },
  {
    "name": "Dr S. S. Chouhan Clinic",
    "address": "Near Hotel Dev Shree, Nutan Nagar Road, Nootan Nagar Colony, Khargon, Madhya Pradesh 451001",
    "phone": "Dr S. S. Chouhan Clinic",
    "hours": null,
    "image_url": "https://www.bing.com/maps/geoplat/REST/v1/Imagery/Map/RoadVibrant?ms=92,112&key=AnTcaqBi2ypp0xI-OZNi4W_ik2KhjgpqioTAtXLC8GzkMBQRMlyxvxyTnd5b73im&c=en-US&ur=in&da=n&logo=n&fmt=png&od=1&shading=hill&pp=21.824942,75.629974;dfp"
  },
  {
    "name": "Dr Satish Chandra Gupta",
    "address": "Chittorgarh Road, Ram Mandir, Tagore Park Colony Khargone, Khargone, Madhya Pradesh 451001",
    "phone": "Dr Satish Chandra Gupta",
    "hours": null,
    "image_url": "https://www.bing.com/maps/geoplat/REST/v1/Imagery/Map/RoadVibrant?ms=92,112&key=AnTcaqBi2ypp0xI-OZNi4W_ik2KhjgpqioTAtXLC8GzkMBQRMlyxvxyTnd5b73im&c=en-US&ur=in&da=n&logo=n&fmt=png&od=1&shading=hill&pp=21.829372,75.624519;dfp"
  },
  {
    "name": "clinic Dr Prafull Mahajan",
    "address": "Khargone Vrindavan Colony, Sanawad Rd, Khargone, Madhya Pradesh",
    "phone": "clinic Dr Prafull Mahajan",
    "hours": null,
    "image_url": "https://www.bing.com/maps/geoplat/REST/v1/Imagery/Map/RoadVibrant?ms=92,112&key=AnTcaqBi2ypp0xI-OZNi4W_ik2KhjgpqioTAtXLC8GzkMBQRMlyxvxyTnd5b73im&c=en-US&ur=in&da=n&logo=n&fmt=png&od=1&shading=hill&pp=21.82839,75.621803;dfp"
  },
  {
    "name": "Shri Sai Clinic",
    "address": "Devla Khargone Road, Jaitapur, Khargone, Madhya Pradesh 451001",
    "phone": "Shri Sai Clinic",
    "hours": null,
    "image_url": "https://www.bing.com/maps/geoplat/REST/v1/Imagery/Map/RoadVibrant?ms=92,112&key=AnTcaqBi2ypp0xI-OZNi4W_ik2KhjgpqioTAtXLC8GzkMBQRMlyxvxyTnd5b73im&c=en-US&ur=in&da=n&logo=n&fmt=png&od=1&shading=hill&pp=21.834349,75.635338;dfp"
  },
  {
    "name": "Sharma Clinic",
    "address": "Kandha Kuan Colony Road, Sankat Mochan Hanuman, Kanah Kuan Colony, Khargone, Madhya Pradesh 451001",
    "phone": "Sharma Clinic",
    "hours": null,
    "image_url": "https://www.bing.com/maps/geoplat/REST/v1/Imagery/Map/RoadVibrant?ms=92,112&key=AnTcaqBi2ypp0xI-OZNi4W_ik2KhjgpqioTAtXLC8GzkMBQRMlyxvxyTnd5b73im&c=en-US&ur=in&da=n&logo=n&fmt=png&od=1&shading=hill&pp=21.816757,75.62188;dfp"
  },
  {
    "name": "Dr DS Chauhan",
    "address": "Sanawad Road, Annapurna Nagar, Khargon, Khargone, Madhya Pradesh 451001",
    "phone": "Dr DS Chauhan",
    "hours": null,
    "image_url": "https://www.bing.com/maps/geoplat/REST/v1/Imagery/Map/RoadVibrant?ms=92,112&key=AnTcaqBi2ypp0xI-OZNi4W_ik2KhjgpqioTAtXLC8GzkMBQRMlyxvxyTnd5b73im&c=en-US&ur=in&da=n&logo=n&fmt=png&od=1&shading=hill&pp=21.831846,75.625923;dfp"
  },
  {
    "name": "DR. Thakur Singh Clinic",
    "address": "01 Ward Khargone, Thakur Bahwan, 01, Khargone, Madhya Pradesh 451001",
    "phone": "DR. Thakur Singh Clinic",
    "hours": null,
    "image_url": "https://www.bing.com/maps/geoplat/REST/v1/Imagery/Map/RoadVibrant?ms=92,112&key=AnTcaqBi2ypp0xI-OZNi4W_ik2KhjgpqioTAtXLC8GzkMBQRMlyxvxyTnd5b73im&c=en-US&ur=in&da=n&logo=n&fmt=png&od=1&shading=hill&pp=21.837103,75.612686;dfp"
  },
  {
    "name": "Al Shifa Clinic",
    "address": "Azad Nagar Road, Jyoteshwar Mahadev Mandir, Azad Nagar Khargone, Khargone, Madhya Pradesh 451001",
    "phone": "Al Shifa Clinic",
    "hours": null,
    "image_url": "https://www.bing.com/maps/geoplat/REST/v1/Imagery/Map/RoadVibrant?ms=92,112&key=AnTcaqBi2ypp0xI-OZNi4W_ik2KhjgpqioTAtXLC8GzkMBQRMlyxvxyTnd5b73im&c=en-US&ur=in&da=n&logo=n&fmt=png&od=1&shading=hill&pp=21.8172,75.612175;dfp"
  },
  {
    "name": "Rahat Clinic",
    "address": "Tilak Path, State Bank India, Kazi Pura Khargone Madhya Pradesh, Khargone, Madhya Pradesh 451001",
    "phone": "Rahat Clinic",
    "hours": null,
    "image_url": "https://www.bing.com/maps/geoplat/REST/v1/Imagery/Map/RoadVibrant?ms=92,112&key=AnTcaqBi2ypp0xI-OZNi4W_ik2KhjgpqioTAtXLC8GzkMBQRMlyxvxyTnd5b73im&c=en-US&ur=in&da=n&logo=n&fmt=png&od=1&shading=hill&pp=21.823563,75.612122;dfp"
  },
  {
    "name": "Dr Hanif Khan SIR JIT",
    "address": "Vidhya Vihar, Borawan, Tehsil -Kasrawad, Khargon, Madhya Pradesh 451228",
    "phone": "Dr Hanif Khan SIR JIT",
    "hours": null,
    "image_url": null
  },
  {
    "name": "Ayurkalp Ayurvedic Panchkarma Clinic And Infertility Centre",
    "address": "A-43 Gouridham, Khargone, Madhya Pradesh 451001",
    "phone": "Ayurkalp Ayurvedic Panchkarma Clinic And Infertility Centre",
    "hours": null,
    "image_url": null
  },
  {
    "name": "Dr. Ashutosh Singh",
    "address": "Suraj Medicose, Sanawad Road, Khargone, Madhya Pradesh",
    "phone": "Dr. Ashutosh Singh",
    "hours": "Closed· Opens Sep 28 at 10:00",
    "image_url": null
  },
  {
    "name": "Dr Ashish Soni Homeopathy",
    "address": "67 Sanawad Road Near Rto, Khargon, Madhya Pradesh, Madhya Pradesh 451001",
    "phone": "Dr Ashish Soni Homeopathy",
    "hours": "Open· Closes 17:00",
    "image_url": null
  },
  {
    "name": "Pari Homoeopathic Clinic",
    "address": "Near LIC Office IN Front Kaka Auto Garage Badwah, Road, Mandleshwar, Madhya Pradesh",
    "phone": "Pari Homoeopathic Clinic",
    "hours": null,
    "image_url": "https://www.bing.com/maps/geoplat/REST/v1/Imagery/Map/RoadVibrant?ms=92,112&key=AnTcaqBi2ypp0xI-OZNi4W_ik2KhjgpqioTAtXLC8GzkMBQRMlyxvxyTnd5b73im&c=en-US&ur=in&da=n&logo=n&fmt=png&od=1&shading=hill&pp=22.192509,75.664642;dfp"
  },
  {
    "name": "MP Fertility Center | Test Tube Baby Center Khargone | Dr. Malika Jain Doshi | Best IVF Center",
    "address": "Sanawad Rd, Near Vijaylaxmi Hospital, Vishwa Sakha Nagar, Khargone, Madhya Pradesh",
    "phone": "MP Fertility Center | Test Tube Baby Center Khargone | Dr. Malika Jain Doshi | Best IVF Center",
    "hours": null,
    "image_url": null
  },
  {
    "name": "Sampurna Sodani Diagnostic Clinic",
    "address": "Opp Bhandari Jining Mill, Sanawad Road, Khargone, Madhya Pradesh",
    "phone": "Sampurna Sodani Diagnostic Clinic",
    "hours": null,
    "image_url": "https://www.bing.com/maps/geoplat/REST/v1/Imagery/Map/RoadVibrant?ms=92,112&key=AnTcaqBi2ypp0xI-OZNi4W_ik2KhjgpqioTAtXLC8GzkMBQRMlyxvxyTnd5b73im&c=en-US&ur=in&da=n&logo=n&fmt=png&od=1&shading=hill&pp=22.160851,76.071144;dfp"
  }
]