[
  {
    "name": "Dr. Bhupesh D. Shah",
    "address": "114, Span Trade Centre, Opp. Kocharab Ashram, Nr. Paldi Cross Road. Paldi, Ahmedabad, Gujarat 380007",
    "phone": "Dr. Bhupesh D. Shah",
    "hours": "Closed · Opens tomorrow 10:00",
    "imageUrl": "https://www.bing.com/th?id=OLC.yDHYr26d4Xu%2fBQ480x360&w=92&h=134&c=8&rs=1&qlt=80&cdv=1&pid=Local"
  },
  {
    "name": "Dr. Vishal Jogi",
    "address": "703, Satya One Complex, Near Helmet Circle Opposite Manav Mandir / R3 Mall, Drive In Rd, Memnagar, Ahme…",
    "phone": "Dr. Vishal Jogi",
    "hours": "Closed · Opens tomorrow 11:30",
    "imageUrl": "https://www.bing.com/th?id=OLC.KJETZwGyiC%2bQ9Q480x360&w=92&h=134&c=8&rs=1&qlt=80&cdv=1&pid=Local"
  },
  {
    "name": "Dr. Navin D Khimesra",
    "address": "206, Austmangal Complex, Nr. Rajasthan Hosp, Shahibaug, Ahmedabad, Gujarat 380004",
    "phone": "Dr. Navin D Khimesra",
    "hours": "Closed · Opens tomorrow 09:00",
    "imageUrl": "https://www.bing.com/th?id=OLC.H6HT%2bbv3SlsDUw480x360&w=92&h=134&c=8&rs=1&qlt=80&cdv=1&pid=Local"
  },
  {
    "name": "Dr. Jigar Desai",
    "address": "1 Syamal Cosyamal Complex, Maningar Bhairavnath Road, Ahmedabad, Gujarat 380008",
    "phone": "Dr. Jigar Desai",
    "hours": "Closed · Opens tomorrow 09:00",
    "imageUrl": "https://www.bing.com/th?id=OLC.sSCZvC9H0FgIDQ480x360&w=92&h=134&c=8&rs=1&qlt=80&cdv=1&pid=Local"
  },
  {
    "name": "Dr. Siddharth Shah",
    "address": "2nd Floor, Aeon, Nr. Vijay Cross Roads, Navrangpura, Ahmedabad 380009",
    "phone": "Dr. Siddharth Shah",
    "hours": null,
    "imageUrl": "https://www.bing.com/th?id=OLC.doq7pKnFh8b%2bvQ480x360&w=92&h=112&c=8&rs=1&qlt=80&cdv=1&pid=Local"
  },
  {
    "name": "Dr. Kushal Shah, M Ch Neurosurgery, Brain & Spine Surgeon",
    "address": "Lifecare Institute of Medical Science and Research Sardar Patel Statue, Corner, Sardar Patel Stadium Rd, …",
    "phone": "Dr. Kushal Shah, M Ch Neurosurgery, Brain & Spine Surgeon",
    "hours": "Open 24 hours",
    "imageUrl": "https://www.bing.com/th?id=OLC.8vU7es9qgvGaLQ480x360&w=92&h=134&c=8&rs=1&qlt=80&cdv=1&pid=Local"
  },
  {
    "name": "Dr. Anshul Warman",
    "address": "Apollo Hospitals City Centre Ahmedabad, 1, Tulsi Baug Society, Near Parimal Garden, Opp. Doctor House, Elli…",
    "phone": "Dr. Anshul Warman",
    "hours": "Closed · Opens tomorrow 09:00",
    "imageUrl": "https://www.bing.com/maps/geoplat/REST/v1/Imagery/Map/RoadVibrant?ms=92,134&key=AnTcaqBi2ypp0xI-OZNi4W_ik2KhjgpqioTAtXLC8GzkMBQRMlyxvxyTnd5b73im&c=en-US&ur=in&da=n&logo=n&fmt=png&od=1&shading=hill&pp=23.017277,72.555809;dfp"
  },
  {
    "name": "Dr. Ramesh Goyal",
    "address": "203-206, Aeon Complex, Above Wok on Fire Restaurant, Opp Navkar Institute, Vijaycharrasta, Navrangpura, Ah…",
    "phone": "Dr. Ramesh Goyal",
    "hours": "Closed · Opens tomorrow 17:30",
    "imageUrl": "https://th.bing.com/th?id=OLC.MypumZy1B0INyg480x360&w=92&h=134&c=8&rs=1&qlt=80&cdv=1&pid=Local"
  },
  {
    "name": "Dr. Vipul Patadia",
    "address": "2, Kumar Flat, Near Indian Bank, Daxini Soc. Maninagar, Ahmedabad, Gujarat 380008",
    "phone": "Dr. Vipul Patadia",
    "hours": "Closed · Opens tomorrow 11:00",
    "imageUrl": "https://th.bing.com/th?id=OLC.%2bBgfxNra1oocGQ480x360&w=92&h=134&c=8&rs=1&qlt=80&cdv=1&pid=Local"
  },
  {
    "name": "Dr. Kalpana S. Shah",
    "address": "10, Amit Park Society, Ahmedabad 382443",
    "phone": "Dr. Kalpana S. Shah",
    "hours": "Closed · Opens tomorrow 10:00",
    "imageUrl": "https://th.bing.com/th?id=OLC.j1RcqKrw5jFP9w480x360&w=92&h=134&c=8&rs=1&qlt=80&cdv=1&pid=Local"
  },
  {
    "name": "Sangini Hospital",
    "address": "Santorini Square, Opp Star Bazzar, Jodpur Cross Roads, Ahmedabad, Gujarat 380015",
    "phone": "Sangini Hospital",
    "hours": "Closed · Opens tomorrow 08:00",
    "imageUrl": "https://th.bing.com/th?id=OLC.qVJM4QlWuarIeQ480x360&w=92&h=134&c=8&rs=1&qlt=80&cdv=1&pid=Local"
  },
  {
    "name": "Dr. Nirav D Vakani",
    "address": "Near AEC Cross Road, Naranpura, Ahmedabad",
    "phone": "Dr. Nirav D Vakani",
    "hours": "Closed · Opens tomorrow 10:00",
    "imageUrl": "https://th.bing.com/th?id=OLC.%2ffG1TnTcGgo%2bQw480x360&w=92&h=112&c=8&rs=1&qlt=80&cdv=1&pid=Local"
  },
  {
    "name": "Dr. Purnima R Shah",
    "address": "6, Sun Palace, Ahmedabad, Ahmedabad 380052",
    "phone": "Dr. Purnima R Shah",
    "hours": "Closed · Opens tomorrow 17:00",
    "imageUrl": "https://th.bing.com/th?id=OLC.fPNTmMsQSKy3Dg480x360&w=92&h=134&c=8&rs=1&qlt=80&cdv=1&pid=Local"
  },
  {
    "name": "Dr. Deval A. Parikh",
    "address": "Landmark: Near Old High Court, Opp. Loha Bhavan, Ahmedabad, Gujarat",
    "phone": "Dr. Deval A. Parikh",
    "hours": "Closed · Opens tomorrow 09:00",
    "imageUrl": "https://www.bing.com/maps/geoplat/REST/v1/Imagery/Map/RoadVibrant?ms=92,112&key=AnTcaqBi2ypp0xI-OZNi4W_ik2KhjgpqioTAtXLC8GzkMBQRMlyxvxyTnd5b73im&c=en-US&ur=in&da=n&logo=n&fmt=png&od=1&shading=hill&pp=23.037975,72.567589;dfp"
  },
  {
    "name": "Vishwa Ent Hospital - Best ENT Surgeon/Doctor/Specialist |Gujarat|Satellite|Jodhpur|Va…",
    "address": "402, Aditya Plaza Complex, Near Karnavati Flats, Near Jodhpur Char Rasta, Satellite, Ahmedabad, Gujarat",
    "phone": "Vishwa Ent Hospital - Best ENT Surgeon/Doctor/Specialist |Gujarat|Satellite|Jodhpur|Va…",
    "hours": null,
    "imageUrl": "https://www.bing.com/maps/geoplat/REST/v1/Imagery/Map/RoadVibrant?ms=92,112&key=AnTcaqBi2ypp0xI-OZNi4W_ik2KhjgpqioTAtXLC8GzkMBQRMlyxvxyTnd5b73im&c=en-US&ur=in&da=n&logo=n&fmt=png&od=1&shading=hill&pp=23.021515,72.525642;dfp"
  },
  {
    "name": "Dr. Rakesh Parikh",
    "address": "Gulbai Tekra Road, Ahmedabad, Ahmedabad 380006",
    "phone": "Dr. Rakesh Parikh",
    "hours": null,
    "imageUrl": "https://www.bing.com/maps/geoplat/REST/v1/Imagery/Map/RoadVibrant?ms=92,112&key=AnTcaqBi2ypp0xI-OZNi4W_ik2KhjgpqioTAtXLC8GzkMBQRMlyxvxyTnd5b73im&c=en-US&ur=in&da=n&logo=n&fmt=png&od=1&shading=hill&pp=23.026178,72.553062;dfp"
  },
  {
    "name": "Apollo Hospitals",
    "address": "Apollo Hospitals International Limited Gandhinagar, Plot No 1a, Bhat Gidc Estate, Gandhinagar, Ahmedabad, G…",
    "phone": "Apollo Hospitals",
    "hours": "Closed · Opens tomorrow 09:00",
    "imageUrl": "https://th.bing.com/th?id=OLC.KcUr%2b2Iofv3Utg480x360&w=92&h=134&c=8&rs=1&qlt=80&cdv=1&pid=Local"
  },
  {
    "name": "Dr. Sujata Mehta Ambalal",
    "address": "Opp. St. Xavier's College, Navrangpura, Ahmedabad, Gujarat 380009",
    "phone": "Dr. Sujata Mehta Ambalal",
    "hours": "Closed · Opens tomorrow 09:30",
    "imageUrl": "https://th.bing.com/th?id=OLC.WkUdZatJ%2f4o3Zw480x360&w=92&h=134&c=8&rs=1&qlt=80&cdv=1&pid=Local"
  },
  {
    "name": "Dr. Bhupesh D. Shah",
    "address": "114, Span Trade Centre, Opp. Kocharab Ashram, Nr. Paldi Cross Road. Paldi, Ahmedabad, Gujarat 380007",
    "phone": "Dr. Bhupesh D. Shah",
    "hours": "Closed · Opens tomorrow 10:00",
    "imageUrl": "https://www.bing.com/th?id=OLC.yDHYr26d4Xu%2fBQ480x360&w=92&h=134&c=8&rs=1&qlt=80&cdv=1&pid=Local"
  },
  {
    "name": "Dr. Vishal Jogi",
    "address": "703, Satya One Complex, Near Helmet Circle Opposite Manav Mandir / R3 Mall, Drive In Rd, Memnagar, Ahme…",
    "phone": "Dr. Vishal Jogi",
    "hours": "Closed · Opens tomorrow 11:30",
    "imageUrl": "https://www.bing.com/th?id=OLC.KJETZwGyiC%2bQ9Q480x360&w=92&h=134&c=8&rs=1&qlt=80&cdv=1&pid=Local"
  }
]